timestamp,stabilizer.roll,stabilizer.pitch,stateEstimateZ.rateRoll,stateEstimateZ.ratePitch,controller.pitchRate,controller.rollRate,roll,pitch,yawdot,thrust
664876,-36.651920318603516,64.21762084960938,-3.0,-10.0,-773.6939697265625,221.67068481445312,0,0,0,40000
664886,-36.692832946777344,64.20355987548828,11.0,-5.0,-775.4515380859375,223.016357421875,0,0,0,40000
664896,-36.699241638183594,64.16175079345703,-27.0,-78.0,-776.875244140625,224.15576171875,0,0,0,40000
664906,-36.70029067993164,64.06840515136719,-81.0,-157.0,-777.678466796875,225.26316833496094,0,0,0,40000
664916,-36.584693908691406,63.93497085571289,-67.0,-464.0,-777.9970092773438,225.66860961914062,0,0,0,40000
664926,-36.16155242919922,63.56986618041992,52.0,-747.0,-775.5277099609375,224.22071838378906,0,0,0,40000
664936,-35.7093391418457,63.2095832824707,67.0,-1219.0,-773.1051635742188,222.5845184326172,0,0,0,40000
664946,-34.57148361206055,62.35982131958008,-45.0,-1756.0,-764.7899169921875,216.80909729003906,0,0,0,40000
664956,-33.550636291503906,61.57624435424805,6.0,-2407.0,-757.2439575195312,211.70321655273438,0,0,0,40000
664966,-31.619108200073242,59.988182067871094,105.0,-3174.0,-740.00732421875,201.0872344970703,0,0,0,40000
664976,-30.110824584960938,58.61573791503906,133.0,-4022.0,-725.3134155273438,192.95921325683594,0,0,0,40000
664986,-27.57912826538086,56.0172119140625,86.0,-4884.0,-695.844482421875,178.6271209716797,0,0,0,40000
664996,-25.76665687561035,53.88214874267578,194.0,-5816.0,-671.8663940429688,168.54714965820312,0,0,0,40000
665006,-23.0460147857666,50.049560546875,360.0,-6776.0,-627.4248657226562,152.94747924804688,0,0,0,40000
665016,-21.271320343017578,47.03165054321289,464.0,-7852.0,-592.65771484375,142.958740234375,0,0,0,40000
665026,-18.702011108398438,41.774742126464844,509.0,-8776.0,-530.8933715820312,128.13427734375,0,0,0,40000
665036,-17.07607650756836,37.78258514404297,716.0,-9788.0,-484.1694641113281,118.91036987304688,0,0,0,40000
665046,-14.796442985534668,31.14047622680664,1072.0,-10583.0,-405.47991943359375,105.70347595214844,0,0,0,40000
665056,-13.398609161376953,26.369691848754883,1414.0,-11186.0,-349.0791931152344,97.73517608642578,0,0,0,40000
665066,-11.396001815795898,18.877300262451172,1721.0,-11450.0,-259.827392578125,86.08499908447266,0,0,0,40000
665076,-10.111100196838379,13.803102493286133,2034.0,-11435.0,-199.41201782226562,78.69413757324219,0,0,0,40000
665086,-8.226337432861328,6.245936870574951,2431.0,-11090.0,-109.00349426269531,67.65494537353516,0,0,0,40000
665096,-6.9665093421936035,1.4030894041061401,2757.0,-10530.0,-50.989227294921875,60.32025909423828,0,0,0,40000
665106,-5.050558567047119,-5.436048984527588,2952.0,-9729.0,31.1630859375,48.99945068359375,0,0,0,40000
665116,-3.7423946857452393,-9.616783142089844,3036.0,-8808.0,81.57070922851562,41.27854919433594,0,0,0,40000
665126,-1.6788952350616455,-15.194005012512207,2995.0,-7691.0,148.888671875,28.972759246826172,0,0,0,40000
665136,-0.23992562294006348,-18.370996475219727,2848.0,-6435.0,187.5262908935547,20.363300323486328,0,0,0,40000
665146,1.9531282186508179,-22.223777770996094,2769.0,-5102.0,234.38320922851562,7.172798156738281,0,0,0,40000
665156,3.438396692276001,-24.149263381958008,2697.0,-3703.0,258.19122314453125,-1.8240489959716797,0,0,0,40000
665166,5.601788520812988,-26.007898330688477,2474.0,-2195.0,281.2561340332031,-14.946680068969727,0,0,0,40000
665176,6.953935623168945,-26.543306350708008,2280.0,-688.0,288.47174072265625,-23.25210952758789,0,0,0,40000
665186,8.80431079864502,-26.291412353515625,2084.0,835.0,286.244140625,-34.59716033935547,0,0,0,40000
665196,9.894712448120117,-25.415353775024414,1898.0,2394.0,276.5052795410156,-41.423553466796875,0,0,0,40000
665206,11.232477188110352,-23.03309440612793,1691.0,3968.0,248.64108276367188,-49.7720832824707,0,0,0,40000
665216,11.931374549865723,-20.764711380004883,1508.0,5471.0,222.07147216796875,-54.31525421142578,0,0,0,40000
665226,12.7441987991333,-16.47308349609375,1299.0,6738.0,171.12014770507812,-59.5655517578125,0,0,0,40000
665236,13.15615177154541,-13.14225959777832,1056.0,7705.0,131.58497619628906,-62.42713928222656,0,0,0,40000
665246,13.608177185058594,-7.67446756362915,823.0,8335.0,66.26861572265625,-65.54249572753906,0,0,0,40000
665256,13.816976547241211,-3.814188003540039,527.0,8759.0,20.106182098388672,-67.2074203491211,0,0,0,40000
665266,14.03868293762207,2.1175286769866943,207.0,8897.0,-51.066558837890625,-68.95659637451172,0,0,0,40000
665276,14.125855445861816,6.0829620361328125,-85.0,8842.0,-98.7867202758789,-69.90240478515625,0,0,0,40000
665286,14.164895057678223,11.92438793182373,-342.0,8657.0,-169.1719970703125,-70.56123352050781,0,0,0,40000
665296,14.142728805541992,15.688587188720703,-581.0,8270.0,-214.76809692382812,-70.85282135009766,0,0,0,40000
665306,14.005931854248047,21.00830078125,-857.0,7719.0,-279.17218017578125,-70.45431518554688,0,0,0,40000
665316,13.82518196105957,24.28565216064453,-1041.0,7039.0,-319.19000244140625,-69.78693389892578,0,0,0,40000
665326,13.412407875061035,28.719745635986328,-1211.0,6205.0,-373.20928955078125,-67.71819305419922,0,0,0,40000
665336,13.016823768615723,31.294612884521484,-1300.0,5286.0,-405.01605224609375,-65.7400894165039,0,0,0,40000
665346,12.233922004699707,34.55352783203125,-1375.0,4306.0,-445.1226806640625,-61.419586181640625,0,0,0,40000
665356,11.55793571472168,36.27515411376953,-1452.0,3284.0,-466.850341796875,-57.71873474121094,0,0,0,40000
665366,10.342533111572266,38.14848327636719,-1494.0,2193.0,-490.45465087890625,-50.75183868408203,0,0,0,40000
665376,9.387166023254395,38.90424346923828,-1501.0,1079.0,-500.68243408203125,-45.31287384033203,0,0,0,40000
665386,7.78031063079834,39.277793884277344,-1539.0,-54.0,-506.3413391113281,-35.9249382019043,0,0,0,40000
665396,6.622945308685303,39.004817962646484,-1587.0,-1198.0,-504.23968505859375,-29.19344139099121,0,0,0,40000
665406,4.815211772918701,37.78981018066406,-1597.0,-2357.0,-490.8105163574219,-18.513322830200195,0,0,0,40000
665416,3.610800266265869,36.43445587158203,-1635.0,-3517.0,-475.6562194824219,-11.409605026245117,0,0,0,40000
665426,1.856751799583435,33.58771896362305,-1651.0,-4658.0,-442.5397033691406,-0.9617919921875,0,0,0,40000
665436,0.7542745471000671,31.150630950927734,-1684.0,-5788.0,-414.2590637207031,5.617345809936523,0,0,0,40000
665446,-0.7636354565620422,26.74477195739746,-1695.0,-6834.0,-362.2463073730469,14.729918479919434,0,0,0,40000
665456,-1.6960139274597168,23.349027633666992,-1689.0,-7766.0,-322.23907470703125,20.364025115966797,0,0,0,40000
665466,-2.960017204284668,17.761432647705078,-1710.0,-8360.0,-255.7891082763672,28.021991729736328,0,0,0,40000
665476,-3.7229037284851074,13.848786354064941,-1649.0,-8653.0,-209.29991149902344,32.70186233520508,0,0,0,40000
665486,-4.791708469390869,7.911850929260254,-1586.0,-8668.0,-138.3651885986328,39.245880126953125,0,0,0,40000
665496,-5.45399284362793,4.0211358070373535,-1440.0,-8426.0,-91.84379577636719,43.375335693359375,0,0,0,40000
665506,-6.36944580078125,-1.5457240343093872,-1289.0,-7998.0,-25.060842514038086,49.04832458496094,0,0,0,40000
665516,-6.943539619445801,-5.014345169067383,-1108.0,-7390.0,16.671768188476562,52.6943359375,0,0,0,40000
665526,-7.719790935516357,-9.71631145477295,-917.0,-6603.0,73.33222961425781,57.57429122924805,0,0,0,40000
665536,-8.169778823852539,-12.466643333435059,-708.0,-5774.0,106.67765808105469,60.513954162597656,0,0,0,40000
665546,-8.729354858398438,-15.945622444152832,-488.0,-4772.0,148.86422729492188,64.12693786621094,0,0,0,40000
665556,-9.007192611694336,-17.799047470092773,-267.0,-3728.0,171.61758422851562,66.06096649169922,0,0,0,40000
665566,-9.260726928710938,-19.820316314697266,-92.0,-2566.0,196.4457244873047,67.85743713378906,0,0,0,40000
665576,-9.281661033630371,-20.621179580688477,67.0,-1347.0,206.66574096679688,68.26127624511719,0,0,0,40000
665586,-9.134154319763184,-20.99663543701172,311.0,6.0,211.79965209960938,67.65278625488281,0,0,0,40000
665596,-8.887149810791016,-20.642770767211914,628.0,1414.0,208.1776580810547,66.44073486328125,0,0,0,40000
665606,-8.322124481201172,-19.147876739501953,797.0,2828.0,190.83438110351562,63.30792999267578,0,0,0,40000
665616,-7.850661277770996,-17.5120849609375,905.0,4224.0,171.7506103515625,60.720436096191406,0,0,0,40000
665626,-6.994762420654297,-14.21655559539795,1039.0,5334.0,132.67269897460938,55.80533981323242,0,0,0,40000
665636,-6.346668720245361,-11.559809684753418,1234.0,6194.0,101.17086791992188,52.1149787902832,0,0,0,40000
665646,-5.304612636566162,-7.10885763168335,1383.0,6768.0,48.02733612060547,46.034423828125,0,0,0,40000
665656,-4.550747871398926,-3.9436495304107666,1574.0,7081.0,10.201290130615234,41.6568717956543,0,0,0,40000
665666,-3.403481960296631,0.9476744532585144,1726.0,7195.0,-48.464107513427734,34.88945770263672,0,0,0,40000
665676,-2.6165659427642822,4.223527431488037,1779.0,7139.0,-87.8617935180664,30.255950927734375,0,0,0,40000
665686,-1.3932249546051025,9.016039848327637,1814.0,6915.0,-145.58541870117188,22.972457885742188,0,0,0,40000
665696,-0.5547153949737549,12.082235336303711,1782.0,6562.0,-182.70562744140625,17.968080520629883,0,0,0,40000
665706,0.7119297981262207,16.381633758544922,1755.0,6084.0,-234.7393798828125,10.362170219421387,0,0,0,40000
665716,1.573216199874878,18.98987579345703,1719.0,5466.0,-266.5769958496094,5.157702445983887,0,0,0,40000
665726,2.8667960166931152,22.44749641418457,1578.0,4784.0,-308.70196533203125,-2.6742944717407227,0,0,0,40000
665736,3.7023510932922363,24.399681091308594,1437.0,3982.0,-332.837158203125,-7.788741111755371,0,0,0,40000
665746,4.8988142013549805,26.744667053222656,1242.0,3130.0,-361.75323486328125,-15.1004638671875,0,0,0,40000
665756,5.653990745544434,27.89387321472168,1149.0,2206.0,-376.36724853515625,-19.792131423950195,0,0,0,40000
665766,6.6644721031188965,28.95458984375,1031.0,1236.0,-389.9539489746094,-26.043039321899414,0,0,0,40000
665776,7.24290657043457,29.196062088012695,887.0,195.0,-393.72515869140625,-29.724079132080078,0,0,0,40000
665786,7.949450492858887,28.844331741333008,716.0,-863.0,-390.37628173828125,-34.194000244140625,0,0,0,40000
665796,8.308048248291016,28.11748695373535,606.0,-1971.0,-382.50701904296875,-36.59064483642578,0,0,0,40000
665806,8.673408508300781,26.289621353149414,528.0,-3088.0,-361.3856506347656,-39.039039611816406,0,0,0,40000
665816,8.809207916259766,24.55673599243164,388.0,-4235.0,-341.34912109375,-40.11659240722656,0,0,0,40000
665826,8.875042915344238,21.182668685913086,278.0,-5393.0,-301.5387268066406,-40.77742004394531,0,0,0,40000
665836,8.840746879577637,18.45306968688965,162.0,-6428.0,-269.37042236328125,-40.83735275268555,0,0,0,40000
665846,8.714733123779297,13.771675109863281,75.0,-7169.0,-213.66455078125,-40.34431076049805,0,0,0,40000
665856,8.578937530517578,10.413408279418945,-127.0,-7526.0,-173.7182159423828,-39.78861999511719,0,0,0,40000
665866,8.3462495803833,5.288412570953369,-267.0,-7561.0,-112.4384765625,-38.6458740234375,0,0,0,40000
665876,8.160492897033691,1.9341193437576294,-388.0,-7301.0,-72.28506469726562,-37.778385162353516,0,0,0,40000
665886,7.954766750335693,-1.288254737854004,-496.0,-6807.0,-15.114776611328125,-36.14765167236328,0,0,0,40000
665896,7.608828544616699,-5.738579273223877,-586.0,-6189.0,19.919288635253906,-34.8931884765625,0,0,0,40000
665906,7.333176612854004,-8.352699279785156,-709.0,-5290.0,51.508392333984375,-33.46266174316406,0,0,0,40000
665916,6.873041152954102,-11.630687713623047,-796.0,-4287.0,91.156005859375,-30.913795471191406,0,0,0,40000
665926,6.534368991851807,-13.334686279296875,-831.0,-3163.0,111.98417663574219,-29.081893920898438,0,0,0,40000
665936,5.954313278198242,-15.07234001159668,-860.0,-1875.0,133.2701416015625,-25.78723907470703,0,0,0,40000
665946,5.5353193283081055,-15.635472297668457,-881.0,-551.0,140.4907684326172,-23.44440269470215,0,0,0,40000
665956,4.86958646774292,-15.549647331237793,-887.0,846.0,139.93145751953125,-19.604183197021484,0,0,0,40000
665966,4.41694974899292,-14.855480194091797,-899.0,2208.0,132.05618286132812,-17.026342391967773,0,0,0,40000
665976,3.725712299346924,-12.9535551071167,-906.0,3348.0,109.64703369140625,-12.99896240234375,0,0,0,40000
665986,3.276191473007202,-11.231767654418945,-902.0,4193.0,89.34366607666016,-10.405487060546875,0,0,0,40000
665996,2.6195993423461914,-8.17148494720459,-856.0,4745.0,52.903350830078125,-6.552206993103027,0,0,0,40000
666006,2.211059808731079,-5.931545734405518,-835.0,5045.0,26.22906494140625,-4.1722002029418945,0,0,0,40000
666016,1.6376147270202637,-2.4445221424102783,-814.0,5121.0,-15.499847412109375,-0.7874917984008789,0,0,0,40000
666026,1.2880994081497192,-0.10239587724208832,-746.0,5063.0,-43.57420349121094,1.2667970657348633,0,0,0,40000
666036,0.7992993593215942,3.288198709487915,-662.0,4816.0,-84.31988525390625,4.169944763183594,0,0,0,40000
666046,0.5093871355056763,5.407834053039551,-578.0,4417.0,-109.89253997802734,5.890715599060059,0,0,0,40000
666056,0.13833953440189362,8.265239715576172,-466.0,3929.0,-144.39617919921875,8.108642578125,0,0,0,40000
666066,-0.07036467641592026,9.920642852783203,-413.0,3332.0,-164.53909301757812,9.360506057739258,0,0,0,40000
666076,-0.3257516026496887,11.964043617248535,-313.0,2643.0,-189.3957977294922,10.899728775024414,0,0,0,40000
666086,-0.4578890800476074,12.995528221130371,-232.0,1860.0,-202.15151977539062,11.704747200012207,0,0,0,40000
666096,-0.5937514901161194,13.99124526977539,-119.0,1026.0,-214.50973510742188,12.536443710327148,0,0,0,40000
666106,-0.6383484601974487,14.240628242492676,-28.0,78.0,-217.9271240234375,12.822700500488281,0,0,0,40000
666116,-0.6414847373962402,13.962021827697754,35.0,-887.0,-215.00807189941406,12.860923767089844,0,0,0,40000
666126,-0.5935651063919067,13.337468147277832,154.0,-1876.0,-207.92156982421875,12.591862678527832,0,0,0,40000
666136,-0.4542996287345886,11.698990821838379,218.0,-2885.0,-188.6326904296875,11.771730422973633,0,0,0,40000
666146,-0.3297157287597656,10.15278434753418,285.0,-3846.0,-170.40188598632812,11.035608291625977,0,0,0,40000
666156,-0.08403222262859344,7.237512111663818,339.0,-4620.0,-135.67239379882812,9.567026138305664,0,0,0,40000
666166,0.10801214724779129,5.015673637390137,440.0,-5041.0,-109.18771362304688,8.413871765136719,0,0,0,40000
666176,0.4262610971927643,1.4975608587265015,485.0,-5182.0,-67.05784606933594,6.495537757873535,0,0,0,40000
666186,0.6613807678222656,-0.8372935056686401,556.0,-5012.0,-39.042396545410156,5.067882537841797,0,0,0,40000
666196,1.0408682823181152,-4.137277603149414,576.0,-4574.0,0.642913818359375,2.764327049255371,0,0,0,40000
666206,1.299225091934204,-6.084163188934326,566.0,-3917.0,24.165077209472656,1.1782708168029785,0,0,0,40000
666216,1.6990123987197876,-8.492661476135254,544.0,-3086.0,53.29478454589844,-1.2666683197021484,0,0,0,40000
666226,1.9780709743499756,-9.675064086914062,564.0,-2091.0,67.76022338867188,-2.997025489807129,0,0,0,40000
666236,2.362050771713257,-10.716140747070312,512.0,-921.0,80.56468963623047,-5.367210388183594,0,0,0,40000
666246,2.6011223793029785,-10.865893363952637,519.0,247.0,82.68655395507812,-6.876788139343262,0,0,0,40000
666256,2.929938316345215,-10.28893756866455,425.0,1408.0,76.0811767578125,-8.933835983276367,0,0,0,40000
666266,3.122230052947998,-9.425688743591309,376.0,2302.0,66.01581573486328,-10.178962707519531,0,0,0,40000
666276,3.3600363731384277,-7.597109794616699,329.0,2962.0,44.324100494384766,-11.70382308959961,0,0,0,40000
666286,3.482318162918091,-6.15548038482666,259.0,3319.0,27.226703643798828,-12.540531158447266,0,0,0,40000
666296,3.6285557746887207,-3.820478677749634,185.0,3466.0,-0.6503372192382812,-13.525259017944336,0,0,0,40000
666306,3.7062642574310303,-2.2541158199310303,127.0,3365.0,-19.360313415527344,-14.101806640625,0,0,0,40000
666316,3.78206467628479,-0.05262415483593941,81.0,3053.0,-45.75094985961914,-14.669252395629883,0,0,0,40000
666326,3.809037923812866,1.2506628036499023,22.0,2623.0,-61.412506103515625,-14.945058822631836,0,0,0,40000
666336,3.806769371032715,2.862050771713257,-31.0,2057.0,-80.81692504882812,-15.045761108398438,0,0,0,40000
666346,3.783045768737793,3.6520652770996094,-69.0,1387.0,-90.3975601196289,-15.017221450805664,0,0,0,40000
666356,3.72051739692688,4.332331657409668,-107.0,600.0,-98.68426513671875,-14.754505157470703,0,0,0,40000
666366,3.6607983112335205,4.405348777770996,-161.0,-258.0,-99.6922378540039,-14.506780624389648,0,0,0,40000
666376,3.535261869430542,3.912273645401001,-187.0,-1153.0,-93.90052795410156,-13.861193656921387,0,0,0,40000
666386,3.4365310668945312,3.1832234859466553,-214.0,-2012.0,-85.25663757324219,-13.373088836669922,0,0,0,40000
666396,3.282930612564087,1.5423486232757568,-216.0,-2727.0,-65.63369750976562,-12.551769256591797,0,0,0,40000
666406,3.1777241230010986,0.17193764448165894,-220.0,-3208.0,-49.21062469482422,-12.017122268676758,0,0,0,40000
666416,3.0059471130371094,-2.1241419315338135,-253.0,-3451.0,-21.622039794921875,-11.078782081604004,0,0,0,40000
666426,2.88805890083313,-3.689605236053467,-273.0,-3363.0,-2.744525909423828,-10.459566116333008,0,0,0,40000
666436,2.7031679153442383,-5.919123649597168,-297.0,-3086.0,24.161128997802734,-9.43359661102295,0,0,0,40000
666446,2.5827953815460205,-7.209752082824707,-271.0,-2537.0,39.84978103637695,-8.790254592895508,0,0,0,40000
666456,2.4075429439544678,-8.721978187561035,-268.0,-1864.0,58.24143600463867,-7.813051223754883,0,0,0,40000
666466,2.287583351135254,-9.381739616394043,-230.0,-995.0,66.43257141113281,-7.1633477210998535,0,0,0,40000
666476,2.1186447143554688,-9.753128051757812,-242.0,-85.0,71.17935180664062,-6.2152791023254395,0,0,0,40000
666486,1.9991216659545898,-9.591130256652832,-194.0,785.0,69.52555847167969,-5.559539794921875,0,0,0,40000
666496,1.8439948558807373,-8.785405158996582,-218.0,1567.0,60.13176345825195,-4.686063766479492,0,0,0,40000
666506,1.7608453035354614,-7.935693740844727,-184.0,2116.0,50.18377685546875,-4.240965366363525,0,0,0,40000
666516,1.64301335811615,-6.371443748474121,-155.0,2425.0,31.623336791992188,-3.5845794677734375,0,0,0,40000
666526,1.5667080879211426,-5.233328819274902,-116.0,2526.0,18.13665771484375,-3.1746110916137695,0,0,0,40000
666536,1.48893141746521,-3.5298259258270264,-56.0,2424.0,-2.1792335510253906,-2.7534008026123047,0,0,0,40000
666546,1.4539040327072144,-2.4781510829925537,-75.0,2128.0,-14.712501525878906,-2.587259292602539,0,0,0,40000
666556,1.420702338218689,-1.1538338661193848,-40.0,1706.0,-30.554697036743164,-2.431025981903076,0,0,0,40000
666566,1.4152354001998901,-0.49520421028137207,-13.0,1190.0,-38.435787200927734,-2.4407262802124023,0,0,0,40000
666576,1.4219615459442139,0.09412232786417007,24.0,534.0,-45.504878997802734,-2.5235676765441895,0,0,0,40000
666586,1.432283639907837,0.17394372820854187,61.0,-178.0,-46.467384338378906,-2.628324508666992,0,0,0,40000
666596,1.489880084991455,-0.20289842784404755,84.0,-879.0,-41.945194244384766,-3.0178937911987305,0,0,0,40000
666606,1.5390572547912598,-0.7466765642166138,116.0,-1489.0,-35.404335021972656,-3.358541488647461,0,0,0,40000
666616,1.6333833932876587,-1.937260627746582,142.0,-1946.0,-21.07445526123047,-3.972350597381592,0,0,0,40000
666626,1.7041078805923462,-2.900829553604126,141.0,-2220.0,-9.436309814453125,-4.446974277496338,0,0,0,40000
666636,1.8190594911575317,-4.435312747955322,159.0,-2231.0,9.092151641845703,-5.189811706542969,0,0,0,40000
666646,1.9082201719284058,-5.419478893280029,181.0,-2040.0,21.052997589111328,-5.780932426452637,0,0,0,40000
666656,2.0184993743896484,-6.696763515472412,175.0,-1645.0,36.5669059753418,-6.501842021942139,0,0,0,40000
666666,2.0930137634277344,-7.328622817993164,171.0,-1081.0,44.361793518066406,-7.010850429534912,0,0,0,40000
666676,2.2139835357666016,-7.862297534942627,145.0,-451.0,50.996795654296875,-7.801701068878174,0,0,0,40000
666686,2.291208505630493,-7.9086594581604,145.0,231.0,51.79021453857422,-8.332839965820312,0,0,0,40000
666696,2.388761043548584,-7.53959321975708,106.0,827.0,47.59336853027344,-8.988726615905762,0,0,0,40000
666706,2.4191274642944336,-7.032140254974365,75.0,1363.0,41.72129821777344,-9.243134498596191,0,0,0,40000
666716,2.4554643630981445,-5.991815090179443,54.0,1659.0,29.430252075195312,-9.534454345703125,0,0,0,40000
666726,2.4643547534942627,-5.195131778717041,27.0,1802.0,20.035552978515625,-9.661643981933594,0,0,0,40000
666736,2.4707655906677246,-3.98036527633667,-10.0,1719.0,5.592182159423828,-9.774248123168945,0,0,0,40000
666746,2.4612202644348145,-3.2461891174316406,-32.0,1475.0,-3.1118850708007812,-9.79094123840332,0,0,0,40000
666756,2.4406509399414062,-2.3571932315826416,-40.0,1134.0,-13.699283599853516,-9.740991592407227,0,0,0,40000
666766,2.416449546813965,-1.9699174165725708,-69.0,634.0,-18.283140182495117,-9.668598175048828,0,0,0,40000
666776,2.360988140106201,-1.7655296325683594,-86.0,71.0,-20.681625366210938,-9.407410621643066,0,0,0,40000
666786,2.31190824508667,-1.8936517238616943,-89.0,-482.0,-19.089176177978516,-9.182870864868164,0,0,0,40000
666796,2.2423336505889893,-2.4264421463012695,-95.0,-955.0,-12.630367279052734,-8.833497047424316,0,0,0,40000
666806,2.190109968185425,-2.9679629802703857,-106.0,-1292.0,-6.049732208251953,-8.586479187011719,0,0,0,40000
666816,2.1170878410339355,-3.9375553131103516,-106.0,-1475.0,5.691497802734375,-8.212724685668945,0,0,0,40000
666826,2.063481330871582,-4.623787879943848,-126.0,-1474.0,14.056793212890625,-7.95365571975708,0,0,0,40000
666836,1.9774364233016968,-5.5936174392700195,-150.0,-1355.0,25.851234436035156,-7.497887134552002,0,0,0,40000
666846,1.9164001941680908,-6.140918254852295,-169.0,-1072.0,32.596675872802734,-7.189934730529785,0,0,0,40000
666856,1.8079289197921753,-6.736932277679443,-148.0,-721.0,39.94466018676758,-6.594608783721924,0,0,0,40000
666866,1.7559397220611572,-6.954024314880371,-85.0,-296.0,42.755985260009766,-6.335923671722412,0,0,0,40000
666876,1.6740138530731201,-6.983051776885986,-127.0,138.0,43.314430236816406,-5.895611763000488,0,0,0,40000
666886,1.6218386888504028,-6.808882236480713,-88.0,544.0,41.430999755859375,-5.63181209564209,0,0,0,40000
666896,1.5478978157043457,-6.324857711791992,-134.0,841.0,35.81891632080078,-5.235596179962158,0,0,0,40000
666906,1.5002944469451904,-5.872075080871582,-114.0,1077.0,30.567272186279297,-4.995559215545654,0,0,0,40000
666916,1.4342445135116577,-5.077565670013428,-76.0,1201.0,21.19524383544922,-4.642937183380127,0,0,0,40000
666926,1.4015384912490845,-4.5227952003479,-42.0,1202.0,14.680335998535156,-4.489075660705566,0,0,0,40000
666936,1.3631433248519897,-3.736740827560425,-43.0,1078.0,5.368858337402344,-4.300061225891113,0,0,0,40000
666946,1.349840521812439,-3.303818464279175,-43.0,848.0,0.27794647216796875,-4.260923862457275,0,0,0,40000
666956,1.3490267992019653,-2.847445011138916,-17.0,536.0,-5.1083221435546875,-4.296509742736816,0,0,0,40000
666966,1.357391119003296,-2.7054615020751953,13.0,165.0,-6.729461669921875,-4.387289047241211,0,0,0,40000
666976,1.378617763519287,-2.7404491901397705,55.0,-200.0,-6.2286224365234375,-4.555649757385254,0,0,0,40000
666986,1.3912079334259033,-2.9308691024780273,60.0,-535.0,-3.8581275939941406,-4.672729969024658,0,0,0,40000
666996,1.4506165981292725,-3.392712354660034,110.0,-778.0,1.7797164916992188,-5.071872711181641,0,0,0,40000
667006,1.4926036596298218,-3.7955031394958496,93.0,-908.0,6.722187042236328,-5.3680925369262695,0,0,0,40000
667016,1.5628772974014282,-4.437919616699219,72.0,-926.0,14.556617736816406,-5.835862636566162,0,0,0,40000
667026,1.6130344867706299,-4.8371429443359375,85.0,-812.0,19.487682342529297,-6.184593200683594,0,0,0,40000
667036,1.6725488901138306,-5.316011905670166,82.0,-618.0,25.38833236694336,-6.591092586517334,0,0,0,40000
667046,1.7070587873458862,-5.532479763031006,93.0,-382.0,28.149433135986328,-6.848934173583984,0,0,0,40000
667056,1.742097020149231,-5.67465353012085,56.0,-89.0,30.02471160888672,-7.111045837402344,0,0,0,40000
667066,1.7630459070205688,-5.641158580780029,41.0,170.0,29.79254150390625,-7.289403438568115,0,0,0,40000
667076,1.7779771089553833,-5.41748571395874,11.0,429.0,27.27420425415039,-7.432208061218262,0,0,0,40000
667086,1.777740478515625,-5.167710781097412,-2.0,617.0,24.435047149658203,-7.48410177230835,0,0,0,40000
667096,1.776611566543579,-4.67972993850708,-4.0,749.0,18.72577667236328,-7.530613899230957,0,0,0,40000
667106,1.7658333778381348,-4.339787483215332,-28.0,758.0,14.780746459960938,-7.519072532653809,0,0,0,40000
667116,1.7444238662719727,-3.845200538635254,-38.0,689.0,8.966854095458984,-7.443270206451416,0,0,0,40000
667126,1.726269245147705,-3.565204381942749,-45.0,557.0,5.7171173095703125,-7.386377334594727,0,0,0,40000
667136,1.6965417861938477,-3.2564773559570312,-51.0,371.0,2.1133651733398438,-7.259238243103027,0,0,0,40000
667146,1.6670427322387695,-3.148055076599121,-43.0,163.0,0.9079246520996094,-7.132600784301758,0,0,0,40000
667156,1.625579833984375,-3.127495765686035,-63.0,-55.0,0.7548027038574219,-6.9331512451171875,0,0,0,40000
667166,1.5897122621536255,-3.201002597808838,-86.0,-228.0,1.7319602966308594,-6.766077041625977,0,0,0,40000
667176,1.5264778137207031,-3.4229321479797363,-104.0,-389.0,4.4947357177734375,-6.433279037475586,0,0,0,40000
667186,1.4791545867919922,-3.633857250213623,-96.0,-484.0,7.132289886474609,-6.194276809692383,0,0,0,40000
667196,1.4087556600570679,-3.988610029220581,-102.0,-534.0,11.504615783691406,-5.814999103546143,0,0,0,40000
667206,1.3581408262252808,-4.2214202880859375,-104.0,-470.0,14.42221450805664,-5.552671432495117,0,0,0,40000
667216,1.2859300374984741,-4.506771564483643,-109.0,-357.0,17.978469848632812,-5.158855438232422,0,0,0,40000
667226,1.242828607559204,-4.630038261413574,-92.0,-204.0,19.595184326171875,-4.938037395477295,0,0,0,40000
667236,1.1791073083877563,-4.692437648773193,-83.0,7.0,20.484512329101562,-4.591817855834961,0,0,0,40000
667246,1.1332672834396362,-4.630176544189453,-98.0,197.0,19.877124786376953,-4.351365089416504,0,0,0,40000
667256,1.0752143859863281,-4.416622161865234,-80.0,388.0,17.449981689453125,-4.03598690032959,0,0,0,40000
667266,1.037186622619629,-4.198678493499756,-79.0,522.0,14.963294982910156,-3.839385986328125,0,0,0,40000
667276,0.9793393015861511,-3.796445846557617,-76.0,613.0,10.255378723144531,-3.5223379135131836,0,0,0,40000
667286,0.9436890482902527,-3.5119001865386963,-61.0,613.0,6.949638366699219,-3.337146282196045,0,0,0,40000
667296,0.8945722579956055,-3.1237993240356445,-73.0,538.0,2.3906211853027344,-3.069894790649414,0,0,0,40000
667306,0.8727118372917175,-2.9242773056030273,-54.0,395.0,0.08639907836914062,-2.965205669403076,0,0,0,40000
667316,0.8245853185653687,-2.7299578189849854,-79.0,216.0,-2.161579132080078,-2.7018165588378906,0,0,0,40000
667326,0.7983009815216064,-2.677358388900757,-73.0,41.0,-2.711902618408203,-2.5683979988098145,0,0,0,40000
667336,0.7768329381942749,-2.7012531757354736,4.0,-91.0,-2.3447036743164062,-2.462939500808716,0,0,0,40000
667346,0.7690519094467163,-2.8000540733337402,-19.0,-277.0,-1.0763969421386719,-2.4394240379333496,0,0,0,40000
667356,0.7594895958900452,-3.0374693870544434,-20.0,-373.0,1.8607177734375,-2.404977321624756,0,0,0,40000
667366,0.7535363435745239,-3.2236337661743164,-27.0,-428.0,4.189113616943359,-2.3919687271118164,0,0,0,40000
667376,0.7488299012184143,-3.4915683269500732,-14.0,-376.0,7.506031036376953,-2.3862719535827637,0,0,0,40000
667386,0.7575855851173401,-3.629906177520752,10.0,-255.0,9.273399353027344,-2.4613876342773438,0,0,0,40000
667396,0.7402491569519043,-3.764786720275879,7.0,-151.0,11.00357437133789,-2.379720687866211,0,0,0,40000
667406,0.7416151762008667,-3.7971835136413574,13.0,-19.0,11.505912780761719,-2.410156011581421,0,0,0,40000
667416,0.736543595790863,-3.7770631313323975,-17.0,64.0,11.378170013427734,-2.401951551437378,0,0,0,40000
667426,0.7353779673576355,-3.737664222717285,-18.0,130.0,11.018009185791016,-2.417022228240967,0,0,0,40000
667436,0.7285968065261841,-3.6325085163116455,-21.0,192.0,9.866558074951172,-2.3983147144317627,0,0,0,40000
667446,0.7238674759864807,-3.5343801975250244,-20.0,221.0,8.796257019042969,-2.3917064666748047,0,0,0,40000
667456,0.7102030515670776,-3.37113094329834,-21.0,235.0,6.9403533935546875,-2.331212282180786,0,0,0,40000
667466,0.7032961845397949,-3.2584121227264404,-8.0,234.0,5.6868438720703125,-2.3109471797943115,0,0,0,40000
667476,0.7011494636535645,-3.0878355503082275,-13.0,236.0,3.734539031982422,-2.3191375732421875,0,0,0,40000
667486,0.688997745513916,-2.9896726608276367,-21.0,213.0,2.6474380493164062,-2.267019748687744,0,0,0,40000
667496,0.6883562207221985,-2.887514114379883,8.0,118.0,1.5091819763183594,-2.2837555408477783,0,0,0,40000
667506,0.6909220814704895,-2.8704633712768555,1.0,-13.0,1.39080810546875,-2.319828987121582,0,0,0,40000
667516,0.683607280254364,-2.9138689041137695,-15.0,-99.0,1.9983444213867188,-2.2965900897979736,0,0,0,40000
667526,0.6673523187637329,-2.980771780014038,-36.0,-160.0,2.8897933959960938,-2.2193024158477783,0,0,0,40000
667536,0.6447758078575134,-3.1067285537719727,-22.0,-186.0,4.492946624755859,-2.103473663330078,0,0,0,40000
667546,0.6308954954147339,-3.193298101425171,-27.0,-199.0,5.626533508300781,-2.039292335510254,0,0,0,40000
667556,0.6066153645515442,-3.337144136428833,-38.0,-214.0,7.451061248779297,-1.9120843410491943,0,0,0,40000
667566,0.5935584306716919,-3.427173614501953,-28.0,-145.0,8.633174896240234,-1.8516981601715088,0,0,0,40000
667576,0.5554421544075012,-3.498269557952881,-63.0,-55.0,9.590660095214844,-1.6401615142822266,0,0,0,40000
667586,0.5290916562080383,-3.4986259937286377,-60.0,24.0,9.678947448730469,-1.495092749595642,0,0,0,40000
667596,0.5049598813056946,-3.470017671585083,-57.0,108.0,9.440139770507812,-1.3657429218292236,0,0,0,40000
667606,0.47672852873802185,-3.3769450187683105,-31.0,156.0,8.425777435302734,-1.210935115814209,0,0,0,40000
667616,0.45624488592147827,-3.288645029067993,-31.0,212.0,7.4659423828125,-1.1019630432128906,0,0,0,40000
667626,0.43949148058891296,-3.121629238128662,-10.0,251.0,5.5574951171875,-1.0147788524627686,0,0,0,40000
667636,0.43144285678863525,-3.0174074172973633,-29.0,233.0,4.398597717285156,-0.9795424938201904,0,0,0,40000
667646,0.4130864441394806,-2.8840091228485107,-22.0,178.0,2.8858566284179688,-0.8820503950119019,0,0,0,40000
667656,0.409321665763855,-2.8254010677337646,-60.0,102.0,2.2679901123046875,-0.8718042373657227,0,0,0,40000
667666,0.39295709133148193,-2.772390604019165,7.0,34.0,1.7155723571777344,-0.7854208946228027,0,0,0,40000
667676,0.38453903794288635,-2.781588315963745,-15.0,-71.0,1.9091949462890625,-0.7465243339538574,0,0,0,40000
667686,0.372535765171051,-2.845564842224121,-4.0,-120.0,2.761444091796875,-0.6858115196228027,0,0,0,40000
667696,0.37262463569641113,-2.9049205780029297,-5.0,-154.0,3.560100555419922,-0.6975584030151367,0,0,0,40000
667706,0.3676151931285858,-3.0098342895507812,-18.0,-144.0,4.908123016357422,-0.6786422729492188,0,0,0,40000
667716,0.37342193722724915,-3.0549497604370117,-5.0,-48.0,5.5406951904296875,-0.724604606628418,0,0,0,40000
667726,0.37465840578079224,-3.069162368774414,11.0,8.0,5.803287506103516,-0.7431751489639282,0,0,0,40000
667736,0.37682563066482544,-3.066460132598877,15.0,-5.0,5.862892150878906,-0.7674500942230225,0,0,0,40000
667746,0.3738437294960022,-3.0672128200531006,14.0,-8.0,5.96392822265625,-0.7608228921890259,0,0,0,40000
667756,0.38644811511039734,-3.0606343746185303,12.0,27.0,5.9768829345703125,-0.8478991985321045,0,0,0,40000
667766,0.3914507031440735,-3.0244975090026855,-5.0,70.0,5.634531021118164,-0.8896621465682983,0,0,0,40000
667776,0.3902147710323334,-2.9928035736083984,-4.0,81.0,5.344371795654297,-0.8939529657363892,0,0,0,40000
667786,0.3901269733905792,-2.9545178413391113,14.0,48.0,4.973968505859375,-0.9050920009613037,0,0,0,40000
667796,0.3901830315589905,-2.9380228519439697,-13.0,29.0,4.864376068115234,-0.9171384572982788,0,0,0,40000
667806,0.39221158623695374,-2.922572374343872,4.0,7.0,4.7667999267578125,-0.9410130977630615,0,0,0,40000
667816,0.3879520893096924,-2.9321279525756836,-14.0,-6.0,4.969306945800781,-0.9271622896194458,0,0,0,40000
667826,0.3730523884296417,-2.9307892322540283,-15.0,18.0,5.041278839111328,-0.849129319190979,0,0,0,40000
667836,0.37146851420402527,-2.914013624191284,-41.0,44.0,4.927585601806641,-0.8508142232894897,0,0,0,40000
667846,0.3460463881492615,-2.8657901287078857,-34.0,80.0,4.435558319091797,-0.7089542150497437,0,0,0,40000
667856,0.3336368203163147,-2.831573247909546,-46.0,97.0,4.1103057861328125,-0.6446791887283325,0,0,0,40000
667866,0.2887025475502014,-2.7704763412475586,-41.0,110.0,3.461017608642578,-0.38432204723358154,0,0,0,40000
667876,0.26255977153778076,-2.7114105224609375,-53.0,142.0,2.8342857360839844,-0.23568379878997803,0,0,0,40000
667886,0.23249003291130066,-2.6040046215057373,-50.0,141.0,1.62481689453125,-0.06257224082946777,0,0,0,40000
667896,0.2118215411901474,-2.5505483150482178,-76.0,75.0,1.0604667663574219,0.05481457710266113,0,0,0,40000
667906,0.17353400588035583,-2.519327163696289,-44.0,3.0,0.7615814208984375,0.27897870540618896,0,0,0,40000
667916,0.14316466450691223,-2.5265321731567383,-34.0,-32.0,0.9237251281738281,0.4565635323524475,0,0,0,40000
667926,0.1015673577785492,-2.5649092197418213,-35.0,-77.0,1.460641860961914,0.7025756239891052,0,0,0,40000
667936,0.07435645908117294,-2.607564687728882,-56.0,-105.0,2.0502090454101562,0.8632229566574097,0,0,0,40000
667946,0.03593844920396805,-2.666999578475952,-73.0,-93.0,2.8427200317382812,1.0921252965927124,0,0,0,40000
667956,0.012411539442837238,-2.7068235874176025,-66.0,-80.0,3.401355743408203,1.2326358556747437,0,0,0,40000
667966,-0.024097789078950882,-2.760373830795288,-51.0,-70.0,4.126123428344727,1.4520678520202637,0,0,0,40000
667976,-0.051414452493190765,-2.7876226902008057,-32.0,-13.0,4.536445617675781,1.6172109842300415,0,0,0,40000
667986,-0.08928900212049484,-2.782984495162964,-50.0,8.0,4.5643310546875,1.846606969833374,0,0,0,40000
667996,-0.11577681452035904,-2.769897222518921,-54.0,87.0,4.4905853271484375,2.0086636543273926,0,0,0,40000
668006,-0.15713532269001007,-2.7018303871154785,-81.0,107.0,3.755687713623047,2.2609801292419434,0,0,0,40000
668016,-0.19003498554229736,-2.643306016921997,-66.0,122.0,3.1333999633789062,2.4636969566345215,0,0,0,40000
668026,-0.2333086133003235,-2.567049741744995,-58.0,111.0,2.2961902618408203,2.7298622131347656,0,0,0,40000
668036,-0.24997550249099731,-2.522620677947998,-49.0,99.0,1.8392696380615234,2.837153911590576,0,0,0,40000
668046,-0.27694135904312134,-2.458223342895508,-40.0,60.0,1.14093017578125,3.0069127082824707,0,0,0,40000
668056,-0.2880537211894989,-2.4398915767669678,-39.0,1.0,0.994354248046875,3.0820772647857666,0,0,0,40000
668066,-0.30289536714553833,-2.4608306884765625,-25.0,-75.0,1.3189945220947266,3.180069923400879,0,0,0,40000
668076,-0.30324581265449524,-2.506622076034546,24.0,-128.0,1.9431266784667969,3.1913232803344727,0,0,0,40000
668086,-0.28344160318374634,-2.6052639484405518,50.0,-160.0,3.2037010192871094,3.0813450813293457,0,0,0,40000
668096,-0.2683197557926178,-2.6826014518737793,38.0,-166.0,4.211284637451172,2.9988198280334473,0,0,0,40000
668106,-0.24541957676410675,-2.7771997451782227,30.0,-118.0,5.428760528564453,2.8690154552459717,0,0,0,40000
668116,-0.21794168651103973,-2.8248698711395264,58.0,-106.0,6.085029602050781,2.7110424041748047,0,0,0,40000
668126,-0.176936537027359,-2.880587577819824,56.0,-49.0,6.839532852172852,2.4708242416381836,0,0,0,40000
668136,-0.16129879653453827,-2.8910574913024902,48.0,2.0,7.0517425537109375,2.3820180892944336,0,0,0,40000
668146,-0.12786655128002167,-2.864926815032959,43.0,66.0,6.824581146240234,2.1856515407562256,0,0,0,40000
668156,-0.10158190876245499,-2.805467367172241,46.0,142.0,6.196006774902344,2.031324863433838,0,0,0,40000
668166,-0.07000532746315002,-2.693455219268799,35.0,197.0,4.934150695800781,1.844346284866333,0,0,0,40000
668176,-0.05087650939822197,-2.5930089950561523,52.0,246.0,3.807830810546875,1.7313203811645508,0,0,0,40000
668186,-0.027966883033514023,-2.4259698390960693,19.0,256.0,1.8781166076660156,1.5948814153671265,0,0,0,40000
668196,-0.017439205199480057,-2.2983601093292236,56.0,286.0,0.41732025146484375,1.5324009656906128,0,0,0,40000
668206,0.014419070445001125,-2.130958318710327,39.0,213.0,-1.5257816314697266,1.3411589860916138,0,0,0,40000
668216,0.036124568432569504,-2.0566399097442627,48.0,132.0,-2.3550033569335938,1.2101004123687744,0,0,0,40000
668226,0.06327027827501297,-1.9972549676895142,47.0,53.0,-3.0071163177490234,1.0456607341766357,0,0,0,40000
668236,0.07615790516138077,-1.9934989213943481,50.0,-17.0,-2.992372512817383,0.9661960601806641,0,0,0,40000
668246,0.10574711859226227,-2.0383894443511963,62.0,-104.0,-2.393230438232422,0.7858210802078247,0,0,0,40000
668256,0.12187447398900986,-2.1054229736328125,34.0,-184.0,-1.5265235900878906,0.6855545043945312,0,0,0,40000
668266,0.1650359332561493,-2.232908010482788,36.0,-200.0,0.0687408447265625,0.42216628789901733,0,0,0,40000
668276,0.17999733984470367,-2.3258848190307617,18.0,-202.0,1.2531204223632812,0.3271826505661011,0,0,0,40000
668286,0.20998281240463257,-2.460120439529419,29.0,-174.0,2.9361572265625,0.14132964611053467,0,0,0,40000
668296,0.22109346091747284,-2.526554584503174,41.0,-128.0,3.808389663696289,0.06818389892578125,0,0,0,40000
668306,0.23373281955718994,-2.5859475135803223,26.0,-68.0,4.598115921020508,-0.01451420783996582,0,0,0,40000
668316,0.24608522653579712,-2.5942487716674805,33.0,29.0,4.775520324707031,-0.09586489200592041,0,0,0,40000
668326,0.26300516724586487,-2.5459094047546387,14.0,109.0,4.272571563720703,-0.20513033866882324,0,0,0,40000
668336,0.2741134762763977,-2.494873046875,16.0,140.0,3.7356224060058594,-0.27986156940460205,0,0,0,40000
668346,0.2792523503303528,-2.3892364501953125,14.0,169.0,2.5410118103027344,-0.31899094581604004,0,0,0,40000
668356,0.2840098440647125,-2.316920280456543,8.0,146.0,1.7435836791992188,-0.35598206520080566,0,0,0,40000
668366,0.28997060656547546,-2.212639808654785,12.0,135.0,0.5598526000976562,-0.40037035942077637,0,0,0,40000
668376,0.2964034080505371,-2.160937786102295,6.0,81.0,0.0048503875732421875,-0.4477968215942383,0,0,0,40000
668386,0.2933712899684906,-2.119356632232666,-21.0,33.0,-0.4301490783691406,-0.43853724002838135,0,0,0,40000
668396,0.28474336862564087,-2.0989863872528076,-15.0,40.0,-0.6113777160644531,-0.3954213857650757,0,0,0,40000
668406,0.25621044635772705,-2.0788955688476562,-70.0,6.0,-0.7899360656738281,-0.2323756217956543,0,0,0,40000
668416,0.23773759603500366,-2.07479190826416,-51.0,-27.0,-0.7769203186035156,-0.12885308265686035,0,0,0,40000
668426,0.19555018842220306,-2.118102550506592,-52.0,-93.0,-0.19433021545410156,0.11792969703674316,0,0,0,40000
668436,0.163421630859375,-2.1714913845062256,-58.0,-120.0,0.510833740234375,0.3054025173187256,0,0,0,40000
668446,0.11437305063009262,-2.25921368598938,-69.0,-138.0,1.6301956176757812,0.5956392288208008,0,0,0,40000
668456,0.08236443996429443,-2.314056396484375,-98.0,-125.0,2.3570632934570312,0.7848198413848877,0,0,0,40000
668466,0.030407095327973366,-2.3987576961517334,-81.0,-104.0,3.4444847106933594,1.0951054096221924,0,0,0,40000
668476,-0.007226459216326475,-2.44465708732605,-72.0,-67.0,4.068103790283203,1.320685863494873,0,0,0,40000
668486,-0.05912517011165619,-2.4768524169921875,-67.0,-9.0,4.528499603271484,1.6332221031188965,0,0,0,40000
668496,-0.0856652483344078,-2.465378761291504,-57.0,54.0,4.464962005615234,1.794714331626892,0,0,0,40000
668506,-0.11648000031709671,-2.4184441566467285,-44.0,76.0,3.9749011993408203,1.982797384262085,0,0,0,40000
668516,-0.1263635903596878,-2.358808994293213,-18.0,152.0,3.3308162689208984,2.0457887649536133,0,0,0,40000
668526,-0.1477903574705124,-2.2433767318725586,-29.0,176.0,2.0143489837646484,2.178550958633423,0,0,0,40000
668536,-0.15994523465633392,-2.1555347442626953,-19.0,205.0,1.0260009765625,2.2561306953430176,0,0,0,40000
668546,-0.1725722700357437,-2.0277998447418213,-30.0,160.0,-0.44457054138183594,2.33689022064209,0,0,0,40000
668556,-0.17102910578250885,-1.9653044939041138,-11.0,111.0,-1.134847640991211,2.3327441215515137,0,0,0,40000
668566,-0.15972501039505005,-1.9166570901870728,5.0,35.0,-1.6607627868652344,2.2698183059692383,0,0,0,40000
668576,-0.14466364681720734,-1.927302360534668,44.0,-24.0,-1.475341796875,2.1840219497680664,0,0,0,40000
668586,-0.1264057755470276,-1.9568188190460205,52.0,-56.0,-1.0628471374511719,2.078599452972412,0,0,0,40000
668596,-0.1048228070139885,-1.982520341873169,65.0,-67.0,-0.69525146484375,1.952514410018921,0,0,0,40000
668606,-0.06335125863552094,-2.026515483856201,53.0,-61.0,-0.10703849792480469,1.7060761451721191,0,0,0,40000
668616,-0.03536501154303551,-2.0642824172973633,51.0,-89.0,0.407623291015625,1.5395554304122925,0,0,0,40000
668626,-0.0012005846947431564,-2.142893075942993,53.0,-109.0,1.4142799377441406,1.3350266218185425,0,0,0,40000
668636,0.031185928732156754,-2.189716100692749,79.0,-85.0,2.0413055419921875,1.1401958465576172,0,0,0,40000
668646,0.07916882634162903,-2.2266762256622314,65.0,-33.0,2.5513343811035156,0.850465714931488,0,0,0,40000
668656,0.10897940397262573,-2.2289180755615234,58.0,8.0,2.645069122314453,0.6686859130859375,0,0,0,40000
668666,0.14645437896251678,-2.2138493061065674,40.0,40.0,2.5309791564941406,0.4397968053817749,0,0,0,40000
668676,0.17523875832557678,-2.1777095794677734,45.0,83.0,2.1630897521972656,0.26218342781066895,0,0,0,40000
668686,0.2047732174396515,-2.1004092693328857,45.0,125.0,1.299489974975586,0.07923376560211182,0,0,0,40000
668696,0.22759996354579926,-2.0313210487365723,69.0,180.0,0.5322284698486328,-0.06424975395202637,0,0,0,40000
668706,0.25468191504478455,-1.9155806303024292,33.0,180.0,-0.7977886199951172,-0.234100341796875,0,0,0,40000
668716,0.2633490264415741,-1.8507148027420044,30.0,121.0,-1.5198955535888672,-0.2939016819000244,0,0,0,40000
668726,0.27225980162620544,-1.7890307903289795,-8.0,74.0,-2.205829620361328,-0.35552024841308594,0,0,0,40000
668736,0.2809395492076874,-1.754081130027771,-3.0,73.0,-2.572193145751953,-0.4159339666366577,0,0,0,40000
668746,0.2774098515510559,-1.7111059427261353,-3.0,57.0,-3.036043167114258,-0.403133749961853,0,0,0,40000
668756,0.27224963903427124,-1.6961820125579834,-2.0,3.0,-3.1641082763671875,-0.38040709495544434,0,0,0,40000
668766,0.2660623788833618,-1.7254611253738403,-6.0,-73.0,-2.7615699768066406,-0.3513762950897217,0,0,0,40000
668776,0.25239288806915283,-1.7753583192825317,-53.0,-119.0,-2.1101627349853516,-0.2771182060241699,0,0,0,40000
668786,0.23167237639427185,-1.8677139282226562,-35.0,-139.0,-0.9470176696777344,-0.15994024276733398,0,0,0,40000
668796,0.22714799642562866,-1.9346956014633179,-21.0,-148.0,-0.08600234985351562,-0.1396552324295044,0,0,0,40000
668806,0.19848819077014923,-2.047469139099121,-43.0,-162.0,1.3273277282714844,0.02599167823791504,0,0,0,40000
668816,0.17535249888896942,-2.1227245330810547,-46.0,-174.0,2.29315185546875,0.15927457809448242,0,0,0,40000
668826,0.13135476410388947,-2.21994686126709,-53.0,-124.0,3.5253543853759766,0.4188110828399658,0,0,0,40000
668836,0.11538220942020416,-2.2556772232055664,-68.0,-61.0,4.021389007568359,0.5109744071960449,0,0,0,40000
668846,0.07275727391242981,-2.2694432735443115,-47.0,0.0,4.254575729370117,0.7641275525093079,0,0,0,40000
668856,0.04713508114218712,-2.2480313777923584,-53.0,76.0,4.065387725830078,0.9161558151245117,0,0,0,40000
668866,0.0013782562455162406,-2.170020341873169,-47.0,130.0,3.1953697204589844,1.1901291608810425,0,0,0,40000
668876,-0.019080812111496925,-2.0965561866760254,-50.0,195.0,2.377613067626953,1.3132035732269287,0,0,0,40000
668886,-0.047267090529203415,-1.9501084089279175,-45.0,212.0,0.6805458068847656,1.483372688293457,0,0,0,40000
668896,-0.058412667363882065,-1.8601715564727783,-12.0,187.0,-0.34180450439453125,1.5519087314605713,0,0,0,40000
668906,-0.07784032821655273,-1.742705225944519,-19.0,162.0,-1.6977825164794922,1.670596957206726,0,0,0,40000
668916,-0.09159266948699951,-1.6920382976531982,-14.0,99.0,-2.2544593811035156,1.755703330039978,0,0,0,40000
668926,-0.10235685855150223,-1.671339750289917,-9.0,-1.0,-2.4526214599609375,1.8232154846191406,0,0,0,40000
668936,-0.10266802459955215,-1.6901190280914307,-30.0,-68.0,-2.176830291748047,1.8281179666519165,0,0,0,40000
668946,-0.11349862813949585,-1.762040138244629,-9.0,-133.0,-1.2618961334228516,1.8964015245437622,0,0,0,40000
668956,-0.11590059101581573,-1.8211402893066406,3.0,-133.0,-0.49877166748046875,1.9142849445343018,0,0,0,40000
668966,-0.11729247123003006,-1.9214729070663452,1.0,-149.0,0.7616863250732422,1.9261653423309326,0,0,0,40000
668976,-0.11897953599691391,-1.9845370054244995,19.0,-135.0,1.5772113800048828,1.9398571252822876,0,0,0,40000
668986,-0.10139621049165726,-2.06182861328125,12.0,-114.0,2.565643310546875,1.8375792503356934,0,0,0,40000
668996,-0.09364578872919083,-2.112421989440918,20.0,-104.0,3.2355194091796875,1.793990969657898,0,0,0,40000
669006,-0.08242326974868774,-2.18906569480896,18.0,-99.0,4.22003173828125,1.7292536497116089,0,0,0,40000
669016,-0.07517385482788086,-2.213846445083618,15.0,-30.0,4.58355712890625,1.6880924701690674,0,0,0,40000
669026,-0.06496384739875793,-2.207500457763672,23.0,36.0,4.573822021484375,1.6289045810699463,0,0,0,40000
669036,-0.054314035922288895,-2.1720595359802246,20.0,101.0,4.21415901184082,1.5667800903320312,0,0,0,40000
669046,-0.03842770680785179,-2.070848226547241,25.0,176.0,3.0631160736083984,1.4728056192398071,0,0,0,40000
669056,-0.03069794736802578,-1.985576868057251,26.0,203.0,2.1005020141601562,1.4274749755859375,0,0,0,40000
669066,0.004956266842782497,-1.826220154762268,54.0,218.0,0.24487686157226562,1.2138721942901611,0,0,0,40000
669076,0.019534246996045113,-1.740416407585144,55.0,199.0,-0.7315425872802734,1.126017451286316,0,0,0,40000
669086,0.05132146552205086,-1.6148104667663574,37.0,178.0,-2.1888580322265625,0.9340910911560059,0,0,0,40000
669096,0.06832099705934525,-1.543690800666809,40.0,130.0,-2.9951419830322266,0.8302543759346008,0,0,0,40000
669106,0.10189571976661682,-1.472315788269043,39.0,86.0,-3.806621551513672,0.6261290907859802,0,0,0,40000
669116,0.13015319406986237,-1.4405258893966675,42.0,28.0,-4.144519805908203,0.45302486419677734,0,0,0,40000
669126,0.15583564341068268,-1.4591704607009888,36.0,-52.0,-3.877382278442383,0.2945317029953003,0,0,0,40000
669136,0.17280779778957367,-1.5130189657211304,41.0,-144.0,-3.1865081787109375,0.18772709369659424,0,0,0,40000
669146,0.19911274313926697,-1.618949055671692,30.0,-169.0,-1.8680553436279297,0.024207472801208496,0,0,0,40000
669156,0.21326805651187897,-1.6969325542449951,27.0,-160.0,-0.882293701171875,-0.06694245338439941,0,0,0,40000
669166,0.24049004912376404,-1.8142993450164795,30.0,-176.0,0.5791358947753906,-0.23715710639953613,0,0,0,40000
669176,0.25320231914520264,-1.8873997926712036,34.0,-166.0,1.5121097564697266,-0.3208416700363159,0,0,0,40000
669186,0.26493337750434875,-1.9997994899749756,16.0,-162.0,2.919536590576172,-0.3990447521209717,0,0,0,40000
669196,0.27498161792755127,-2.0708675384521484,17.0,-123.0,3.833660125732422,-0.4674656391143799,0,0,0,40000
669206,0.29102426767349243,-2.129652976989746,-15.0,-56.0,4.602453231811523,-0.5723857879638672,0,0,0,40000
669216,0.2915544807910919,-2.1458053588867188,17.0,-4.0,4.860496520996094,-0.5842827558517456,0,0,0,40000
669226,0.292987585067749,-2.147444248199463,-3.0,2.0,4.944581985473633,-0.6017202138900757,0,0,0,40000
669236,0.295141339302063,-2.124009609222412,12.0,44.0,4.727388381958008,-0.6234645843505859,0,0,0,40000
669246,0.3005882799625397,-2.08632493019104,4.0,61.0,4.338222503662109,-0.6651467084884644,0,0,0,40000
669256,0.2986993193626404,-2.050825834274292,5.0,107.0,3.9742469787597656,-0.6627875566482544,0,0,0,40000
669266,0.3020414710044861,-1.945349097251892,-8.0,173.0,2.7682571411132812,-0.6919450759887695,0,0,0,40000
669276,0.30054566264152527,-1.858157753944397,-19.0,199.0,1.778768539428711,-0.6920369863510132,0,0,0,40000
669286,0.28754156827926636,-1.7203506231307983,-22.0,185.0,0.1782855987548828,-0.6228196620941162,0,0,0,40000
669296,0.2803075313568115,-1.6502288579940796,-27.0,157.0,-0.6128501892089844,-0.5879268646240234,0,0,0,40000
669306,0.2673484981060028,-1.5634617805480957,-23.0,108.0,-1.6061420440673828,-0.5183215141296387,0,0,0,40000
669316,0.26080405712127686,-1.5193257331848145,-9.0,71.0,-2.089670181274414,-0.4869426488876343,0,0,0,40000
669326,0.24491824209690094,-1.4846251010894775,-26.0,36.0,-2.4611778259277344,-0.39923250675201416,0,0,0,40000
669336,0.2361539900302887,-1.4859496355056763,-29.0,-14.0,-2.4007625579833984,-0.35387253761291504,0,0,0,40000
669346,0.2214677333831787,-1.5096477270126343,-38.0,-41.0,-2.0714073181152344,-0.272638201713562,0,0,0,40000
669356,0.21374720335006714,-1.5451948642730713,-26.0,-69.0,-1.59893798828125,-0.23281478881835938,0,0,0,40000
669366,0.19886529445648193,-1.603121280670166,-16.0,-89.0,-0.8564472198486328,-0.1496349573135376,0,0,0,40000
669376,0.1967620551586151,-1.6330394744873047,1.0,-49.0,-0.44876861572265625,-0.1429215669631958,0,0,0,40000
669386,0.19144463539123535,-1.655837059020996,-19.0,-28.0,-0.1355743408203125,-0.11566460132598877,0,0,0,40000
669396,0.18636487424373627,-1.6555206775665283,-28.0,5.0,-0.08960914611816406,-0.09087622165679932,0,0,0,40000
669406,0.18339937925338745,-1.6449702978134155,-27.0,46.0,-0.1667022705078125,-0.07859933376312256,0,0,0,40000
669416,0.16739769279956818,-1.6034457683563232,-19.0,66.0,-0.6163501739501953,0.01217508316040039,0,0,0,40000
669426,0.15581516921520233,-1.568731427192688,-25.0,64.0,-0.9854564666748047,0.07683742046356201,0,0,0,40000
669436,0.13594818115234375,-1.5393788814544678,-22.0,31.0,-1.2912044525146484,0.19172000885009766,0,0,0,40000
669446,0.13100916147232056,-1.5287151336669922,-38.0,-7.0,-1.3732109069824219,0.2173595428466797,0,0,0,40000
669456,0.12693233788013458,-1.5558109283447266,-4.0,-42.0,-1.0017509460449219,0.23811233043670654,0,0,0,40000
669466,0.1306406855583191,-1.5800977945327759,24.0,-61.0,-0.6632080078125,0.2120424509048462,0,0,0,40000
669476,0.13151492178440094,-1.6206897497177124,12.0,-49.0,-0.12793731689453125,0.2027980089187622,0,0,0,40000
669486,0.13650667667388916,-1.6339043378829956,2.0,-15.0,0.07950401306152344,0.16877126693725586,0,0,0,40000
669496,0.14625737071037292,-1.6446138620376587,5.0,15.0,0.2572784423828125,0.10596710443496704,0,0,0,40000
669506,0.1589003950357437,-1.6394977569580078,12.0,28.0,0.24512672424316406,0.025512218475341797,0,0,0,40000
669516,0.18304021656513214,-1.61443030834198,56.0,65.0,-0.0068645477294921875,-0.12442553043365479,0,0,0,40000
669526,0.20119182765483856,-1.5860635042190552,35.0,99.0,-0.29932403564453125,-0.2391873598098755,0,0,0,40000
669536,0.23386776447296143,-1.4943339824676514,40.0,137.0,-1.3540306091308594,-0.4418862462043762,0,0,0,40000
669546,0.25475895404815674,-1.4246007204055786,38.0,137.0,-2.147258758544922,-0.5746402740478516,0,0,0,40000
669556,0.27719447016716003,-1.3314965963363647,39.0,105.0,-3.2235469818115234,-0.7173196077346802,0,0,0,40000
669566,0.2899850010871887,-1.287652850151062,36.0,83.0,-3.7105369567871094,-0.8025962114334106,0,0,0,40000
669576,0.3096546232700348,-1.2624322175979614,32.0,26.0,-3.9751510620117188,-0.9296740889549255,0,0,0,40000
669586,0.31945183873176575,-1.2538120746612549,17.0,2.0,-4.040877342224121,-0.9979294538497925,0,0,0,40000
669596,0.3363780081272125,-1.2720705270767212,44.0,-72.0,-3.7839794158935547,-1.1092947721481323,0,0,0,40000
669606,0.3542146384716034,-1.327622890472412,9.0,-133.0,-3.0782299041748047,-1.2267593145370483,0,0,0,40000
669616,0.3643563985824585,-1.4333794116973877,3.0,-201.0,-1.7675399780273438,-1.298449993133545,0,0,0,40000
669626,0.369672566652298,-1.5289795398712158,5.0,-217.0,-0.5756378173828125,-1.3413653373718262,0,0,0,40000
669636,0.35955846309661865,-1.6692254543304443,-14.0,-191.0,1.155782699584961,-1.2916178703308105,0,0,0,40000
669646,0.3545301556587219,-1.747664451599121,-22.0,-148.0,2.1485557556152344,-1.2721394300460815,0,0,0,40000
669656,0.33790308237075806,-1.8285324573516846,-26.0,-83.0,3.172943115234375,-1.182720422744751,0,0,0,40000
669666,0.3300494849681854,-1.8486354351043701,-31.0,-10.0,3.4694480895996094,-1.1455961465835571,0,0,0,40000
669676,0.3186006247997284,-1.8230745792388916,-19.0,102.0,3.218017578125,-1.0865830183029175,0,0,0,40000
669686,0.3047984838485718,-1.759345531463623,-22.0,200.0,2.506885528564453,-1.0130845308303833,0,0,0,40000
669696,0.28540247678756714,-1.5985203981399536,-40.0,244.0,0.6269683837890625,-0.9055877923965454,0,0,0,40000
669706,0.27445319294929504,-1.4784200191497803,-43.0,251.0,-0.7684440612792969,-0.8482704162597656,0,0,0,40000
669716,0.24706771969795227,-1.3157020807266235,-43.0,231.0,-2.679677963256836,-0.6916701793670654,0,0,0,40000
669726,0.22891178727149963,-1.2147998809814453,-26.0,214.0,-3.85284423828125,-0.5898134708404541,0,0,0,40000
669736,0.21096135675907135,-1.073431134223938,-17.0,183.0,-5.51542854309082,-0.4886428117752075,0,0,0,40000
669746,0.20196247100830078,-1.0188417434692383,-7.0,94.0,-6.139312744140625,-0.4408150911331177,0,0,0,40000
669756,0.19061581790447235,-1.011069655418396,-45.0,-45.0,-6.202480316162109,-0.37873291969299316,0,0,0,40000
669766,0.1875334233045578,-1.045392394065857,17.0,-108.0,-5.759677886962891,-0.36585938930511475,0,0,0,40000
669776,0.189426451921463,-1.1542296409606934,9.0,-176.0,-4.420448303222656,-0.3828243017196655,0,0,0,40000
669786,0.1905738115310669,-1.230532169342041,0.0,-197.0,-3.468843460083008,-0.39540719985961914,0,0,0,40000
669796,0.19783790409564972,-1.3891404867172241,7.0,-249.0,-1.5259056091308594,-0.4448167085647583,0,0,0,40000
669806,0.2097495049238205,-1.5129265785217285,4.0,-287.0,0.0033969879150390625,-0.5224401950836182,0,0,0,40000
669816,0.2167508751153946,-1.7202397584915161,11.0,-311.0,2.5402050018310547,-0.5708526372909546,0,0,0,40000
669826,0.22344928979873657,-1.8531206846237183,23.0,-272.0,4.188791275024414,-0.6176530122756958,0,0,0,40000
669836,0.24473661184310913,-2.010869264602661,27.0,-173.0,6.140451431274414,-0.7524486780166626,0,0,0,40000
669846,0.2519264221191406,-2.0759379863739014,20.0,-92.0,6.982852935791016,-0.8030458688735962,0,0,0,40000
669856,0.2726871073246002,-2.113548517227173,38.0,-23.0,7.497278213500977,-0.9354963302612305,0,0,0,40000
669866,0.28574469685554504,-2.1027560234069824,31.0,44.0,7.430994033813477,-1.022242784500122,0,0,0,40000
669876,0.30072692036628723,-2.042145013809204,19.0,142.0,-353.5941162109375,-1.1210193634033203,0,30,0,40000
669886,0.31419113278388977,-1.9672538042068481,59.0,182.0,-355.33282470703125,-1.2110595703125,0,30,0,40000
669896,0.3543436825275421,-1.8682516813278198,58.0,76.0,-357.3638916015625,-1.4621467590332031,0,30,0,40000
669906,0.37111130356788635,-1.8920031785964966,38.0,-213.0,-357.92254638671875,-1.573720932006836,0,30,0,40000
669916,0.39170601963996887,-2.1760263442993164,30.0,-649.0,-355.3533935546875,-1.7088156938552856,0,30,0,40000
669926,0.40918517112731934,-2.59233021736145,44.0,-1198.0,-351.18524169921875,-1.8257558345794678,0,30,0,40000
669936,0.42776307463645935,-3.625110387802124,12.0,-1823.0,-339.5968933105469,-1.9499366283416748,0,30,0,40000
669946,0.43544280529022217,-4.609878063201904,10.0,-2531.0,-328.5536193847656,-2.0090079307556152,0,30,0,40000
669956,0.43603989481925964,-6.611575603485107,-16.0,-3311.0,-305.2605895996094,-2.0257492065429688,0,30,0,40000
669966,0.43447044491767883,-8.31441879272461,-10.0,-4158.0,-285.4979553222656,-2.029371976852417,0,30,0,40000
669976,0.4178066551685333,-11.460838317871094,-12.0,-4994.0,-248.33668518066406,-1.9420866966247559,0,30,0,40000
669986,0.40374818444252014,-13.90616512298584,-6.0,-5697.0,-219.5052947998047,-1.8700239658355713,0,30,0,40000
669996,0.37795498967170715,-17.96796226501465,-40.0,-6150.0,-171.1744842529297,-1.7270276546478271,0,30,0,40000
670006,0.35258471965789795,-20.832578659057617,-54.0,-6343.0,-137.1085968017578,-1.585682988166809,0,30,0,40000
670016,0.2982237637042999,-25.157615661621094,-93.0,-6273.0,-85.40519714355469,-1.2690961360931396,0,30,0,40000
670026,0.25188231468200684,-27.948312759399414,-61.0,-5916.0,-52.01164245605469,-0.9991477131843567,0,30,0,40000
670036,0.1530800610780716,-31.81251335144043,-88.0,-5333.0,-5.631975173950195,-0.4121655225753784,0,30,0,40000
670046,0.06525778025388718,-34.069149017333984,-115.0,-4532.0,21.543094635009766,0.11169487237930298,0,30,0,40000
670056,-0.07665975391864777,-36.854557037353516,-129.0,-3568.0,55.14228820800781,0.9637895822525024,0,30,0,40000
670066,-0.17470569908618927,-38.24589920043945,-128.0,-2488.0,72.06968688964844,1.556114912033081,0,30,0,40000
670076,-0.35144752264022827,-39.52985382080078,-132.0,-1303.0,87.75019073486328,2.6249380111694336,0,30,0,40000
670086,-0.4739058017730713,-39.82112121582031,-171.0,-6.0,91.53722381591797,3.3724584579467773,0,30,0,40000
670096,-0.6501814723014832,-39.417301177978516,-163.0,1198.0,86.98139953613281,4.447518348693848,0,30,0,40000
670106,-0.7699725031852722,-38.6341552734375,-180.0,2248.0,77.8526611328125,5.1879143714904785,0,30,0,40000
670116,-0.9322280287742615,-36.810516357421875,-146.0,3073.0,56.19701385498047,6.187509059906006,0,30,0,40000
670126,-1.0231685638427734,-35.28871536254883,-204.0,3584.0,38.11259460449219,6.76276159286499,0,30,0,40000
670136,-1.1468533277511597,-32.708953857421875,-158.0,3906.0,7.268365859985352,7.5379157066345215,0,30,0,40000
670146,-1.2342842817306519,-30.898019790649414,-208.0,4010.0,-14.414127349853516,8.098469734191895,0,30,0,40000
670156,-1.3668172359466553,-28.168682098388672,-192.0,3904.0,-47.188636779785156,8.933024406433105,0,30,0,40000
670166,-1.4510315656661987,-26.426681518554688,-219.0,3704.0,-68.1790542602539,9.480818748474121,0,30,0,40000
670176,-1.5741980075836182,-24.029340744018555,-200.0,3304.0,-97.09835815429688,10.265602111816406,0,30,0,40000
670186,-1.648380160331726,-22.628036499023438,-182.0,2829.0,-114.11860656738281,10.759259223937988,0,30,0,40000
670196,-1.7531861066818237,-20.90459442138672,-154.0,2197.0,-135.05349731445312,11.439484596252441,0,30,0,40000
670206,-1.816261649131775,-20.062692642211914,-147.0,1484.0,-145.4447021484375,11.871671676635742,0,30,0,40000
670216,-1.892909049987793,-19.3073787689209,-111.0,681.0,-154.8219451904297,12.387445449829102,0,30,0,40000
670226,-1.9408529996871948,-19.184955596923828,-47.0,-151.0,-156.6144561767578,12.732810020446777,0,30,0,40000
670236,-1.9852170944213867,-19.590574264526367,-15.0,-1056.0,-152.06625366210938,13.058016777038574,0,30,0,40000
670246,-2.002438545227051,-20.298898696899414,-13.0,-2029.0,-143.86642456054688,13.221176147460938,0,30,0,40000
670256,-2.014031410217285,-22.01567268371582,52.0,-2967.0,-123.52729797363281,13.35108470916748,0,30,0,40000
670266,-2.0099263191223145,-23.550216674804688,81.0,-3649.0,-105.32508850097656,13.386817932128906,0,30,0,40000
670276,-1.9820069074630737,-26.245338439941406,121.0,-4124.0,-73.12960815429688,13.279136657714844,0,30,0,40000
670286,-1.9514217376708984,-28.184846878051758,130.0,-4304.0,-49.93333435058594,13.154542922973633,0,30,0,40000
670296,-1.879416823387146,-31.100200653076172,168.0,-4217.0,-14.950830459594727,12.779723167419434,0,30,0,40000
670306,-1.819460391998291,-32.93925476074219,178.0,-3882.0,7.1841278076171875,12.475366592407227,0,30,0,40000
670316,-1.717739462852478,-35.365203857421875,166.0,-3313.0,36.42859649658203,11.917756080627441,0,30,0,40000
670326,-1.6366591453552246,-36.66360855102539,167.0,-2505.0,52.19423294067383,11.481362342834473,0,30,0,40000
670336,-1.4760141372680664,-38.00239562988281,166.0,-1563.0,68.48574829101562,10.563743591308594,0,30,0,40000
670346,-1.3513882160186768,-38.427284240722656,162.0,-478.0,73.83273315429688,9.858088493347168,0,30,0,40000
670356,-1.1616246700286865,-38.32345199584961,147.0,580.0,72.84001159667969,8.756730079650879,0,30,0,40000
670366,-1.0233122110366821,-37.7963981628418,167.0,1516.0,66.75609588623047,7.959236145019531,0,30,0,40000
670376,-0.8241613507270813,-36.43900680541992,144.0,2245.0,50.67839050292969,6.791327953338623,0,30,0,40000
670386,-0.7040115594863892,-35.25202560424805,131.0,2786.0,36.60668182373047,6.093010902404785,0,30,0,40000
