timestamp,stabilizer.roll,stabilizer.pitch,stateEstimateZ.rateRoll,stateEstimateZ.ratePitch,controller.pitchRate,controller.rollRate,roll,pitch,yawdot,thrust
803375,-38.80324935913086,64.3400650024414,2.0,-4.0,-388.3566589355469,234.21649169921875,0,0,0,40000
803385,-38.794002532958984,64.33474731445312,8.0,-20.0,-390.2548522949219,235.32493591308594,0,0,0,40000
803395,-38.77532958984375,64.30279541015625,-17.0,-25.0,-391.9925842285156,236.37620544433594,0,0,0,40000
803405,-38.765018463134766,64.26527404785156,-62.0,-92.0,-393.6959533691406,237.4774627685547,0,0,0,40000
803415,-38.65194320678711,64.13311767578125,-31.0,-275.0,-394.8289794921875,237.9605712890625,0,0,0,40000
803425,-38.42619705200195,63.9540901184082,78.0,-545.0,-395.6757507324219,237.76181030273438,0,0,0,40000
803435,-37.803627014160156,63.527713775634766,41.0,-913.0,-395.02899169921875,235.16905212402344,0,0,0,40000
803445,-37.105899810791016,63.06070327758789,35.0,-1464.0,-394.1246337890625,232.1046600341797,0,0,0,40000
803455,-35.611175537109375,62.057186126708984,23.0,-2101.0,-389.9783630371094,224.2239532470703,0,0,0,40000
803465,-34.3015022277832,61.122047424316406,55.0,-2836.0,-386.2127990722656,217.41104125976562,0,0,0,40000
803475,-31.945650100708008,59.262939453125,140.0,-3651.0,-376.85986328125,204.26385498046875,0,0,0,40000
803485,-30.165441513061523,57.67033386230469,178.0,-4543.0,-369.053955078125,194.50914001464844,0,0,0,40000
803495,-27.299591064453125,54.66532516479492,177.0,-5500.0,-352.7018737792969,178.16751098632812,0,0,0,40000
803505,-25.32880401611328,52.23945236206055,249.0,-6513.0,-339.7434997558594,167.12625122070312,0,0,0,40000
803515,-22.416433334350586,47.93025207519531,454.0,-7402.0,-315.37982177734375,150.35928344726562,0,0,0,40000
803525,-20.57517433166504,44.67442321777344,661.0,-8146.0,-297.224609375,139.95108032226562,0,0,0,40000
803535,-18.01165008544922,39.364192962646484,827.0,-8549.0,-266.6088562011719,125.14033508300781,0,0,0,40000
803545,-16.443450927734375,35.64795684814453,987.0,-8840.0,-245.42556762695312,116.2430419921875,0,0,0,40000
803555,-14.279220581054688,29.96965980529785,1259.0,-8749.0,-212.32290649414062,103.7115249633789,0,0,0,40000
803565,-12.932731628417969,26.237197875976562,1574.0,-8463.0,-190.75994873046875,96.03673553466797,0,0,0,40000
803575,-11.000797271728516,20.88717269897461,1873.0,-7935.0,-159.34963989257812,84.79824829101562,0,0,0,40000
803585,-9.746743202209473,17.583091735839844,2065.0,-7220.0,-140.0918731689453,77.58123016357422,0,0,0,40000
803595,-7.858396530151367,13.16871166229248,2315.0,-6260.0,-114.0516128540039,66.50949096679688,0,0,0,40000
803605,-6.570798397064209,10.68363094329834,2529.0,-5140.0,-99.49089813232422,58.996490478515625,0,0,0,40000
803615,-4.64909029006958,7.771346569061279,2763.0,-3777.0,-82.28239440917969,47.62921142578125,0,0,0,40000
803625,-3.332563877105713,6.445101737976074,2873.0,-2362.0,-74.53338623046875,39.84591293334961,0,0,0,40000
803635,-1.3333799839019775,5.4665422439575195,2879.0,-832.0,-68.83450317382812,27.914690017700195,0,0,0,40000
803645,-0.009652741253376007,5.478715419769287,2823.0,503.0,-69.07106018066406,19.98838996887207,0,0,0,40000
803655,1.9462236166000366,6.2928290367126465,2775.0,1584.0,-74.132568359375,8.218036651611328,0,0,0,40000
803665,3.222118377685547,7.232830047607422,2681.0,2341.0,-79.97787475585938,0.4812965393066406,0,0,0,40000
803675,5.0620293617248535,9.05037784576416,2558.0,2864.0,-91.13188934326172,-10.6881103515625,0,0,0,40000
803685,6.214579105377197,10.432703018188477,2380.0,3195.0,-99.72206115722656,-17.776077270507812,0,0,0,40000
803695,7.862968921661377,12.630894660949707,2147.0,3317.0,-113.26359558105469,-27.883024215698242,0,0,0,40000
803705,8.888248443603516,14.11652660369873,1928.0,3340.0,-122.4983901977539,-34.235877990722656,0,0,0,40000
803715,10.28972053527832,16.275293350219727,1666.0,3213.0,-135.9984130859375,-42.99034881591797,0,0,0,40000
803725,11.132708549499512,17.598482131958008,1494.0,2926.0,-144.3441925048828,-48.30537414550781,0,0,0,40000
803735,12.2181978225708,19.32087516784668,1183.0,2493.0,-155.34408569335938,-55.239166259765625,0,0,0,40000
803745,12.808307647705078,20.25959587097168,889.0,2060.0,-161.45164489746094,-59.08032989501953,0,0,0,40000
803755,13.488595962524414,21.310129165649414,610.0,1399.0,-168.50440979003906,-63.636165618896484,0,0,0,40000
803765,13.788962364196777,21.730417251586914,401.0,812.0,-171.54293823242188,-65.765869140625,0,0,0,40000
803775,14.00611686706543,21.875551223754883,115.0,-54.0,-173.2002410888672,-67.56987762451172,0,0,0,40000
803785,13.987167358398438,21.624326705932617,-81.0,-799.0,-172.21536254882812,-67.79231262207031,0,0,0,40000
803795,13.699361801147461,20.677875518798828,-348.0,-1777.0,-167.29995727539062,-66.56458282470703,0,0,0,40000
803805,13.366893768310547,19.642282485961914,-544.0,-2635.0,-161.57070922851562,-64.89472961425781,0,0,0,40000
803815,12.692840576171875,17.452571868896484,-755.0,-3711.0,-149.10223388671875,-61.31996536254883,0,0,0,40000
803825,12.14389705657959,15.59852409362793,-915.0,-4409.0,-138.3749237060547,-58.324424743652344,0,0,0,40000
803835,11.198819160461426,12.456396102905273,-1133.0,-4887.0,-120.02803039550781,-53.074405670166016,0,0,0,40000
803845,10.518592834472656,10.254308700561523,-1304.0,-4933.0,-107.08805847167969,-49.25371170043945,0,0,0,40000
803855,9.422954559326172,7.030977249145508,-1491.0,-4705.0,-88.0587158203125,-43.03901672363281,0,0,0,40000
803865,8.66226863861084,5.0361127853393555,-1598.0,-4299.0,-76.23406219482422,-38.69193649291992,0,0,0,40000
803875,7.483962535858154,2.422680616378784,-1725.0,-3644.0,-60.686527252197266,-31.912939071655273,0,0,0,40000
803885,6.660959243774414,0.9837248921394348,-1809.0,-2926.0,-52.093223571777344,-27.144683837890625,0,0,0,40000
803895,5.396363735198975,-0.5737884044647217,-1861.0,-1929.0,-42.75352478027344,-19.774168014526367,0,0,0,40000
803905,4.540290355682373,-1.1929532289505005,-1873.0,-1064.0,-39.01679611206055,-14.756977081298828,0,0,0,40000
803915,3.68927001953125,-1.4606202840805054,-1843.0,-144.0,-37.36970138549805,-9.771726608276367,0,0,0,40000
803925,2.440927028656006,-1.3189868927001953,-1749.0,561.0,-38.17671203613281,-2.3696651458740234,0,0,0,40000
803935,1.6478465795516968,-0.9544111490249634,-1671.0,1010.0,-40.330875396728516,2.3299007415771484,0,0,0,40000
803945,0.5335114002227783,-0.15509864687919617,-1554.0,1289.0,-45.111846923828125,8.986785888671875,0,0,0,40000
803955,-0.14631369709968567,0.4693581461906433,-1421.0,1407.0,-48.86510467529297,13.062063217163086,0,0,0,40000
803965,-1.0731995105743408,1.416569709777832,-1253.0,1323.0,-54.57969665527344,18.644811630249023,0,0,0,40000
803975,-1.6124876737594604,1.991408348083496,-1096.0,1147.0,-58.08167266845703,21.92249298095703,0,0,0,40000
803985,-2.3050553798675537,2.6794097423553467,-909.0,860.0,-62.28244400024414,26.139148712158203,0,0,0,40000
803995,-2.6706910133361816,2.9792494773864746,-710.0,463.0,-64.16746520996094,28.408811569213867,0,0,0,40000
804005,-3.0916852951049805,3.136862277984619,-496.0,15.0,-65.20631408691406,31.022974014282227,0,0,0,40000
804015,-3.2689273357391357,3.021667003631592,-305.0,-540.0,-64.60746765136719,32.18247985839844,0,0,0,40000
804025,-3.4115042686462402,2.43351674079895,-103.0,-1159.0,-61.16001892089844,33.138999938964844,0,0,0,40000
804035,-3.4094455242156982,1.7505401372909546,87.0,-1783.0,-57.123207092285156,33.22905731201172,0,0,0,40000
804045,-3.27321457862854,0.3681272268295288,293.0,-2230.0,-48.857322692871094,32.511962890625,0,0,0,40000
804055,-3.094001293182373,-0.7131354808807373,468.0,-2453.0,-42.36147689819336,31.53176498413086,0,0,0,40000
804065,-2.7201108932495117,-2.37135648727417,637.0,-2348.0,-32.3607177734375,29.374887466430664,0,0,0,40000
804075,-2.3986976146698,-3.3717780113220215,778.0,-2009.0,-26.26885223388672,27.522323608398438,0,0,0,40000
804085,-1.8367270231246948,-4.556265354156494,875.0,-1414.0,-19.03812026977539,24.21261215209961,0,0,0,40000
804095,-1.423098087310791,-5.03574275970459,965.0,-692.0,-16.015546798706055,21.778568267822266,0,0,0,40000
804105,-0.7327138185501099,-5.273232936859131,1028.0,10.0,-14.433746337890625,17.66669464111328,0,0,0,40000
804115,-0.23993469774723053,-5.123650550842285,1095.0,565.0,-15.175416946411133,14.723172187805176,0,0,0,40000
804125,0.5350820422172546,-4.617403030395508,1127.0,886.0,-18.067630767822266,10.066399574279785,0,0,0,40000
804135,1.0599586963653564,-4.169538974761963,1154.0,995.0,-20.624309539794922,6.891664981842041,0,0,0,40000
804145,1.8512439727783203,-3.5151124000549316,1158.0,892.0,-24.437782287597656,2.097940444946289,0,0,0,40000
804155,2.3818416595458984,-3.1584765911102295,1149.0,660.0,-26.478694915771484,-1.1507205963134766,0,0,0,40000
804165,3.166137933731079,-2.8414313793182373,1118.0,259.0,-28.29279327392578,-5.942131996154785,0,0,0,40000
804175,3.667724132537842,-2.839818239212036,1071.0,-276.0,-28.21756362915039,-9.055700302124023,0,0,0,40000
804185,4.385937690734863,-3.2256453037261963,996.0,-851.0,-25.8117618560791,-13.488078117370605,0,0,0,40000
804195,4.82847261428833,-3.7265586853027344,906.0,-1325.0,-22.70074462890625,-16.282875061035156,0,0,0,40000
804205,5.417630195617676,-4.761048316955566,768.0,-1658.0,-16.364099502563477,-19.97357749938965,0,0,0,40000
804215,5.759797096252441,-5.540930271148682,662.0,-1733.0,-11.527992248535156,-22.195314407348633,0,0,0,40000
804225,6.1912641525268555,-6.667180061340332,532.0,-1545.0,-4.583591461181641,-24.96493911743164,0,0,0,40000
804235,6.426695346832275,-7.277495384216309,421.0,-1140.0,-0.7104682922363281,-26.567567825317383,0,0,0,40000
804245,6.668735980987549,-7.839677333831787,242.0,-535.0,2.8924407958984375,-28.21739387512207,0,0,0,40000
804255,6.758228302001953,-7.948721408843994,85.0,49.0,3.7841758728027344,-28.956111907958984,0,0,0,40000
804265,6.781321048736572,-7.759857654571533,-19.0,504.0,2.887012481689453,-29.298025131225586,0,0,0,40000
804275,6.727712631225586,-7.453614711761475,-157.0,791.0,1.277008056640625,-29.178932189941406,0,0,0,40000
804285,6.5561909675598145,-6.8892364501953125,-265.0,833.0,-1.8957748413085938,-28.34885025024414,0,0,0,40000
804295,6.391289710998535,-6.534855365753174,-463.0,714.0,-3.8218116760253906,-27.5533447265625,0,0,0,40000
804305,6.068304061889648,-6.155037879943848,-471.0,389.0,-5.912269592285156,-25.801403045654297,0,0,0,40000
804315,5.821938991546631,-6.086489677429199,-571.0,-104.0,-6.140403747558594,-24.500869750976562,0,0,0,40000
804325,5.413502216339111,-6.325026988983154,-611.0,-557.0,-4.5232391357421875,-22.217628479003906,0,0,0,40000
804335,5.116988658905029,-6.699635028839111,-645.0,-1018.0,-2.079364776611328,-20.59563446044922,0,0,0,40000
804345,4.655571460723877,-7.479696273803711,-672.0,-1233.0,2.8155555725097656,-17.972389221191406,0,0,0,40000
804355,4.344891548156738,-8.069660186767578,-695.0,-1264.0,6.590339660644531,-16.24239730834961,0,0,0,40000
804365,3.8701581954956055,-8.875323295593262,-672.0,-1043.0,11.68143081665039,-13.515715599060059,0,0,0,40000
804375,3.556269884109497,-9.274510383605957,-665.0,-648.0,14.350223541259766,-11.742840766906738,0,0,0,40000
804385,3.0875320434570312,-9.561159133911133,-658.0,-151.0,16.354572296142578,-9.028675079345703,0,0,0,40000
804395,2.7895326614379883,-9.512046813964844,-626.0,342.0,16.34613037109375,-7.327919960021973,0,0,0,40000
804405,2.3635709285736084,-9.149057388305664,-568.0,715.0,14.447853088378906,-4.84803581237793,0,0,0,40000
804415,2.108442544937134,-8.773978233337402,-511.0,923.0,12.465206146240234,-3.383525848388672,0,0,0,40000
804425,1.7604657411575317,-8.139875411987305,-465.0,916.0,8.912391662597656,-1.3525514602661133,0,0,0,40000
804435,1.5597453117370605,-7.749332904815674,-393.0,760.0,6.806209564208984,-0.1973886489868164,0,0,0,40000
804445,1.3033827543258667,-7.332241058349609,-327.0,423.0,4.527881622314453,1.2987213134765625,0,0,0,40000
804455,1.1697558164596558,-7.220548629760742,-237.0,38.0,4.075466156005859,2.0638580322265625,0,0,0,40000
804465,1.020747423171997,-7.351393699645996,-179.0,-427.0,5.078487396240234,2.9256558418273926,0,0,0,40000
804475,0.9503451585769653,-7.641308307647705,-109.0,-792.0,7.043514251708984,3.3187637329101562,0,0,0,40000
804485,0.9072188138961792,-8.258322715759277,-42.0,-974.0,10.985515594482422,3.5499391555786133,0,0,0,40000
804495,0.9011173844337463,-8.706083297729492,27.0,-929.0,13.92789077758789,3.5594706535339355,0,0,0,40000
804505,0.9456129670143127,-9.273652076721191,73.0,-691.0,17.60523223876953,3.264814853668213,0,0,0,40000
804515,1.0050442218780518,-9.509251594543457,134.0,-282.0,19.301532745361328,2.878840923309326,0,0,0,40000
804525,1.1176385879516602,-9.553232192993164,179.0,179.0,19.85245132446289,2.171234130859375,0,0,0,40000
804535,1.2076730728149414,-9.368772506713867,232.0,635.0,19.029212951660156,1.59588623046875,0,0,0,40000
804545,1.3769398927688599,-8.827350616455078,251.0,928.0,16.0526123046875,0.5410852432250977,0,0,0,40000
804555,1.5048946142196655,-8.364762306213379,292.0,1048.0,13.533645629882812,-0.27025508880615234,0,0,0,40000
804565,1.7150402069091797,-7.678194046020508,299.0,933.0,9.652542114257812,-1.580026626586914,0,0,0,40000
804575,1.8601813316345215,-7.313493728637695,335.0,622.0,7.687957763671875,-2.504910469055176,0,0,0,40000
804585,2.092373847961426,-7.031728267669678,351.0,212.0,6.210803985595703,-3.9579696655273438,0,0,0,40000
804595,2.2462971210479736,-7.031103610992432,336.0,-199.0,6.417755126953125,-4.947070121765137,0,0,0,40000
804605,2.4778153896331787,-7.291050434112549,308.0,-555.0,8.192222595214844,-6.407781600952148,0,0,0,40000
804615,2.6215009689331055,-7.603784084320068,290.0,-753.0,10.292884826660156,-7.346853256225586,0,0,0,40000
804625,2.824718475341797,-8.155214309692383,262.0,-829.0,13.839336395263672,-8.64847183227539,0,0,0,40000
804635,2.9466545581817627,-8.501258850097656,234.0,-669.0,16.16657257080078,-9.46702766418457,0,0,0,40000
804645,3.088416337966919,-8.875663757324219,162.0,-391.0,18.675392150878906,-10.408634185791016,0,0,0,40000
804655,3.1569430828094482,-8.955802917480469,144.0,27.0,19.42418670654297,-10.913700103759766,0,0,0,40000
804665,3.216597557067871,-8.817181587219238,46.0,395.0,18.859432220458984,-11.367620468139648,0,0,0,40000
804675,3.234100341796875,-8.558032035827637,19.0,723.0,17.564559936523438,-11.569480895996094,0,0,0,40000
804685,3.2249770164489746,-8.015589714050293,-39.0,849.0,14.557136535644531,-11.611709594726562,0,0,0,40000
804695,3.194385290145874,-7.623948097229004,-50.0,848.0,12.440719604492188,-11.524365425109863,0,0,0,40000
804705,3.119849443435669,-7.120294094085693,-125.0,611.0,9.637931823730469,-11.17177963256836,0,0,0,40000
804715,3.047905683517456,-6.9246063232421875,-153.0,248.0,8.67367172241211,-10.832456588745117,0,0,0,40000
804725,2.929582118988037,-6.868321895599365,-203.0,-96.0,8.541912078857422,-10.211963653564453,0,0,0,40000
804735,2.8365695476531982,-6.992838382720947,-197.0,-432.0,9.497112274169922,-9.74007511138916,0,0,0,40000
804745,2.702410936355591,-7.375553607940674,-192.0,-664.0,12.00958251953125,-9.017749786376953,0,0,0,40000
804755,2.603853225708008,-7.704587936401367,-223.0,-742.0,14.210929870605469,-8.505716323852539,0,0,0,40000
804765,2.447348117828369,-8.205533027648926,-231.0,-700.0,17.456836700439453,-7.641984939575195,0,0,0,40000
804775,2.346771240234375,-8.478998184204102,-213.0,-503.0,19.348852157592773,-7.110136032104492,0,0,0,40000
804785,2.193227529525757,-8.682705879211426,-207.0,-146.0,20.829944610595703,-6.25645637512207,0,0,0,40000
804795,2.095519781112671,-8.639359474182129,-192.0,249.0,20.82979393005371,-5.734227180480957,0,0,0,40000
804805,1.9623969793319702,-8.306498527526855,-165.0,651.0,19.086671829223633,-4.995852470397949,0,0,0,40000
804815,1.8785117864608765,-7.93461799621582,-175.0,904.0,17.098011016845703,-4.549921989440918,0,0,0,40000
804825,1.7559877634048462,-7.268943786621094,-149.0,1008.0,13.330215454101562,-3.868854522705078,0,0,0,40000
804835,1.6841189861297607,-6.8264055252075195,-139.0,928.0,10.885026931762695,-3.4890003204345703,0,0,0,40000
804845,1.5895318984985352,-6.266430854797363,-111.0,722.0,7.719390869140625,-2.970217704772949,0,0,0,40000
804855,1.534608244895935,-6.036003112792969,-109.0,345.0,6.5204315185546875,-2.687358856201172,0,0,0,40000
804865,1.4564622640609741,-5.985769271850586,-99.0,-104.0,6.398281097412109,-2.263075828552246,0,0,0,40000
804875,1.4147411584854126,-6.142782211303711,-80.0,-524.0,7.522510528564453,-2.0556650161743164,0,0,0,40000
804885,1.3798868656158447,-6.607618808746338,-46.0,-757.0,10.50369644165039,-1.888279914855957,0,0,0,40000
804895,1.362839937210083,-6.994466304779053,-31.0,-850.0,13.029935836791992,-1.8270950317382812,0,0,0,40000
804905,1.336480736732483,-7.551114082336426,-30.0,-745.0,16.58998680114746,-1.7093663215637207,0,0,0,40000
804915,1.3228275775909424,-7.816512107849121,-24.0,-437.0,18.413867950439453,-1.6672921180725098,0,0,0,40000
804925,1.3138211965560913,-7.95229434967041,-15.0,-40.0,19.466354370117188,-1.65281343460083,0,0,0,40000
804935,1.3078210353851318,-7.860288143157959,-2.0,348.0,19.15142059326172,-1.6560912132263184,0,0,0,40000
804945,1.3030927181243896,-7.493530750274658,4.0,661.0,17.18072509765625,-1.666834831237793,0,0,0,40000
804955,1.2998631000518799,-7.133059978485107,-13.0,857.0,15.236322402954102,-1.686516284942627,0,0,0,40000
804965,1.2990847826004028,-6.524574279785156,8.0,912.0,11.788543701171875,-1.7208051681518555,0,0,0,40000
804975,1.3124821186065674,-6.137466907501221,31.0,791.0,9.654600143432617,-1.8403592109680176,0,0,0,40000
804985,1.3267093896865845,-5.702803611755371,14.0,519.0,7.222324371337891,-1.965379238128662,0,0,0,40000
804995,1.337141990661621,-5.569143772125244,25.0,136.0,6.588842391967773,-2.0679545402526855,0,0,0,40000
805005,1.3570523262023926,-5.634269714355469,49.0,-257.0,7.146944046020508,-2.2278051376342773,0,0,0,40000
805015,1.3801156282424927,-5.841937065124512,45.0,-567.0,8.5655517578125,-2.40731143951416,0,0,0,40000
805025,1.4213415384292603,-6.315874099731445,59.0,-749.0,11.592552185058594,-2.696826934814453,0,0,0,40000
805035,1.4476213455200195,-6.665957927703857,40.0,-727.0,13.888895034790039,-2.8976287841796875,0,0,0,40000
805045,1.481982946395874,-7.084046840667725,59.0,-499.0,16.605539321899414,-3.1477999687194824,0,0,0,40000
805055,1.503560185432434,-7.230051517486572,48.0,-180.0,17.696895599365234,-3.3221397399902344,0,0,0,40000
805065,1.526924729347229,-7.213547229766846,39.0,172.0,17.815290451049805,-3.507925510406494,0,0,0,40000
805075,1.5478713512420654,-7.030650615692139,39.0,521.0,16.931198120117188,-3.6797943115234375,0,0,0,40000
805085,1.5625946521759033,-6.57136344909668,18.0,752.0,14.37862777709961,-3.8148460388183594,0,0,0,40000
805095,1.571746826171875,-6.188903331756592,16.0,843.0,12.27412223815918,-3.9167776107788086,0,0,0,40000
805105,1.5704268217086792,-5.661068916320801,-3.0,733.0,9.283082962036133,-3.9560093879699707,0,0,0,40000
805115,1.562983751296997,-5.390096187591553,-4.0,508.0,7.82209587097168,-3.9583287239074707,0,0,0,40000
805125,1.5750634670257568,-5.153748989105225,0.0,233.0,6.560882568359375,-4.077965259552002,0,0,0,40000
805135,1.584211826324463,-5.138176918029785,-3.0,-114.0,6.621585845947266,-4.180295944213867,0,0,0,40000
805145,1.5939602851867676,-5.342771053314209,7.0,-402.0,8.006389617919922,-4.2864580154418945,0,0,0,40000
805155,1.5889954566955566,-5.582014083862305,15.0,-582.0,9.606353759765625,-4.304370403289795,0,0,0,40000
805165,1.5864909887313843,-6.000448703765869,-11.0,-606.0,12.291959762573242,-4.336978435516357,0,0,0,40000
805175,1.5702078342437744,-6.2557477951049805,-31.0,-485.0,14.008459091186523,-4.286640167236328,0,0,0,40000
805185,1.5574984550476074,-6.512066841125488,-15.0,-263.0,15.739253997802734,-4.257246494293213,0,0,0,40000
805195,1.5435844659805298,-6.551789283752441,-45.0,19.0,16.173782348632812,-4.220259666442871,0,0,0,40000
805205,1.503646969795227,-6.4014153480529785,-63.0,358.0,15.466142654418945,-4.026251792907715,0,0,0,40000
805215,1.4709914922714233,-6.133996486663818,-56.0,684.0,14.049015045166016,-3.8748416900634766,0,0,0,40000
805225,1.4298121929168701,-5.58584451675415,-54.0,851.0,10.934585571289062,-3.6711483001708984,0,0,0,40000
805235,1.4112855195999146,-5.181196689605713,-48.0,892.0,8.666999816894531,-3.602583885192871,0,0,0,40000
805245,1.3858622312545776,-4.63109827041626,-60.0,712.0,5.511463165283203,-3.491978168487549,0,0,0,40000
805255,1.3579628467559814,-4.378422737121582,-31.0,433.0,4.1296234130859375,-3.3656129837036133,0,0,0,40000
805265,1.3271396160125732,-4.258037567138672,-26.0,26.0,3.5356178283691406,-3.22084379196167,0,0,0,40000
805275,1.3055973052978516,-4.34859561920166,-44.0,-341.0,4.208089828491211,-3.131053924560547,0,0,0,40000
805285,1.286303997039795,-4.687965393066406,-40.0,-585.0,6.380359649658203,-3.054145336151123,0,0,0,40000
805295,1.2657513618469238,-4.993791103363037,-33.0,-697.0,8.361408233642578,-2.969052314758301,0,0,0,40000
805305,1.2471249103546143,-5.45035457611084,-27.0,-634.0,11.258968353271484,-2.8949356079101562,0,0,0,40000
805315,1.2295619249343872,-5.706329822540283,-24.0,-448.0,12.963077545166016,-2.8266448974609375,0,0,0,40000
805325,1.1982927322387695,-5.90696907043457,-46.0,-150.0,14.342449188232422,-2.675384521484375,0,0,0,40000
805335,1.1762646436691284,-5.873230457305908,-34.0,216.0,14.316825866699219,-2.5787668228149414,0,0,0,40000
805345,1.164011836051941,-5.61148738861084,-14.0,496.0,12.918472290039062,-2.540276527404785,0,0,0,40000
805355,1.1581063270568848,-5.316635608673096,-41.0,699.0,11.312494277954102,-2.539682388305664,0,0,0,40000
805365,1.1499491930007935,-4.799509525299072,-14.0,753.0,8.360002517700195,-2.5252938270568848,0,0,0,40000
805375,1.140265941619873,-4.471466064453125,2.0,648.0,6.529754638671875,-2.5014801025390625,0,0,0,40000
805385,1.1433290243148804,-4.104511737823486,10.0,441.0,4.455080032348633,-2.5540757179260254,0,0,0,40000
805395,1.1514006853103638,-3.986818313598633,-3.0,107.0,3.8697242736816406,-2.636979103088379,0,0,0,40000
805405,1.1558780670166016,-4.0735673904418945,8.0,-251.0,4.510610580444336,-2.69846248626709,0,0,0,40000
805415,1.1612545251846313,-4.271501541137695,3.0,-524.0,5.823841094970703,-2.7655158042907715,0,0,0,40000
805425,1.1700513362884521,-4.679384708404541,0.0,-623.0,8.40640640258789,-2.8533072471618652,0,0,0,40000
805435,1.1724261045455933,-4.959034442901611,2.0,-568.0,10.229755401611328,-2.9026803970336914,0,0,0,40000
805445,1.1770868301391602,-5.278116226196289,13.0,-380.0,12.299205780029297,-2.9658522605895996,0,0,0,40000
805455,1.1787837743759155,-5.3674092292785645,7.0,-94.0,12.995073318481445,-3.0113649368286133,0,0,0,40000
805465,1.1733955144882202,-5.333425998687744,-29.0,155.0,12.952125549316406,-3.014437198638916,0,0,0,40000
805475,1.1604894399642944,-5.197885990142822,-21.0,400.0,12.296581268310547,-2.9719724655151367,0,0,0,40000
805485,1.1372214555740356,-4.85791015625,-33.0,565.0,10.406898498535156,-2.8668036460876465,0,0,0,40000
805495,1.1079246997833252,-4.586637020111084,-46.0,595.0,8.920120239257812,-2.7246158123016357,0,0,0,40000
805505,1.067008376121521,-4.20628547668457,-63.0,527.0,6.768590927124023,-2.5116586685180664,0,0,0,40000
805515,1.0432350635528564,-4.000220775604248,-68.0,352.0,5.654582977294922,-2.400617837905884,0,0,0,40000
805525,0.9981473684310913,-3.8642845153808594,-69.0,97.0,4.955966949462891,-2.160557746887207,0,0,0,40000
805535,0.9617912173271179,-3.8818106651306152,-70.0,-137.0,5.177215576171875,-1.9717321395874023,0,0,0,40000
805545,0.8979327082633972,-4.065401077270508,-114.0,-352.0,6.398017883300781,-1.61641263961792,0,0,0,40000
805555,0.8648769855499268,-4.238333225250244,-75.0,-402.0,7.5606689453125,-1.444396734237671,0,0,0,40000
805565,0.8223085999488831,-4.52709436416626,-61.0,-412.0,9.425603866577148,-1.2140848636627197,0,0,0,40000
805575,0.786709725856781,-4.693741798400879,-74.0,-305.0,10.564374923706055,-1.024528980255127,0,0,0,40000
805585,0.7244566679000854,-4.839720249176025,-92.0,-133.0,11.584104537963867,-0.6735203266143799,0,0,0,40000
805595,0.6795904636383057,-4.838542461395264,-110.0,90.0,11.722335815429688,-0.42528462409973145,0,0,0,40000
805605,0.611476480960846,-4.711423397064209,-93.0,262.0,11.102855682373047,-0.035710811614990234,0,0,0,40000
805615,0.5791398882865906,-4.5468244552612305,-69.0,419.0,10.253732681274414,0.14056611061096191,0,0,0,40000
805625,0.5277225971221924,-4.249265670776367,-80.0,450.0,8.599464416503906,0.43257594108581543,0,0,0,40000
805635,0.5020143389701843,-4.047199249267578,-63.0,445.0,7.510906219482422,0.5714447498321533,0,0,0,40000
805645,0.4774898290634155,-3.7862563133239746,-70.0,322.0,6.061666488647461,0.7965230941772461,0,0,0,40000
805655,0.4396362602710724,-3.680429220199585,-54.0,164.0,5.516202926635742,0.9204995632171631,0,0,0,40000
805665,0.41693833470344543,-3.6678924560546875,-34.0,-72.0,5.5727386474609375,1.041325330734253,0,0,0,40000
805675,0.41366028785705566,-3.7491860389709473,13.0,-244.0,6.171932220458984,1.0485942363739014,0,0,0,40000
805685,0.4131241738796234,-3.8886985778808594,-15.0,-355.0,7.101406097412109,1.041879653930664,0,0,0,40000
805695,0.4181787371635437,-4.144214153289795,13.0,-382.0,8.755695343017578,0.9991440773010254,0,0,0,40000
805705,0.43064528703689575,-4.310121059417725,32.0,-321.0,9.878473281860352,0.911602258682251,0,0,0,40000
805715,0.4521765410900116,-4.474746227264404,35.0,-163.0,10.99889850616455,0.7691512107849121,0,0,0,40000
805725,0.4664953351020813,-4.4982829093933105,33.0,48.0,11.274898529052734,0.6693873405456543,0,0,0,40000
805735,0.4954361915588379,-4.395102024078369,33.0,262.0,10.789399147033691,0.4812197685241699,0,0,0,40000
805745,0.5151999592781067,-4.2238078117370605,30.0,446.0,9.890501022338867,0.3474142551422119,0,0,0,40000
805755,0.5421032905578613,-3.8834972381591797,47.0,546.0,7.969446182250977,0.17011260986328125,0,0,0,40000
805765,0.5589199066162109,-3.6384057998657227,38.0,523.0,6.610982894897461,0.05264425277709961,0,0,0,40000
805775,0.5922273397445679,-3.316089630126953,47.0,413.0,4.780210494995117,-0.16453242301940918,0,0,0,40000
805785,0.5989394187927246,-3.178921937942505,28.0,229.0,4.054108619689941,-0.22269773483276367,0,0,0,40000
805795,0.6207300424575806,-3.090777635574341,39.0,21.0,3.6185407638549805,-0.3717992305755615,0,0,0,40000
805805,0.6352460980415344,-3.1394636631011963,44.0,-206.0,4.004075050354004,-0.4777812957763672,0,0,0,40000
805815,0.6704621911048889,-3.333341360092163,37.0,-374.0,5.264625549316406,-0.7087631225585938,0,0,0,40000
805825,0.6924522519111633,-3.508390426635742,34.0,-397.0,6.418072700500488,-0.861208438873291,0,0,0,40000
805835,0.7235066890716553,-3.7562758922576904,56.0,-311.0,8.015323638916016,-1.0687687397003174,0,0,0,40000
805845,0.7386859059333801,-3.8601222038269043,60.0,-126.0,8.753081321716309,-1.1818132400512695,0,0,0,40000
805855,0.7700343132019043,-3.8867294788360596,45.0,54.0,9.029410362243652,-1.3926620483398438,0,0,0,40000
805865,0.7881008982658386,-3.8147926330566406,42.0,214.0,8.713162422180176,-1.5245084762573242,0,0,0,40000
805875,0.8131119012832642,-3.623878002166748,32.0,343.0,7.678921699523926,-1.6986303329467773,0,0,0,40000
805885,0.829991340637207,-3.4485576152801514,44.0,404.0,6.732583045959473,-1.8245866298675537,0,0,0,40000
805895,0.859384298324585,-3.1804513931274414,51.0,374.0,5.222502708435059,-2.0263373851776123,0,0,0,40000
805905,0.8804482221603394,-3.027202844619751,57.0,285.0,4.395651817321777,-2.1788883209228516,0,0,0,40000
805915,0.9070681929588318,-2.886887550354004,24.0,125.0,3.641704559326172,-2.365586280822754,0,0,0,40000
805925,0.9223624467849731,-2.87325382232666,47.0,-46.0,3.6461877822875977,-2.484830141067505,0,0,0,40000
805935,0.9506165385246277,-2.96099853515625,41.0,-193.0,4.260061264038086,-2.6825499534606934,0,0,0,40000
805945,0.9614151120185852,-3.077911376953125,54.0,-291.0,5.052426338195801,-2.776021718978882,0,0,0,40000
805955,0.9835498929023743,-3.288801670074463,43.0,-319.0,6.41384220123291,-2.9380927085876465,0,0,0,40000
805965,0.9936612248420715,-3.431025743484497,8.0,-270.0,7.36846923828125,-3.02848482131958,0,0,0,40000
805975,1.011522889137268,-3.5828166007995605,2.0,-160.0,8.385055541992188,-3.1657490730285645,0,0,0,40000
805985,1.0036933422088623,-3.609145402908325,-17.0,44.0,8.651105880737305,-3.148958206176758,0,0,0,40000
805995,0.9899061322212219,-3.5062320232391357,-31.0,247.0,8.140483856201172,-3.096107006072998,0,0,0,40000
806005,0.9746664762496948,-3.352267265319824,-17.0,407.0,7.319191932678223,-3.0340731143951416,0,0,0,40000
806015,0.9566946029663086,-3.0503931045532227,-37.0,446.0,5.603158950805664,-2.955207347869873,0,0,0,40000
806025,0.9445276856422424,-2.851712465286255,-34.0,416.0,4.499011993408203,-2.9106836318969727,0,0,0,40000
806035,0.9197346568107605,-2.610593795776367,-39.0,287.0,3.133223533630371,-2.7898035049438477,0,0,0,40000
806045,0.902668297290802,-2.5130257606506348,-33.0,94.0,2.6242904663085938,-2.7146639823913574,0,0,0,40000
806055,0.8772603869438171,-2.5081892013549805,-16.0,-62.0,2.6702756881713867,-2.588804244995117,0,0,0,40000
806065,0.8619447946548462,-2.5842647552490234,-27.0,-225.0,3.203261375427246,-2.5229668617248535,0,0,0,40000
806075,0.8376330733299255,-2.789411783218384,-54.0,-333.0,4.51509952545166,-2.4026358127593994,0,0,0,40000
806085,0.8217503428459167,-2.9337146282196045,-19.0,-285.0,5.467226982116699,-2.3321495056152344,0,0,0,40000
806095,0.8032758235931396,-3.1044299602508545,-32.0,-216.0,6.58271598815918,-2.2456436157226562,0,0,0,40000
806105,0.7879229187965393,-3.173320770263672,-24.0,-98.0,7.090524673461914,-2.1773409843444824,0,0,0,40000
806115,0.7644644975662231,-3.1876251697540283,-47.0,22.0,7.272026062011719,-2.0598621368408203,0,0,0,40000
806125,0.7446507811546326,-3.1514711380004883,-49.0,158.0,7.150148391723633,-1.9635705947875977,0,0,0,40000
806135,0.7078361511230469,-3.0136594772338867,-48.0,252.0,6.415523529052734,-1.7643637657165527,0,0,0,40000
806145,0.6914525032043457,-2.8756163120269775,-34.0,312.0,5.675254821777344,-1.6870014667510986,0,0,0,40000
806155,0.6688671112060547,-2.656799077987671,-25.0,310.0,4.444649696350098,-1.571765661239624,0,0,0,40000
806165,0.6521897912025452,-2.529700994491577,-25.0,214.0,3.759425163269043,-1.4914824962615967,0,0,0,40000
806175,0.6233340501785278,-2.4270122051239014,-42.0,92.0,3.2170228958129883,-1.3374323844909668,0,0,0,40000
806185,0.6059449315071106,-2.4167792797088623,-51.0,-28.0,3.228208541870117,-1.2515127658843994,0,0,0,40000
806195,0.5795160531997681,-2.459771156311035,-35.0,-145.0,3.559110641479492,-1.1105871200561523,0,0,0,40000
806205,0.5731611847877502,-2.54952073097229,6.0,-212.0,4.172966957092285,-1.0897064208984375,0,0,0,40000
806215,0.5701818466186523,-2.717043161392212,-8.0,-262.0,5.257440567016602,-1.089003086090088,0,0,0,40000
806225,0.5721114873886108,-2.8306896686553955,-12.0,-206.0,6.022916793823242,-1.1177208423614502,0,0,0,40000
806235,0.5674276351928711,-2.9352633953094482,-12.0,-95.0,6.737368583679199,-1.106710433959961,0,0,0,40000
806245,0.5615389943122864,-2.9411356449127197,-5.0,73.0,6.86088752746582,-1.0882999897003174,0,0,0,40000
806255,0.5585938096046448,-2.850924491882324,9.0,184.0,6.406444549560547,-1.0873618125915527,0,0,0,40000
806265,0.5564631223678589,-2.7336971759796143,8.0,293.0,5.786529541015625,-1.091308832168579,0,0,0,40000
806275,0.569460391998291,-2.5179202556610107,3.0,341.0,4.570084571838379,-1.1862282752990723,0,0,0,40000
806285,0.5680244565010071,-2.3583483695983887,6.0,358.0,3.685330390930176,-1.194662094116211,0,0,0,40000
806295,0.5762712955474854,-2.1352689266204834,12.0,294.0,2.4134521484375,-1.261345386505127,0,0,0,40000
806305,0.582919716835022,-2.029229164123535,6.0,148.0,1.8392753601074219,-1.3186719417572021,0,0,0,40000
806315,0.5828182101249695,-1.9809650182724,0.0,5.0,1.6094160079956055,-1.3355989456176758,0,0,0,40000
806325,0.5981422662734985,-2.0129244327545166,-17.0,-171.0,1.8610897064208984,-1.4452946186065674,0,0,0,40000
806335,0.5948666334152222,-2.1705830097198486,-20.0,-263.0,2.8700857162475586,-1.443519115447998,0,0,0,40000
806345,0.595544159412384,-2.3004045486450195,-18.0,-278.0,3.716459274291992,-1.4654271602630615,0,0,0,40000
806355,0.5917655825614929,-2.474501371383667,11.0,-176.0,4.833461761474609,-1.4604337215423584,0,0,0,40000
806365,0.5873875021934509,-2.529407262802124,-10.0,-46.0,5.238197326660156,-1.451833724975586,0,0,0,40000
806375,0.5660579204559326,-2.5151898860931396,-36.0,93.0,5.228862762451172,-1.3411626815795898,0,0,0,40000
806385,0.5500421524047852,-2.433579444885254,-43.0,254.0,4.81328010559082,-1.261781930923462,0,0,0,40000
806395,0.5247066617012024,-2.214660406112671,-53.0,342.0,3.569002151489258,-1.1258306503295898,0,0,0,40000
806405,0.4983690679073334,-2.053821086883545,-71.0,348.0,2.6674928665161133,-0.9830844402313232,0,0,0,40000
806415,0.44626861810684204,-1.843515157699585,-65.0,254.0,1.4632987976074219,-0.684470534324646,0,0,0,40000
806425,0.4085785150527954,-1.773118257522583,-94.0,74.0,1.0948333740234375,-0.4710695743560791,0,0,0,40000
806435,0.35258445143699646,-1.7722690105438232,-81.0,-101.0,1.1425085067749023,-0.1463487148284912,0,0,0,40000
806445,0.30970874428749084,-1.8440464735031128,-93.0,-203.0,1.6276092529296875,0.10111331939697266,0,0,0,40000
806455,0.24854521453380585,-2.0196797847747803,-76.0,-298.0,2.739736557006836,0.4599571228027344,0,0,0,40000
806465,0.208085298538208,-2.1729190349578857,-84.0,-329.0,3.722492218017578,0.6959599256515503,0,0,0,40000
806475,0.1511944830417633,-2.3686652183532715,-79.0,-261.0,4.965821266174316,1.0320713520050049,0,0,0,40000
806485,0.11650759726762772,-2.4572200775146484,-80.0,-106.0,5.569893836975098,1.2362680435180664,0,0,0,40000
806495,0.06432892382144928,-2.4730684757232666,-76.0,61.0,5.7393798828125,1.5468002557754517,0,0,0,40000
806505,0.033452633768320084,-2.413259744644165,-76.0,203.0,5.453710556030273,1.7306878566741943,0,0,0,40000
806515,-0.006589402910321951,-2.2346200942993164,-68.0,286.0,4.451231956481934,1.970695972442627,0,0,0,40000
806525,-0.02861216850578785,-2.098539113998413,-52.0,312.0,3.6993465423583984,2.103468894958496,0,0,0,40000
806535,-0.06309812515974045,-1.8955228328704834,-23.0,286.0,2.5404930114746094,2.311946153640747,0,0,0,40000
806545,-0.08794325590133667,-1.7911783456802368,-60.0,174.0,1.9693107604980469,2.4632983207702637,0,0,0,40000
806555,-0.10744989663362503,-1.7064913511276245,-31.0,70.0,1.5131216049194336,2.5833446979522705,0,0,0,40000
806565,-0.11176390200853348,-1.7195507287979126,-9.0,-71.0,1.6428050994873047,2.612542152404785,0,0,0,40000
806575,-0.11712801456451416,-1.8495603799819946,-3.0,-243.0,2.4764328002929688,2.6481993198394775,0,0,0,40000
806585,-0.12301522493362427,-1.991583228111267,-4.0,-320.0,3.3865890502929688,2.6871378421783447,0,0,0,40000
806595,-0.1299964040517807,-2.2059693336486816,-23.0,-299.0,4.736562728881836,2.732759952545166,0,0,0,40000
806605,-0.12678958475589752,-2.3200197219848633,-9.0,-208.0,5.489168167114258,2.7173633575439453,0,0,0,40000
806615,-0.13430854678153992,-2.4059555530548096,-2.0,-63.0,6.076238632202148,2.7664012908935547,0,0,0,40000
806625,-0.12730267643928528,-2.3831145763397217,24.0,129.0,6.011066436767578,2.728302001953125,0,0,0,40000
806635,-0.1167711690068245,-2.2296395301818848,24.0,282.0,5.159211158752441,2.6687142848968506,0,0,0,40000
806645,-0.1075918972492218,-2.0775811672210693,18.0,368.0,4.311052322387695,2.6169538497924805,0,0,0,40000
806655,-0.09004276990890503,-1.8089669942855835,18.0,401.0,2.7569217681884766,2.5145459175109863,0,0,0,40000
806665,-0.06828855723142624,-1.6368573904037476,43.0,324.0,1.7753868103027344,2.3863394260406494,0,0,0,40000
806675,-0.04582441598176956,-1.4744435548782349,27.0,156.0,0.8467226028442383,2.2531943321228027,0,0,0,40000
806685,-0.02032691240310669,-1.446723461151123,39.0,-17.0,0.7240190505981445,2.101137161254883,0,0,0,40000
806695,0.0034572456497699022,-1.548683762550354,44.0,-214.0,1.3805980682373047,1.9586412906646729,0,0,0,40000
806705,0.021667836233973503,-1.6835148334503174,47.0,-319.0,2.2384347915649414,1.8489772081375122,0,0,0,40000
806715,0.049399133771657944,-1.9075781106948853,39.0,-329.0,3.6373496055603027,1.681414246559143,0,0,0,40000
806725,0.066414475440979,-2.0432825088500977,30.0,-264.0,4.511268138885498,1.5775262117385864,0,0,0,40000
806735,0.10007160156965256,-2.1712536811828613,55.0,-132.0,5.343020439147949,1.3730318546295166,0,0,0,40000
806745,0.11733860522508621,-2.197190999984741,38.0,-2.0,5.564332962036133,1.2661151885986328,0,0,0,40000
806755,0.12928414344787598,-2.147331953048706,2.0,139.0,5.330577850341797,1.1906189918518066,0,0,0,40000
806765,0.13258665800094604,-2.0284368991851807,11.0,311.0,4.679558277130127,1.1668857336044312,0,0,0,40000
806775,0.14185425639152527,-1.780128836631775,11.0,366.0,3.2461318969726562,1.1071348190307617,0,0,0,40000
806785,0.14634071290493011,-1.6253399848937988,8.0,325.0,2.3679957389831543,1.0758756399154663,0,0,0,40000
806795,0.1468425691127777,-1.4356938600540161,0.0,250.0,1.2753229141235352,1.0684387683868408,0,0,0,40000
806805,0.14637266099452972,-1.3478025197982788,-11.0,115.0,0.7893795967102051,1.0668598413467407,0,0,0,40000
806815,0.1346251219511032,-1.3120973110198975,-16.0,2.0,0.6146769523620605,1.1331989765167236,0,0,0,40000
806825,0.13852043449878693,-1.3383817672729492,8.0,-104.0,0.8121871948242188,1.105745553970337,0,0,0,40000
806835,0.14031368494033813,-1.4733859300613403,-1.0,-225.0,1.6646013259887695,1.0907989740371704,0,0,0,40000
806845,0.13645285367965698,-1.6047595739364624,-12.0,-302.0,2.4993858337402344,1.1098147630691528,0,0,0,40000
806855,0.11838699877262115,-1.7952033281326294,-23.0,-257.0,3.693739891052246,1.2144100666046143,0,0,0,40000
806865,0.107797771692276,-1.8854106664657593,-40.0,-150.0,4.290530681610107,1.2745683193206787,0,0,0,40000
806875,0.08588416874408722,-1.9580092430114746,-45.0,-65.0,4.784233093261719,1.4031749963760376,0,0,0,40000
806885,0.07383588701486588,-1.9463179111480713,-16.0,56.0,4.772658824920654,1.473132610321045,0,0,0,40000
806895,0.06265411525964737,-1.8594579696655273,-41.0,159.0,4.308544635772705,1.5381443500518799,0,0,0,40000
806905,0.042174339294433594,-1.7620940208435059,-51.0,243.0,3.7784199714660645,1.6594934463500977,0,0,0,40000
806915,0.02107510343194008,-1.5508315563201904,-32.0,338.0,2.5601119995117188,1.7852452993392944,0,0,0,40000
806925,0.00801735371351242,-1.4110870361328125,-36.0,298.0,1.7656216621398926,1.8631868362426758,0,0,0,40000
806935,-0.005328760482370853,-1.2426869869232178,-8.0,222.0,0.794410228729248,1.943320631980896,0,0,0,40000
806945,-0.01348028238862753,-1.1843652725219727,-9.0,76.0,0.48063039779663086,1.9925428628921509,0,0,0,40000
806955,-0.0104983476921916,-1.1678612232208252,3.0,-29.0,0.41657590866088867,1.975024938583374,0,0,0,40000
806965,-0.015890123322606087,-1.219122052192688,2.0,-153.0,0.760040283203125,2.0078022480010986,0,0,0,40000
806975,-0.008399722166359425,-1.3732072114944458,9.0,-252.0,1.723708152770996,1.9632142782211304,0,0,0,40000
806985,0.002039426239207387,-1.4857834577560425,6.0,-249.0,2.442394256591797,1.9006383419036865,0,0,0,40000
806995,0.004695126786828041,-1.6243367195129395,13.0,-153.0,3.321009635925293,1.8846044540405273,0,0,0,40000
807005,0.00855662114918232,-1.6723136901855469,2.0,-59.0,3.658517360687256,1.8612279891967773,0,0,0,40000
807015,0.008067255839705467,-1.672902226448059,-2.0,47.0,3.712477684020996,1.8639111518859863,0,0,0,40000
807025,0.015666959807276726,-1.611258864402771,16.0,178.0,3.391781806945801,1.8179444074630737,0,0,0,40000
807035,0.015127493068575859,-1.4730466604232788,-2.0,227.0,2.6084585189819336,1.8206511735916138,0,0,0,40000
807045,0.021907927468419075,-1.3490540981292725,17.0,299.0,1.9064879417419434,1.779409646987915,0,0,0,40000
807055,0.031287502497434616,-1.1420272588729858,10.0,281.0,0.7010440826416016,1.7222881317138672,0,0,0,40000
807065,0.036706387996673584,-1.0167756080627441,23.0,246.0,-0.018499374389648438,1.6887484788894653,0,0,0,40000
807075,0.06012897938489914,-0.8954088687896729,16.0,99.0,-0.718782901763916,1.5466365814208984,0,0,0,40000
807085,0.05861470848321915,-0.8912618160247803,-12.0,-51.0,-0.7169637680053711,1.5539153814315796,0,0,0,40000
807095,0.05862050503492355,-0.9542458057403564,8.0,-122.0,-0.3113369941711426,1.5521509647369385,0,0,0,40000
807105,0.065727598965168,-1.0173581838607788,15.0,-178.0,0.09707212448120117,1.5076334476470947,0,0,0,40000
807115,0.06909996271133423,-1.152160882949829,0.0,-191.0,0.9388537406921387,1.4853566884994507,0,0,0,40000
807125,0.07619971036911011,-1.2316701412200928,5.0,-180.0,1.451911449432373,1.4405572414398193,0,0,0,40000
807135,0.07773569226264954,-1.3328570127487183,0.0,-121.0,2.09793758392334,1.4290120601654053,0,0,0,40000
807145,0.0762469619512558,-1.367662787437439,-4.0,-42.0,2.347411632537842,1.4356346130371094,0,0,0,40000
807155,0.06616541743278503,-1.3555729389190674,5.0,70.0,2.31595516204834,1.494070291519165,0,0,0,40000
807165,0.06335943192243576,-1.2977967262268066,-11.0,130.0,2.0089521408081055,1.5089490413665771,0,0,0,40000
807175,0.062454622238874435,-1.185205340385437,0.0,200.0,1.3704981803894043,1.5125067234039307,0,0,0,40000
807185,0.06128938868641853,-1.0849270820617676,-10.0,227.0,0.8025636672973633,1.5176327228546143,0,0,0,40000
807195,0.052302442491054535,-0.9363305568695068,-7.0,191.0,-0.05924558639526367,1.5698766708374023,0,0,0,40000
807205,0.038331564515829086,-0.8720424771308899,0.0,122.0,-0.41807031631469727,1.652408480644226,0,0,0,40000
807215,0.04246416315436363,-0.8059823513031006,3.0,52.0,-0.7896499633789062,1.6263867616653442,0,0,0,40000
807225,0.045664604753255844,-0.7993043661117554,8.0,0.0,-0.8056697845458984,1.6058599948883057,0,0,0,40000
807235,0.06061556190252304,-0.8376927971839905,37.0,-47.0,-0.5506830215454102,1.5146100521087646,0,0,0,40000
807245,0.06964852660894394,-0.8714988231658936,31.0,-102.0,-0.3221549987792969,1.4584370851516724,0,0,0,40000
807255,0.07693115621805191,-0.9774323105812073,10.0,-173.0,0.34135913848876953,1.4124557971954346,0,0,0,40000
807265,0.0867779478430748,-1.055165410041809,27.0,-175.0,0.8384671211242676,1.3508830070495605,0,0,0,40000
807275,0.1030934527516365,-1.1647405624389648,20.0,-149.0,1.529616355895996,1.2500410079956055,0,0,0,40000
807285,0.11780937761068344,-1.2131609916687012,29.0,-67.0,1.856001853942871,1.1584044694900513,0,0,0,40000
807295,0.13685476779937744,-1.2454619407653809,44.0,-9.0,2.086956024169922,1.0403165817260742,0,0,0,40000
807305,0.14953365921974182,-1.2251509428024292,32.0,71.0,2.0021510124206543,0.9599162936210632,0,0,0,40000
807315,0.16920393705368042,-1.1353363990783691,25.0,166.0,1.4986004829406738,0.8369972705841064,0,0,0,40000
807325,0.1962607353925705,-1.0389841794967651,48.0,241.0,0.9528651237487793,0.6690832376480103,0,0,0,40000
807335,0.23401552438735962,-0.8582782745361328,44.0,266.0,-0.10343408584594727,0.4359891414642334,0,0,0,40000
807345,0.256695032119751,-0.7511141896247864,42.0,196.0,-0.7226548194885254,0.29248809814453125,0,0,0,40000
807355,0.2735895812511444,-0.6527236700057983,40.0,106.0,-1.2924973964691162,0.1831350326538086,0,0,0,40000
807365,0.292052686214447,-0.6316779851913452,25.0,15.0,-1.4034245014190674,0.06551456451416016,0,0,0,40000
807375,0.3099488615989685,-0.656527042388916,51.0,-68.0,-1.2349872589111328,-0.05092191696166992,0,0,0,40000
807385,0.3433138430118561,-0.7299113869667053,61.0,-128.0,-0.7737927436828613,-0.26096630096435547,0,0,0,40000
807395,0.3701489567756653,-0.8035839796066284,47.0,-178.0,-0.30855464935302734,-0.4327394962310791,0,0,0,40000
807405,0.39311930537223816,-0.9168590903282166,23.0,-169.0,0.3972663879394531,-0.5821232795715332,0,0,0,40000
807415,0.402420312166214,-0.9814543128013611,40.0,-107.0,0.8135466575622559,-0.6498934030532837,0,0,0,40000
807425,0.41868576407432556,-1.0296930074691772,25.0,-3.0,1.1335020065307617,-0.7599384784698486,0,0,0,40000
807435,0.43204832077026367,-1.0240116119384766,24.0,50.0,1.1302437782287598,-0.8528977632522583,0,0,0,40000
807445,0.4499054551124573,-0.9725809097290039,38.0,88.0,0.8515186309814453,-0.9732439517974854,0,0,0,40000
807455,0.4594917297363281,-0.9276756644248962,24.0,84.0,0.6104435920715332,-1.0444350242614746,0,0,0,40000
807465,0.4686988890171051,-0.8767637610435486,9.0,68.0,0.3318147659301758,-1.1136903762817383,0,0,0,40000
807475,0.47370320558547974,-0.8531808853149414,7.0,23.0,0.21618080139160156,-1.157874345779419,0,0,0,40000
807485,0.46723756194114685,-0.8620181083679199,-23.0,-38.0,0.2947816848754883,-1.1332377195358276,0,0,0,40000
807495,0.4628908634185791,-0.8866010308265686,0.0,-47.0,0.4685940742492676,-1.1210761070251465,0,0,0,40000
807505,0.4561927616596222,-0.9384227395057678,-19.0,-72.0,0.8069443702697754,-1.0947017669677734,0,0,0,40000
807515,0.45029526948928833,-0.9616119861602783,-19.0,-38.0,0.9746627807617188,-1.072904109954834,0,0,0,40000
807525,0.43277212977409363,-0.9781919121742249,-42.0,-7.0,1.1033148765563965,-0.9810233116149902,0,0,0,40000
807535,0.4176511764526367,-0.9682565331459045,-29.0,52.0,1.0729146003723145,-0.9030153751373291,0,0,0,40000
807545,0.39843887090682983,-0.9270121455192566,-27.0,77.0,0.8537826538085938,-0.7998931407928467,0,0,0,40000
807555,0.39015495777130127,-0.8731671571731567,-9.0,124.0,0.557586669921875,-0.7619855403900146,0,0,0,40000
807565,0.3797229826450348,-0.7954568862915039,-10.0,98.0,0.11601638793945312,-0.7109296321868896,0,0,0,40000
807575,0.37698647379875183,-0.7619603276252747,-16.0,46.0,-0.06173372268676758,-0.7058641910552979,0,0,0,40000
807585,0.36865174770355225,-0.744132399559021,-16.0,32.0,-0.14625120162963867,-0.6670221090316772,0,0,0,40000
807595,0.36697497963905334,-0.7484527826309204,-12.0,-22.0,-0.09794092178344727,-0.6679732799530029,0,0,0,40000
807605,0.36038386821746826,-0.7849839925765991,-3.0,-82.0,0.14424943923950195,-0.6392687559127808,0,0,0,40000
807615,0.352875679731369,-0.8353807330131531,9.0,-148.0,0.4710531234741211,-0.6048818826675415,0,0,0,40000
807625,0.35782158374786377,-0.9399559497833252,6.0,-134.0,1.1255297660827637,-0.6452591419219971,0,0,0,40000
807635,0.36696532368659973,-0.9928830862045288,-6.0,-119.0,1.4722719192504883,-0.7110319137573242,0,0,0,40000
807645,0.377532422542572,-1.048554539680481,5.0,-45.0,1.8372879028320312,-0.7855829000473022,0,0,0,40000
807655,0.3818109929561615,-1.0556972026824951,30.0,34.0,1.9117474555969238,-0.8226313591003418,0,0,0,40000
807665,0.40331098437309265,-1.0021891593933105,22.0,121.0,1.621659755706787,-0.963524580001831,0,0,0,40000
807675,0.413260281085968,-0.9207636713981628,6.0,199.0,1.1617512702941895,-1.0355292558670044,0,0,0,40000
807685,0.42081448435783386,-0.7607068419456482,2.0,233.0,0.2262721061706543,-1.0933789014816284,0,0,0,40000
807695,0.42620447278022766,-0.6658352613449097,1.0,191.0,-0.3218810558319092,-1.138439416885376,0,0,0,40000
807705,0.4262049198150635,-0.5664059519767761,4.0,90.0,-0.9004902839660645,-1.1511907577514648,0,0,0,40000
807715,0.42715612053871155,-0.550570011138916,4.0,-6.0,-0.9788556098937988,-1.1697193384170532,0,0,0,40000
807725,0.42980682849884033,-0.5905117392539978,-17.0,-106.0,-0.7222442626953125,-1.198595404624939,0,0,0,40000
807735,0.43191683292388916,-0.657929539680481,10.0,-170.0,-0.2988569736480713,-1.2241718769073486,0,0,0,40000
807745,0.4393346309661865,-0.79754638671875,2.0,-240.0,0.560938835144043,-1.2817811965942383,0,0,0,40000
807755,0.43274256587028503,-0.9133909940719604,-3.0,-244.0,1.282026767730713,-1.2552688121795654,0,0,0,40000
807765,0.42580854892730713,-1.0740402936935425,-20.0,-189.0,2.2763233184814453,-1.226542592048645,0,0,0,40000
807775,0.4323923587799072,-1.1372098922729492,-22.0,-63.0,2.6887927055358887,-1.2789608240127563,0,0,0,40000
807785,0.43118321895599365,-1.1188427209854126,-16.0,111.0,2.61275577545166,-1.2846237421035767,0,0,0,40000
807795,0.4248931407928467,-1.0396877527236938,-4.0,220.0,2.170039176940918,-1.2596863508224487,0,0,0,40000
807805,0.4030209183692932,-0.864646315574646,-5.0,267.0,1.1479554176330566,-1.1408252716064453,0,0,0,40000
807815,0.39769086241722107,-0.7418857216835022,-2.0,263.0,0.4350895881652832,-1.1208529472351074,0,0,0,40000
807825,0.4028630554676056,-0.5743127465248108,-11.0,182.0,-0.5512843132019043,-1.1639268398284912,0,0,0,40000
807835,0.4128066897392273,-0.5136687159538269,-11.0,64.0,-0.8990845680236816,-1.235837459564209,0,0,0,40000
807845,0.41386330127716064,-0.5111671090126038,-12.0,-92.0,-0.8990769386291504,-1.2545602321624756,0,0,0,40000
807855,0.3948832154273987,-0.5819352269172668,-21.0,-226.0,-0.4579582214355469,-1.1527557373046875,0,0,0,40000
807865,0.3581242561340332,-0.7839275002479553,-30.0,-329.0,0.774878978729248,-0.9434409141540527,0,0,0,40000
807875,0.3342694342136383,-0.9424476623535156,-66.0,-329.0,1.7523784637451172,-0.8106597661972046,0,0,0,40000
807885,0.29167431592941284,-1.1295902729034424,-57.0,-230.0,2.9071075916290283,-0.5642997026443481,0,0,0,40000
807895,0.26805415749549866,-1.1957677602767944,-68.0,-78.0,3.339334011077881,-0.4308983087539673,0,0,0,40000
807905,0.23174743354320526,-1.1796555519104004,-87.0,109.0,3.2786142826080322,-0.22051763534545898,0,0,0,40000
807915,0.20049923658370972,-1.0887701511383057,-88.0,272.0,2.767117500305176,-0.03944826126098633,0,0,0,40000
807925,0.14080917835235596,-0.8648958802223206,-76.0,360.0,1.4526584148406982,0.3137030601501465,0,0,0,40000
807935,0.09789583832025528,-0.7043477296829224,-75.0,373.0,0.5124506950378418,0.5677123069763184,0,0,0,40000
807945,0.04508857801556587,-0.4835430085659027,-70.0,276.0,-0.7954175472259521,0.8826501965522766,0,0,0,40000
807955,0.020394640043377876,-0.38329097628593445,-32.0,168.0,-1.384268045425415,1.0299623012542725,0,0,0,40000
807965,0.0014581349678337574,-0.32857391238212585,-44.0,-23.0,-1.7025012969970703,1.1433262825012207,0,0,0,40000
807975,-0.012662608176469803,-0.3911363184452057,-46.0,-249.0,-1.3162646293640137,1.2282527685165405,0,0,0,40000
807985,-0.03175016865134239,-0.6044006943702698,-30.0,-380.0,-0.021400928497314453,1.3435014486312866,0,0,0,40000
807995,-0.04569293558597565,-0.7906201481819153,-17.0,-451.0,1.1173582077026367,1.4283498525619507,0,0,0,40000
808005,-0.0661303848028183,-1.0792722702026367,-8.0,-356.0,2.878404378890991,1.5527158975601196,0,0,0,40000
808015,-0.06933200359344482,-1.2206553220748901,17.0,-197.0,3.76171875,1.5739918947219849,0,0,0,40000
808025,-0.058798108249902725,-1.2815477848052979,6.0,45.0,4.165315628051758,1.5127034187316895,0,0,0,40000
808035,-0.05055715888738632,-1.2088160514831543,-11.0,254.0,3.76621675491333,1.464890480041504,0,0,0,40000
808045,-0.03955599293112755,-0.9732212424278259,7.0,387.0,2.384942054748535,1.4001827239990234,0,0,0,40000
808055,-0.03691285848617554,-0.7779513001441956,-2.0,441.0,1.2390270233154297,1.3854252099990845,0,0,0,40000
808065,-0.03261210024356842,-0.4767530858516693,23.0,420.0,-0.5503501892089844,1.3606330156326294,0,0,0,40000
808075,-0.029492976143956184,-0.30441126227378845,13.0,285.0,-1.5732436180114746,1.3428514003753662,0,0,0,40000
808085,-0.021101728081703186,-0.16357342898845673,19.0,109.0,-2.412059783935547,1.2932989597320557,0,0,0,40000
808095,-0.0009189867996610701,-0.16843420267105103,30.0,-103.0,-2.377992630004883,1.1725091934204102,0,0,0,40000
808105,0.03809858486056328,-0.3140760064125061,26.0,-308.0,-1.496869683265686,0.9377256035804749,0,0,0,40000
808115,0.06310150772333145,-0.49266767501831055,38.0,-426.0,-0.412750244140625,0.7860974073410034,0,0,0,40000
808125,0.09877713024616241,-0.7839170098304749,48.0,-419.0,1.3547782897949219,0.569486141204834,0,0,0,40000
808135,0.1136416643857956,-0.9457247853279114,57.0,-282.0,2.3521552085876465,0.4770776033401489,0,0,0,40000
808145,0.13122279942035675,-1.0575605630874634,51.0,-61.0,3.0540499687194824,0.3679189682006836,0,0,0,40000
808155,0.14535698294639587,-1.0424984693527222,38.0,148.0,2.9952750205993652,0.2789239287376404,0,0,0,40000
808165,0.16992534697055817,-0.8852056860923767,15.0,308.0,2.0802907943725586,0.12669551372528076,0,0,0,40000
808175,0.1848384290933609,-0.7321809530258179,2.0,397.0,1.1859965324401855,0.03183865547180176,0,0,0,40000
808185,0.19809891283512115,-0.45502984523773193,-12.0,397.0,-0.45992112159729004,-0.053581953048706055,0,0,0,40000
808195,0.19670802354812622,-0.27170905470848083,-6.0,344.0,-1.5495057106018066,-0.05113351345062256,0,0,0,40000
808205,0.17170284688472748,-0.06853104382753372,19.0,228.0,-2.7643470764160156,0.09349930286407471,0,0,0,40000
808215,0.16089099645614624,0.006522187031805515,19.0,57.0,-3.2140793800354004,0.1534132957458496,0,0,0,40000
808225,0.15685559809207916,-0.019263198599219322,8.0,-114.0,-3.059504747390747,0.1728980541229248,0,0,0,40000
808235,0.17020905017852783,-0.11022293567657471,-3.0,-223.0,-2.511591672897339,0.0878145694732666,0,0,0,40000
808245,0.18339639902114868,-0.3067410886287689,-4.0,-307.0,-1.3257923126220703,0.003371596336364746,0,0,0,40000
808255,0.1931622177362442,-0.4575030207633972,-4.0,-324.0,-0.4092721939086914,-0.060892462730407715,0,0,0,40000
808265,0.19259217381477356,-0.6495839357376099,1.0,-265.0,0.7605674266815186,-0.06329226493835449,0,0,0,40000
808275,0.17811845242977142,-0.7401077151298523,5.0,-162.0,1.3248624801635742,0.018039464950561523,0,0,0,40000
808285,0.16392213106155396,-0.7996506094932556,4.0,-15.0,1.705686092376709,0.09813380241394043,0,0,0,40000
808295,0.15538260340690613,-0.7720856070518494,-1.0,114.0,1.5638422966003418,0.1446405053138733,0,0,0,40000
808305,0.17216196656227112,-0.6698769330978394,2.0,199.0,0.9721295833587646,0.03905189037322998,0,0,0,40000
808315,0.19347670674324036,-0.5779222249984741,5.0,221.0,0.43883776664733887,-0.09439527988433838,0,0,0,40000
808325,0.2142697274684906,-0.44500410556793213,13.0,181.0,-0.34372591972351074,-0.22534751892089844,0,0,0,40000
808335,0.21287553012371063,-0.37059447169303894,27.0,99.0,-0.7782361507415771,-0.22337090969085693,0,0,0,40000
808345,0.20946753025054932,-0.33638033270835876,28.0,-3.0,-0.9732239246368408,-0.20928072929382324,0,0,0,40000
808355,0.21442195773124695,-0.3504962623119354,31.0,-70.0,-0.8782565593719482,-0.24538743495941162,0,0,0,40000
808365,0.23279492557048798,-0.4249159097671509,22.0,-112.0,-0.4199402332305908,-0.3623616695404053,0,0,0,40000
808375,0.25347885489463806,-0.4821108281612396,23.0,-122.0,-0.06300711631774902,-0.4938068389892578,0,30,0,40000
808385,0.2879301607608795,-0.5579942464828491,32.0,-86.0,-180.1317596435547,-0.7086944580078125,0,30,0,40000
808395,0.30036965012550354,-0.6083469390869141,23.0,-150.0,-180.71202087402344,-0.7921855449676514,0,30,0,40000
808405,0.3066081404685974,-0.7837216854095459,31.0,-341.0,-180.5386962890625,-0.8387093544006348,0,30,0,40000
808415,0.31133151054382324,-1.0111219882965088,30.0,-666.0,-180.046875,-0.8763605356216431,0,30,0,40000
808425,0.31956183910369873,-1.6434367895126343,17.0,-1150.0,-177.11241149902344,-0.9352480173110962,0,30,0,40000
808435,0.3262929618358612,-2.323002576828003,27.0,-1701.0,-173.873779296875,-0.9853134155273438,0,30,0,40000
808445,0.3527640700340271,-3.769397258758545,21.0,-2367.0,-166.00111389160156,-1.1544203758239746,0,30,0,40000
808455,0.36350953578948975,-5.06187629699707,-1.0,-3087.0,-159.0102996826172,-1.2296990156173706,0,30,0,40000
808465,0.37631601095199585,-7.450143814086914,1.0,-3708.0,-145.38711547851562,-1.317750096321106,0,30,0,40000
808475,0.3761370778083801,-9.24204158782959,-6.0,-4031.0,-135.2801055908203,-1.3279887437820435,0,30,0,40000
808485,0.3623242676258087,-12.017243385314941,12.0,-4050.0,-119.20166778564453,-1.2561604976654053,0,30,0,40000
808495,0.3561684489250183,-13.809612274169922,3.0,-3814.0,-108.95452117919922,-1.2299853563308716,0,30,0,40000
808505,0.3520621955394745,-16.21367835998535,3.0,-3286.0,-94.97132873535156,-1.2158818244934082,0,30,0,40000
808515,0.34829291701316833,-17.544597625732422,-34.0,-2604.0,-87.37507629394531,-1.2037692070007324,0,30,0,40000
808525,0.33911532163619995,-18.979381561279297,-29.0,-1726.0,-79.11225891113281,-1.1589685678482056,0,30,0,40000
808535,0.31812068819999695,-19.533971786499023,-50.0,-856.0,-76.1048812866211,-1.0428277254104614,0,30,0,40000
808545,0.2680744230747223,-19.83783721923828,-71.0,-209.0,-74.58879089355469,-0.7513210773468018,0,30,0,40000
808555,0.23855222761631012,-19.789775848388672,-70.0,213.0,-75.18270111083984,-0.5817077159881592,0,30,0,40000
808565,0.1795719861984253,-19.549287796020508,-61.0,395.0,-76.93590545654297,-0.23385947942733765,0,30,0,40000
808575,0.1395261436700821,-19.367565155029297,-64.0,342.0,-78.34309387207031,0.0017598867416381836,0,30,0,40000
808585,0.0932452529668808,-19.205970764160156,-92.0,170.0,-79.63494873046875,0.2760889530181885,0,30,0,40000
808595,0.05717656388878822,-19.2304744720459,-97.0,-222.0,-79.81153869628906,0.4903174936771393,0,30,0,40000
808605,-0.014743118546903133,-19.578460693359375,-95.0,-710.0,-78.04156494140625,0.9214096069335938,0,30,0,40000
808615,-0.06657831370830536,-20.06281089782715,-76.0,-1305.0,-75.4397201538086,1.233807921409607,0,30,0,40000
808625,-0.14460355043411255,-21.19586753845215,-100.0,-1892.0,-68.92039489746094,1.7053930759429932,0,30,0,40000
808635,-0.18848633766174316,-22.174968719482422,-50.0,-2305.0,-63.2924690246582,1.9738496541976929,0,30,0,40000
808645,-0.24132376909255981,-23.83123207092285,-45.0,-2476.0,-53.560157775878906,2.29754376411438,0,30,0,40000
808655,-0.2674787640571594,-24.94692039489746,-46.0,-2382.0,-47.03096008300781,2.462186574935913,0,30,0,40000
808665,-0.31836998462677,-26.455766677856445,-70.0,-2028.0,-38.101470947265625,2.7763671875,0,30,0,40000
808675,-0.3648655116558075,-27.23862648010254,-73.0,-1457.0,-33.49623489379883,3.065727710723877,0,30,0,40000
808685,-0.4290564954280853,-27.944862365722656,-31.0,-727.0,-29.32728385925293,3.4630789756774902,0,30,0,40000
808695,-0.4581584632396698,-28.076431274414062,-32.0,-21.0,-28.596752166748047,3.6511497497558594,0,30,0,40000
808705,-0.481038361787796,-27.873577117919922,-34.0,466.0,-29.8741455078125,3.802605628967285,0,30,0,40000
808715,-0.4854501783847809,-27.563419342041016,-25.0,747.0,-31.804330825805664,3.843560218811035,0,30,0,40000
808725,-0.4814192056655884,-27.014379501342773,-20.0,804.0,-35.18147659301758,3.833804130554199,0,30,0,40000
808735,-0.47740402817726135,-26.674118041992188,-14.0,687.0,-37.31880187988281,3.824087142944336,0,30,0,40000
808745,-0.4668557941913605,-26.31894874572754,22.0,389.0,-39.556724548339844,3.774979591369629,0,30,0,40000
808755,-0.4568440318107605,-26.250043869018555,47.0,-11.0,-40.082069396972656,3.728764057159424,0,30,0,40000
808765,-0.42497530579566956,-26.472803115844727,55.0,-542.0,-38.85511779785156,3.550725221633911,0,30,0,40000
808775,-0.389873743057251,-26.864248275756836,77.0,-1071.0,-36.605506896972656,3.3522636890411377,0,30,0,40000
808785,-0.31830355525016785,-27.78812599182129,80.0,-1528.0,-31.140592575073242,2.93331241607666,0,30,0,40000
808795,-0.2672532796859741,-28.56023406982422,84.0,-1782.0,-26.560543060302734,2.635633945465088,0,30,0,40000
808805,-0.18875020742416382,-29.787887573242188,112.0,-1770.0,-19.21565055847168,2.171201705932617,0,30,0,40000
808815,-0.15025460720062256,-30.520732879638672,62.0,-1449.0,-14.811603546142578,1.9451682567596436,0,30,0,40000
808825,-0.08419515937566757,-31.332468032836914,78.0,-968.0,-9.909881591796875,1.5521425008773804,0,30,0,40000
808835,-0.02432195469737053,-31.604745864868164,110.0,-316.0,-8.23097038269043,1.194405198097229,0,30,0,40000
808845,0.06470391154289246,-31.595184326171875,71.0,217.0,-8.239215850830078,0.65935879945755,0,30,0,40000
808855,0.12053251266479492,-31.35897445678711,92.0,680.0,-9.612600326538086,0.32146215438842773,0,30,0,40000
808865,0.21727332472801208,-30.77215003967285,59.0,938.0,-13.102832794189453,-0.2644616365432739,0,30,0,40000
808875,0.2597166895866394,-30.321556091308594,95.0,956.0,-15.791328430175781,-0.5263990163803101,0,30,0,40000
808885,0.3194103240966797,-29.728822708129883,50.0,779.0,-19.349185943603516,-0.8934649229049683,0,30,0,40000
808895,0.34623977541923523,-29.45364761352539,84.0,458.0,-21.01352882385254,-1.0644500255584717,0,30,0,40000
