timestamp,stabilizer.roll,stabilizer.pitch,stateEstimateZ.rateRoll,stateEstimateZ.ratePitch,controller.pitchRate,controller.rollRate,roll,pitch,yawdot,thrust
1035347,-41.485198974609375,63.4703369140625,2.0,1.0,-382.72613525390625,250.15579223632812,0,0,0,40000
1035357,-41.514678955078125,63.468685150146484,-1.0,0.0,-384.620361328125,251.5777130126953,0,0,0,40000
1035367,-41.52582931518555,63.44544982910156,-3.0,-82.0,-386.3846740722656,252.89036560058594,0,0,0,40000
1035377,-41.51612091064453,63.381080627441406,24.0,-103.0,-387.9007568359375,254.07785034179688,0,0,0,40000
1035387,-41.46109390258789,63.301597595214844,38.0,-292.0,-389.3239440917969,254.99244689941406,0,0,0,40000
1035397,-41.11722946166992,63.02315139770508,7.0,-560.0,-389.54779052734375,254.167724609375,0,0,0,40000
1035407,-40.727142333984375,62.75480651855469,-5.0,-878.0,-389.82366943359375,253.05389404296875,0,0,0,40000
1035417,-39.69011688232422,62.09314727783203,45.0,-1461.0,-387.7254333496094,248.03646850585938,0,0,0,40000
1035427,-38.719398498535156,61.46000671386719,36.0,-2071.0,-385.7781982421875,243.3858184814453,0,0,0,40000
1035437,-36.77492141723633,60.13112258911133,26.0,-2792.0,-379.6261291503906,232.84686279296875,0,0,0,40000
1035447,-35.175636291503906,58.944488525390625,65.0,-3630.0,-374.289306640625,224.32595825195312,0,0,0,40000
1035457,-32.421714782714844,56.63041305541992,171.0,-4526.0,-362.1332702636719,208.8092803955078,0,0,0,40000
1035467,-30.43307113647461,54.70144271850586,189.0,-5477.0,-352.2240905761719,197.8143310546875,0,0,0,40000
1035477,-27.355140686035156,51.14008331298828,228.0,-6511.0,-332.43499755859375,180.20452880859375,0,0,0,40000
1035487,-25.312755584716797,48.33539581298828,370.0,-7371.0,-317.0910949707031,168.7340545654297,0,0,0,40000
1035497,-22.41316795349121,43.60496520996094,551.0,-8017.0,-290.0749206542969,152.0430908203125,0,0,0,40000
1035507,-20.62113380432129,40.18996047973633,746.0,-8425.0,-270.83184814453125,141.93084716796875,0,0,0,40000
1035517,-18.18085479736328,34.85078048706055,934.0,-8566.0,-239.90679931640625,127.86307525634766,0,0,0,40000
1035527,-16.692974090576172,31.252685546875,1149.0,-8491.0,-219.29898071289062,119.45427703857422,0,0,0,40000
1035537,-14.62501049041748,25.926860809326172,1453.0,-8182.0,-188.1852264404297,107.50971984863281,0,0,0,40000
1035547,-13.314820289611816,22.52883529663086,1790.0,-7651.0,-168.51348876953125,100.06375122070312,0,0,0,40000
1035557,-11.391858100891113,17.82080078125,2039.0,-6908.0,-140.8548126220703,88.89076232910156,0,0,0,40000
1035567,-10.115942001342773,15.03665828704834,2292.0,-5945.0,-124.63400268554688,81.55403137207031,0,0,0,40000
1035577,-8.18683910369873,11.553221702575684,2534.0,-4819.0,-104.11946868896484,70.24826049804688,0,0,0,40000
1035587,-6.8797221183776855,9.753933906555176,2731.0,-3526.0,-93.63726806640625,62.62767791748047,0,0,0,40000
1035597,-4.876768112182617,7.961615085601807,2854.0,-2126.0,-83.14070129394531,50.780426025390625,0,0,0,40000
1035607,-3.5245919227600098,7.438699722290039,2893.0,-586.0,-80.23182678222656,42.7892951965332,0,0,0,40000
1035617,-1.4840235710144043,7.646075248718262,2919.0,818.0,-81.70002746582031,30.61487579345703,0,0,0,40000
1035627,-0.12538287043571472,8.330933570861816,2898.0,1889.0,-86.05030822753906,22.483089447021484,0,0,0,40000
1035637,1.8854533433914185,9.964235305786133,2828.0,2682.0,-96.12781524658203,10.385542869567871,0,0,0,40000
1035647,3.1931965351104736,11.34781551361084,2725.0,3232.0,-104.75287628173828,2.458953857421875,0,0,0,40000
1035657,5.097652912139893,13.70416259765625,2522.0,3603.0,-119.27311706542969,-9.09817886352539,0,0,0,40000
1035667,6.315932273864746,15.379159927368164,2354.0,3793.0,-129.7643280029297,-16.582780838012695,0,0,0,40000
1035677,8.05733871459961,17.92627716064453,2131.0,3829.0,-145.5542755126953,-27.25240707397461,0,0,0,40000
1035687,9.14666748046875,19.588808059692383,1886.0,3748.0,-156.09722900390625,-34.0497932434082,0,0,0,40000
1035697,10.658547401428223,21.93941307067871,1609.0,3484.0,-170.83145141601562,-43.42323303222656,0,0,0,40000
1035707,11.561573028564453,23.339561462402344,1351.0,3074.0,-179.91595458984375,-49.17753601074219,0,0,0,40000
1035717,12.732407569885254,25.11540985107422,1099.0,2577.0,-191.30429077148438,-56.57105255126953,0,0,0,40000
1035727,13.395416259765625,26.043956756591797,866.0,2019.0,-197.64602661132812,-60.94319152832031,0,0,0,40000
1035737,14.151820182800293,27.036500930786133,600.0,1323.0,-204.40191650390625,-65.89785766601562,0,0,0,40000
1035747,14.494110107421875,27.391019821166992,392.0,663.0,-207.18247985839844,-68.29557800292969,0,0,0,40000
1035757,14.75143051147461,27.423538208007812,173.0,-217.0,-208.365966796875,-70.3666763305664,0,0,0,40000
1035767,14.742143630981445,27.078449249267578,-40.0,-987.0,-206.94989013671875,-70.66511535644531,0,0,0,40000
1035777,14.447670936584473,25.961397171020508,-309.0,-2078.0,-201.2043914794922,-69.42449951171875,0,0,0,40000
1035787,14.098220825195312,24.79888343811035,-474.0,-2957.0,-194.8389892578125,-67.6705093383789,0,0,0,40000
1035797,13.357839584350586,22.37682342529297,-685.0,-4091.0,-181.15797424316406,-63.72297286987305,0,0,0,40000
1035807,12.757102012634277,20.350671768188477,-844.0,-4814.0,-169.51422119140625,-60.43201446533203,0,0,0,40000
1035817,11.747089385986328,16.92609405517578,-1073.0,-5310.0,-149.63858032226562,-54.813331604003906,0,0,0,40000
1035827,11.022022247314453,14.545171737670898,-1268.0,-5406.0,-135.73077392578125,-50.73625946044922,0,0,0,40000
1035837,9.863998413085938,11.024368286132812,-1500.0,-5181.0,-115.06575775146484,-44.164390563964844,0,0,0,40000
1035847,9.068031311035156,8.837203025817871,-1595.0,-4753.0,-102.18084716796875,-39.61576843261719,0,0,0,40000
1035857,7.831748962402344,5.937149524688721,-1721.0,-4044.0,-85.04507446289062,-32.502288818359375,0,0,0,40000
1035867,7.002476215362549,4.347673416137695,-1729.0,-3284.0,-75.63114166259766,-27.704586029052734,0,0,0,40000
1035877,5.69444465637207,2.5655674934387207,-1918.0,-2246.0,-65.06084442138672,-20.08518409729004,0,0,0,40000
1035887,4.811504364013672,1.8223063945770264,-1960.0,-1323.0,-60.65338134765625,-14.913674354553223,0,0,0,40000
1035897,3.479822874069214,1.4635953903198242,-1937.0,-81.0,-58.55778503417969,-7.072847366333008,0,0,0,40000
1035907,2.618532657623291,1.6856955289840698,-1845.0,733.0,-59.927703857421875,-1.9782085418701172,0,0,0,40000
1035917,1.372738003730774,2.517167806625366,-1759.0,1435.0,-64.99091339111328,5.424954414367676,0,0,0,40000
1035927,0.5832534432411194,3.299487352371216,-1716.0,1834.0,-69.75439453125,10.138349533081055,0,0,0,40000
1035937,-0.5206025242805481,4.7026190757751465,-1573.0,2114.0,-78.31680297851562,16.760507583618164,0,0,0,40000
1035947,-1.201387882232666,5.694294452667236,-1423.0,2180.0,-84.3916015625,20.86599349975586,0,0,0,40000
1035957,-1.8333321809768677,6.683851718902588,-1267.0,2125.0,-90.51762390136719,24.70519256591797,0,0,0,40000
1035967,-2.6655614376068115,8.080901145935059,-1091.0,1943.0,-99.1259765625,29.76884651184082,0,0,0,40000
1035977,-3.147618532180786,8.91824722290039,-921.0,1704.0,-104.40766143798828,32.749916076660156,0,0,0,40000
1035987,-3.746090888977051,9.950410842895508,-741.0,1341.0,-110.88761901855469,36.44631576538086,0,0,0,40000
1035997,-4.052563190460205,10.452101707458496,-526.0,905.0,-114.20549774169922,38.403175354003906,0,0,0,40000
1036007,-4.3750691413879395,10.882566452026367,-341.0,378.0,-117.1107406616211,40.46598815917969,0,0,0,40000
1036017,-4.49149227142334,10.921012878417969,-139.0,-217.0,-117.66893768310547,41.29800033569336,0,0,0,40000
1036027,-4.516108512878418,10.548689842224121,51.0,-885.0,-115.75732421875,41.581321716308594,0,0,0,40000
1036037,-4.443540096282959,9.987215995788574,222.0,-1638.0,-112.69523620605469,41.28019714355469,0,0,0,40000
1036047,-4.200178623199463,8.592126846313477,398.0,-2425.0,-104.60094451904297,39.94938659667969,0,0,0,40000
1036057,-3.9571993350982666,7.3453593254089355,588.0,-3028.0,-97.35598754882812,38.613243103027344,0,0,0,40000
1036067,-3.4872756004333496,5.175994396209717,712.0,-3268.0,-84.52168273925781,35.90418243408203,0,0,0,40000
1036077,-3.105128765106201,3.6899781227111816,872.0,-3188.0,-75.73407745361328,33.709102630615234,0,0,0,40000
1036087,-2.4453747272491455,1.6163781881332397,981.0,-2845.0,-63.365142822265625,29.832069396972656,0,0,0,40000
1036097,-1.9668817520141602,0.44197097420692444,1064.0,-2275.0,-56.34574890136719,27.025901794433594,0,0,0,40000
1036107,-1.2038849592208862,-0.8576282262802124,1166.0,-1496.0,-48.536293029785156,22.493465423583984,0,0,0,40000
1036117,-0.6713587641716003,-1.316401720046997,1201.0,-517.0,-45.749141693115234,19.32485008239746,0,0,0,40000
1036127,0.14344164729118347,-1.3286405801773071,1196.0,464.0,-45.63386154174805,14.441493034362793,0,0,0,40000
1036137,0.7029620409011841,-0.9411999583244324,1189.0,1136.0,-47.925254821777344,11.069975852966309,0,0,0,40000
1036147,1.5316896438598633,-0.0101777333766222,1199.0,1544.0,-53.49898910522461,6.061641693115234,0,0,0,40000
1036157,2.0770204067230225,0.7619423866271973,1192.0,1784.0,-58.145164489746094,2.733896255493164,0,0,0,40000
1036167,2.8753223419189453,1.9723005294799805,1146.0,1724.0,-65.45203399658203,-2.132688522338867,0,0,0,40000
1036177,3.383845090866089,2.730619430541992,1088.0,1554.0,-70.07487487792969,-5.279296875,0,0,0,40000
1036187,4.117842197418213,3.6634714603424072,1023.0,1176.0,-75.77155303955078,-9.798197746276855,0,0,0,40000
1036197,4.583974361419678,4.11297607421875,926.0,735.0,-78.5868148803711,-12.726957321166992,0,0,0,40000
1036207,5.20925760269165,4.414865970611572,887.0,176.0,-80.5282211303711,-16.627513885498047,0,0,0,40000
1036217,5.582869052886963,4.326171398162842,774.0,-535.0,-80.12728881835938,-19.032211303710938,0,0,0,40000
1036227,6.066178798675537,3.71030592918396,655.0,-1276.0,-76.55232238769531,-22.108585357666016,0,0,0,40000
1036237,6.334405899047852,2.954608917236328,520.0,-2013.0,-72.11624145507812,-23.904869079589844,0,0,0,40000
1036247,6.641127109527588,1.3874320983886719,400.0,-2504.0,-62.77464294433594,-25.941020965576172,0,0,0,40000
1036257,6.803277969360352,0.205819770693779,271.0,-2633.0,-55.70539855957031,-27.11613655090332,0,0,0,40000
1036267,6.945001602172852,-1.5459293127059937,133.0,-2483.0,-45.169189453125,-28.173423767089844,0,0,0,40000
1036277,6.986380100250244,-2.5928003787994385,-5.0,-2083.0,-38.822532653808594,-28.630876541137695,0,0,0,40000
1036287,6.942655086517334,-3.811459541320801,-151.0,-1468.0,-31.409517288208008,-28.57765769958496,0,0,0,40000
1036297,6.862074851989746,-4.301934719085693,-252.0,-658.0,-28.343040466308594,-28.301050186157227,0,0,0,40000
1036307,6.640809535980225,-4.4319987297058105,-377.0,275.0,-27.429237365722656,-27.175655364990234,0,0,0,40000
1036317,6.433700084686279,-4.12099552154541,-496.0,995.0,-29.167497634887695,-26.12859535217285,0,0,0,40000
1036327,6.056231498718262,-3.267347574234009,-606.0,1456.0,-34.18013000488281,-24.050228118896484,0,0,0,40000
1036337,5.759693622589111,-2.545401096343994,-655.0,1686.0,-38.42665100097656,-22.447385787963867,0,0,0,40000
1036347,5.2846174240112305,-1.3760745525360107,-702.0,1729.0,-45.3872184753418,-19.76129913330078,0,0,0,40000
1036357,4.94606351852417,-0.6326437592506409,-755.0,1534.0,-49.82001876831055,-17.88243865966797,0,0,0,40000
1036367,4.4230146408081055,0.2920134663581848,-772.0,1192.0,-55.36638259887695,-14.88310432434082,0,0,0,40000
1036377,4.050196647644043,0.7215803265571594,-799.0,686.0,-57.960540771484375,-12.772173881530762,0,0,0,40000
1036387,3.4930214881896973,0.9949008226394653,-808.0,102.0,-59.62834930419922,-9.54068374633789,0,0,0,40000
1036397,3.1325502395629883,0.8917632102966309,-779.0,-568.0,-59.037864685058594,-7.4761552810668945,0,0,0,40000
1036407,2.609424591064453,0.24899467825889587,-751.0,-1317.0,-55.198116302490234,-4.421941757202148,0,0,0,40000
1036417,2.2788758277893066,-0.5135915279388428,-695.0,-1970.0,-50.61669921875,-2.510952949523926,0,0,0,40000
1036427,1.8198199272155762,-1.9841946363449097,-632.0,-2277.0,-41.75193405151367,0.1834268569946289,0,0,0,40000
1036437,1.5481213331222534,-3.0440070629119873,-564.0,-2288.0,-35.31443405151367,1.76397705078125,0,0,0,40000
1036447,1.1706286668777466,-4.520984172821045,-510.0,-1982.0,-26.33395767211914,3.9894399642944336,0,0,0,40000
1036457,0.9497814178466797,-5.316547870635986,-432.0,-1420.0,-21.41030502319336,5.28342342376709,0,0,0,40000
1036467,0.66193026304245,-6.059665203094482,-379.0,-733.0,-16.777263641357422,6.987265586853027,0,0,0,40000
1036477,0.4978967308998108,-6.206909656524658,-308.0,135.0,-15.708881378173828,7.954591274261475,0,0,0,40000
1036487,0.31659790873527527,-5.832528591156006,-197.0,929.0,-17.773963928222656,9.030954360961914,0,0,0,40000
1036497,0.23190946877002716,-5.270598888397217,-145.0,1471.0,-20.980403900146484,9.531146049499512,0,0,0,40000
1036507,0.15733599662780762,-4.16314172744751,-63.0,1743.0,-27.486370086669922,9.973154067993164,0,0,0,40000
1036517,0.14897960424423218,-3.344834327697754,2.0,1796.0,-32.2860107421875,10.0187349319458,0,0,0,40000
1036527,0.17547588050365448,-2.1479296684265137,78.0,1678.0,-39.388858795166016,9.854978561401367,0,0,0,40000
1036537,0.22829899191856384,-1.438676357269287,125.0,1385.0,-43.59288024902344,9.531871795654297,0,0,0,40000
1036547,0.3469674289226532,-0.6129400134086609,215.0,965.0,-48.51991653442383,8.81109619140625,0,0,0,40000
1036557,0.44967254996299744,-0.28648173809051514,257.0,429.0,-50.46644973754883,8.182621955871582,0,0,0,40000
1036567,0.6339076161384583,-0.22112776339054108,282.0,-233.0,-50.852622985839844,7.060425758361816,0,0,0,40000
1036577,0.7799347043037415,-0.4928877353668213,318.0,-979.0,-49.21096420288086,6.162639617919922,0,0,0,40000
1036587,1.029395341873169,-1.4154373407363892,364.0,-1674.0,-43.64586639404297,4.63815450668335,0,0,0,40000
1036597,1.213474154472351,-2.279344320297241,424.0,-2047.0,-38.40460968017578,3.499577522277832,0,0,0,40000
1036607,1.5036348104476929,-3.6961441040039062,449.0,-2084.0,-29.80998992919922,1.7170324325561523,0,0,0,40000
1036617,1.7113381624221802,-4.59127140045166,450.0,-1811.0,-24.312082290649414,0.42195796966552734,0,0,0,40000
1036627,2.0130956172943115,-5.666046142578125,412.0,-1307.0,-17.705291748046875,-1.4455375671386719,0,0,0,40000
1036637,2.204376220703125,-6.108511447906494,376.0,-594.0,-14.872146606445312,-2.6570682525634766,0,0,0,40000
1036647,2.466111421585083,-6.240413188934326,378.0,287.0,-13.893115997314453,-4.298246383666992,0,0,0,40000
1036657,2.624763011932373,-5.92896842956543,358.0,1018.0,-15.579753875732422,-5.32696533203125,0,0,0,40000
1036667,2.841439723968506,-5.046782493591309,298.0,1502.0,-20.709814071655273,-6.709843635559082,0,0,0,40000
1036677,2.9664621353149414,-4.303991794586182,256.0,1725.0,-25.028366088867188,-7.547508239746094,0,0,0,40000
1036687,3.1313624382019043,-3.10036301612854,217.0,1747.0,-32.142616271972656,-8.628946304321289,0,0,0,40000
1036697,3.226856231689453,-2.336331367492676,189.0,1590.0,-36.64762878417969,-9.297581672668457,0,0,0,40000
1036707,3.342802047729492,-1.3647513389587402,170.0,1234.0,-42.42534637451172,-10.092175483703613,0,0,0,40000
1036717,3.4070019721984863,-0.911553144454956,125.0,744.0,-45.11201858520508,-10.578845977783203,0,0,0,40000
1036727,3.4714221954345703,-0.5972534418106079,69.0,178.0,-46.977378845214844,-11.068853378295898,0,0,0,40000
1036737,3.494993209838867,-0.6770055890083313,39.0,-527.0,-46.479888916015625,-11.314892768859863,0,0,0,40000
1036747,3.5147976875305176,-1.293578028678894,13.0,-1262.0,-42.750640869140625,-11.538985252380371,0,0,0,40000
1036757,3.515911340713501,-2.0199451446533203,-7.0,-1855.0,-38.34086990356445,-11.65114688873291,0,0,0,40000
1036767,3.498537302017212,-3.3788464069366455,-26.0,-2083.0,-30.10289764404297,-11.652119636535645,0,0,0,40000
1036777,3.4640212059020996,-4.325525283813477,-105.0,-1981.0,-24.304386138916016,-11.549455642700195,0,0,0,40000
1036787,3.3792293071746826,-5.583333492279053,-170.0,-1655.0,-16.60439682006836,-11.143324851989746,0,0,0,40000
1036797,3.3096139430999756,-6.218075275421143,-198.0,-1059.0,-12.616657257080078,-10.825760841369629,0,0,0,40000
1036807,3.1669411659240723,-6.682893753051758,-205.0,-276.0,-9.631145477294922,-10.066399574279785,0,0,0,40000
1036817,3.0605945587158203,-6.606950283050537,-215.0,588.0,-9.887214660644531,-9.5214262008667,0,0,0,40000
1036827,2.8746795654296875,-5.958137035369873,-297.0,1222.0,-13.592029571533203,-8.494603157043457,0,0,0,40000
1036837,2.7510569095611572,-5.260864734649658,-294.0,1682.0,-17.609233856201172,-7.836902618408203,0,0,0,40000
1036847,2.5550878047943115,-4.008746147155762,-300.0,1902.0,-24.986223220825195,-6.740120887756348,0,0,0,40000
1036857,2.406391143798828,-3.1406402587890625,-301.0,1875.0,-30.090255737304688,-5.92189884185791,0,0,0,40000
1036867,2.174842596054077,-1.9421565532684326,-331.0,1657.0,-37.209022521972656,-4.600655555725098,0,0,0,40000
1036877,2.0293750762939453,-1.26933753490448,-328.0,1309.0,-41.20000076293945,-3.790501594543457,0,0,0,40000
1036887,1.8128130435943604,-0.5596550107002258,-314.0,833.0,-45.43391036987305,-2.5480947494506836,0,0,0,40000
1036897,1.6740115880966187,-0.3451696038246155,-293.0,229.0,-46.70821762084961,-1.767176628112793,0,0,0,40000
1036907,1.487534999847412,-0.4699656069278717,-267.0,-468.0,-45.948402404785156,-0.6951475143432617,0,0,0,40000
1036917,1.3886574506759644,-0.8933151960372925,-216.0,-1227.0,-43.38700485229492,-0.14468860626220703,0,0,0,40000
1036927,1.2577648162841797,-1.9816642999649048,-176.0,-1788.0,-36.8116455078125,0.6014842987060547,0,0,0,40000
1036937,1.1756212711334229,-2.878124952316284,-128.0,-2020.0,-31.357418060302734,1.0581631660461426,0,0,0,40000
1036947,1.078742504119873,-4.242239952087402,-127.0,-1945.0,-23.06160545349121,1.6058378219604492,0,0,0,40000
1036957,1.0156129598617554,-5.061079025268555,-138.0,-1625.0,-18.00638198852539,1.9533462524414062,0,0,0,40000
1036967,0.9482294321060181,-5.95107364654541,-106.0,-1064.0,-12.497291564941406,2.328372001647949,0,0,0,40000
1036977,0.9232470989227295,-6.233663558959961,-82.0,-310.0,-10.617733001708984,2.450308322906494,0,0,0,40000
1036987,0.8867362141609192,-6.068029880523682,-6.0,580.0,-11.425506591796875,2.642575263977051,0,0,0,40000
1036997,0.8777585625648499,-5.586307525634766,17.0,1300.0,-14.142105102539062,2.670027256011963,0,0,0,40000
1037007,0.8805294632911682,-4.527071952819824,-10.0,1693.0,-20.3481388092041,2.626901149749756,0,0,0,40000
1037017,0.8971053957939148,-3.7038657665252686,11.0,1827.0,-25.16634750366211,2.5006866455078125,0,0,0,40000
1037027,0.9282836318016052,-2.450449228286743,42.0,1804.0,-32.59837341308594,2.286182403564453,0,0,0,40000
1037037,0.95616215467453,-1.692259669303894,75.0,1555.0,-37.08778381347656,2.090587615966797,0,0,0,40000
1037047,1.0131088495254517,-0.7790447473526001,103.0,1154.0,-42.533714294433594,1.719259262084961,0,0,0,40000
1037057,1.0611270666122437,-0.38896164298057556,98.0,620.0,-44.858150482177734,1.3998842239379883,0,0,0,40000
1037067,1.150136947631836,-0.22301934659481049,136.0,-9.0,-45.846527099609375,0.8324594497680664,0,0,0,40000
1037077,1.2235543727874756,-0.41361284255981445,164.0,-687.0,-44.69321823120117,0.35614538192749023,0,0,0,40000
1037087,1.3394211530685425,-1.1959997415542603,186.0,-1412.0,-39.97392272949219,-0.37780094146728516,0,0,0,40000
1037097,1.4311771392822266,-1.9733132123947144,173.0,-1839.0,-35.260379791259766,-0.9702024459838867,0,0,0,40000
1037107,1.5718785524368286,-3.2797117233276367,200.0,-1924.0,-27.3393611907959,-1.8598642349243164,0,0,0,40000
1037117,1.674911379814148,-4.119801998138428,215.0,-1727.0,-22.18515396118164,-2.5270252227783203,0,0,0,40000
1037127,1.8043718338012695,-5.120003700256348,183.0,-1268.0,-16.04129981994629,-3.356390953063965,0,0,0,40000
1037137,1.8828036785125732,-5.5144853591918945,162.0,-589.0,-13.513328552246094,-3.882513999938965,0,0,0,40000
1037147,1.9845383167266846,-5.577103137969971,126.0,248.0,-12.96920394897461,-4.551356315612793,0,0,0,40000
1037157,2.044851303100586,-5.221426486968994,113.0,1070.0,-14.941909790039062,-4.973867416381836,0,0,0,40000
1037167,2.1150436401367188,-4.270869731903076,81.0,1577.0,-20.504615783691406,-5.457723617553711,0,0,0,40000
1037177,2.1589982509613037,-3.45975399017334,52.0,1842.0,-25.257658004760742,-5.7857513427734375,0,0,0,40000
1037187,2.1972227096557617,-2.186335563659668,34.0,1860.0,-32.81730651855469,-6.080639839172363,0,0,0,40000
1037197,2.219252824783325,-1.37885582447052,15.0,1648.0,-37.611270904541016,-6.279172897338867,0,0,0,40000
1037207,2.228549003601074,-0.36673304438591003,11.0,1330.0,-43.6616096496582,-6.4016828536987305,0,0,0,40000
1037217,2.2216365337371826,0.09541770070791245,-12.0,799.0,-46.4321174621582,-6.426958084106445,0,0,0,40000
1037227,2.201331615447998,0.3711182177066803,-35.0,140.0,-48.09558868408203,-6.371488571166992,0,0,0,40000
1037237,2.1856558322906494,0.2389955222606659,-42.0,-563.0,-47.31199264526367,-6.343173980712891,0,0,0,40000
1037247,2.143993377685547,-0.45402634143829346,-69.0,-1305.0,-43.150184631347656,-6.158055782318115,0,0,0,40000
1037257,2.1148929595947266,-1.2221072912216187,-79.0,-1864.0,-38.51453399658203,-6.047280311584473,0,0,0,40000
1037267,2.0555343627929688,-2.6024465560913086,-101.0,-2064.0,-30.171354293823242,-5.753600120544434,0,0,0,40000
1037277,2.0144433975219727,-3.525756597518921,-100.0,-1946.0,-24.536706924438477,-5.56795597076416,0,0,0,40000
1037287,1.9332777261734009,-4.711056232452393,-124.0,-1561.0,-17.296894073486328,-5.139986991882324,0,0,0,40000
1037297,1.8683876991271973,-5.265227317810059,-150.0,-966.0,-13.820211410522461,-4.807497978210449,0,0,0,40000
1037307,1.7698419094085693,-5.606302738189697,-165.0,-178.0,-11.607929229736328,-4.270531177520752,0,0,0,40000
1037317,1.7036679983139038,-5.449220657348633,-161.0,676.0,-12.384590148925781,-3.925373077392578,0,0,0,40000
1037327,1.5828856229782104,-4.712764739990234,-149.0,1335.0,-16.651695251464844,-3.2495222091674805,0,0,0,40000
1037337,1.48851478099823,-3.9995641708374023,-184.0,1690.0,-20.802167892456055,-2.7290782928466797,0,0,0,40000
1037347,1.3755970001220703,-2.762299060821533,-153.0,1851.0,-28.127704620361328,-2.094184398651123,0,0,0,40000
1037357,1.3062673807144165,-1.914462924003601,-181.0,1809.0,-33.147159576416016,-1.7182750701904297,0,0,0,40000
1037367,1.2040985822677612,-0.7530618906021118,-139.0,1590.0,-40.07954788208008,-1.142502784729004,0,0,0,40000
1037377,1.144757866859436,-0.12300210446119308,-117.0,1208.0,-43.848876953125,-0.8214817047119141,0,0,0,40000
1037387,1.0581817626953125,0.500535786151886,-108.0,692.0,-47.598812103271484,-0.33474254608154297,0,0,0,40000
1037397,1.0083074569702148,0.6539266109466553,-98.0,110.0,-48.5372428894043,-0.06632375717163086,0,0,0,40000
1037407,0.9411638379096985,0.47598573565483093,-74.0,-524.0,-47.487422943115234,0.3075857162475586,0,0,0,40000
1037417,0.9033867716789246,0.02698625437915325,-44.0,-1291.0,-44.80004119873047,0.5067415237426758,0,0,0,40000
1037427,0.8808764219284058,-1.0871566534042358,-27.0,-1825.0,-38.09703063964844,0.6151294708251953,0,0,0,40000
1037437,0.8779162168502808,-1.9973260164260864,-36.0,-2067.0,-32.58713150024414,0.6064639091491699,0,0,0,40000
1037447,0.8731726408004761,-3.38373064994812,-13.0,-1981.0,-24.18359375,0.6087112426757812,0,0,0,40000
1037457,0.8677110075950623,-4.190154552459717,18.0,-1609.0,-19.22879409790039,0.6154561042785645,0,0,0,40000
1037467,0.8757970929145813,-5.0771379470825195,41.0,-1069.0,-13.763975143432617,0.5408172607421875,0,0,0,40000
1037477,0.8714480400085449,-5.373370170593262,-19.0,-322.0,-11.828529357910156,0.5406622886657715,0,0,0,40000
1037487,0.852493941783905,-5.233667373657227,-53.0,546.0,-12.506099700927734,0.6284322738647461,0,0,0,40000
1037497,0.8476616740226746,-4.797567367553711,-35.0,1200.0,-14.973197937011719,0.631955623626709,0,0,0,40000
1037507,0.8294490575790405,-3.803910970687866,-2.0,1571.0,-20.808340072631836,0.7162628173828125,0,0,0,40000
1037517,0.8244760036468506,-3.0426523685455322,-2.0,1706.0,-25.27541160583496,0.7213077545166016,0,0,0,40000
1037527,0.8275407552719116,-1.884624719619751,5.0,1655.0,-32.15327453613281,0.6781129837036133,0,0,0,40000
1037537,0.8311787247657776,-1.1810778379440308,2.0,1462.0,-36.330806732177734,0.6313719749450684,0,0,0,40000
1037547,0.8380383849143982,-0.32013946771621704,24.0,1106.0,-41.477294921875,0.5651922225952148,0,0,0,40000
1037557,0.8529916405677795,0.057338617742061615,25.0,635.0,-43.73963165283203,0.4500751495361328,0,0,0,40000
1037567,0.8680671453475952,0.24509142339229584,35.0,24.0,-44.872562408447266,0.33380842208862305,0,0,0,40000
1037577,0.8812991976737976,0.06210552155971527,45.0,-677.0,-43.77909851074219,0.2281494140625,0,0,0,40000
1037587,0.9126684665679932,-0.6927794814109802,35.0,-1385.0,-39.23960876464844,0.012869834899902344,0,0,0,40000
1037597,0.9399106502532959,-1.465646505355835,31.0,-1802.0,-34.567909240722656,-0.17844295501708984,0,0,0,40000
1037607,0.9666777849197388,-2.764139175415039,68.0,-1924.0,-26.70983123779297,-0.36756038665771484,0,0,0,40000
1037617,0.9791940450668335,-3.5870964527130127,64.0,-1700.0,-21.67422103881836,-0.47183990478515625,0,0,0,40000
1037627,1.0036029815673828,-4.587576389312744,46.0,-1262.0,-15.54470443725586,-0.6481809616088867,0,0,0,40000
1037637,1.0160936117172241,-5.005741596221924,2.0,-635.0,-12.890209197998047,-0.7535333633422852,0,0,0,40000
1037647,1.0262805223464966,-5.131981372833252,1.0,125.0,-11.978557586669922,-0.8453083038330078,0,0,0,40000
1037657,1.0314011573791504,-4.851603031158447,14.0,869.0,-13.511531829833984,-0.9068789482116699,0,0,0,40000
1037667,1.0486952066421509,-4.027528285980225,48.0,1376.0,-18.324256896972656,-1.0418133735656738,0,0,0,40000
1037677,1.0594532489776611,-3.3294119834899902,51.0,1600.0,-22.404582977294922,-1.1379923820495605,0,0,0,40000
1037687,1.0817229747772217,-2.216869354248047,11.0,1616.0,-28.999942779541016,-1.3039417266845703,0,0,0,40000
1037697,1.1063945293426514,-1.5117442607879639,31.0,1423.0,-33.17701721191406,-1.4848690032958984,0,0,0,40000
1037707,1.135910987854004,-0.6541096568107605,41.0,1120.0,-38.29359436035156,-1.6956381797790527,0,0,0,40000
1037717,1.156724214553833,-0.26587337255477905,57.0,705.0,-40.61223220825195,-1.8480019569396973,0,0,0,40000
1037727,1.1890674829483032,-0.059124890714883804,52.0,177.0,-41.8487663269043,-2.077340602874756,0,0,0,40000
1037737,1.2282745838165283,-0.15015140175819397,50.0,-453.0,-41.30057144165039,-2.348949909210205,0,0,0,40000
1037747,1.2592403888702393,-0.5226399302482605,85.0,-1161.0,-39.0548095703125,-2.5720977783203125,0,0,0,40000
1037757,1.3154668807983398,-1.5162242650985718,93.0,-1678.0,-33.060890197753906,-2.9482321739196777,0,0,0,40000
1037767,1.3613423109054565,-2.334304094314575,77.0,-1827.0,-28.09225845336914,-3.263800621032715,0,0,0,40000
1037777,1.4232863187789917,-3.5620391368865967,66.0,-1721.0,-20.63347625732422,-3.6774215698242188,0,0,0,40000
1037787,1.4519072771072388,-4.270333766937256,45.0,-1335.0,-16.263877868652344,-3.892343044281006,0,0,0,40000
1037797,1.477057933807373,-4.974944591522217,32.0,-689.0,-11.894027709960938,-4.087286949157715,0,0,0,40000
1037807,1.4783614873886108,-5.1097941398620605,25.0,110.0,-10.932804107666016,-4.139446258544922,0,0,0,40000
1037817,1.4736472368240356,-4.7349958419799805,-18.0,913.0,-13.033281326293945,-4.155580043792725,0,0,0,40000
1037827,1.4623852968215942,-4.198938846588135,-41.0,1384.0,-16.11695098876953,-4.132033824920654,0,0,0,40000
1037837,1.429155707359314,-3.1466379165649414,-64.0,1665.0,-22.32314109802246,-3.9759750366210938,0,0,0,40000
1037847,1.4039913415908813,-2.3741536140441895,-45.0,1721.0,-26.877521514892578,-3.867375373840332,0,0,0,40000
1037857,1.3564975261688232,-1.233351230621338,-72.0,1598.0,-33.671905517578125,-3.6236929893493652,0,0,0,40000
1037867,1.3216533660888672,-0.5688358545303345,-82.0,1260.0,-37.6341438293457,-3.4547033309936523,0,0,0,40000
1037877,1.2663936614990234,0.1568373292684555,-81.0,841.0,-41.98509216308594,-3.161834716796875,0,0,0,40000
1037887,1.2259169816970825,0.4163745939731598,-69.0,274.0,-43.5520133972168,-2.956228256225586,0,0,0,40000
1037897,1.172778606414795,0.3789474666118622,-78.0,-406.0,-43.34073257446289,-2.6732935905456543,0,0,0,40000
1037907,1.1401621103286743,0.0284049604088068,-100.0,-1124.0,-41.242942810058594,-2.512223243713379,0,0,0,40000
1037917,1.094084620475769,-0.9719755053520203,-72.0,-1737.0,-35.22486877441406,-2.2690515518188477,0,0,0,40000
1037927,1.0631554126739502,-1.8301482200622559,-52.0,-1954.0,-30.031341552734375,-2.1156797409057617,0,0,0,40000
1037937,1.0148155689239502,-3.1641159057617188,-42.0,-1880.0,-21.948440551757812,-1.8566889762878418,0,0,0,40000
1037947,0.9814285039901733,-3.965047597885132,-80.0,-1550.0,-17.033353805541992,-1.6862835884094238,0,0,0,40000
1037957,0.921433687210083,-4.835200786590576,-104.0,-971.0,-11.676525115966797,-1.3547544479370117,0,0,0,40000
1037967,0.8892222046852112,-5.114711284637451,-111.0,-212.0,-9.84896469116211,-1.188551425933838,0,0,0,40000
1037977,0.8214077949523926,-4.96705436706543,-114.0,626.0,-10.582218170166016,-0.807030200958252,0,0,0,40000
1037987,0.7662770748138428,-4.516948223114014,-88.0,1282.0,-13.14156723022461,-0.4998769760131836,0,0,0,40000
1037997,0.682523787021637,-3.499814987182617,-130.0,1657.0,-19.126354217529297,-0.018970012664794922,0,0,0,40000
1038007,0.623724639415741,-2.674104928970337,-121.0,1843.0,-23.990442276000977,0.31434059143066406,0,0,0,40000
1038017,0.5410505533218384,-1.41156005859375,-127.0,1832.0,-31.508277893066406,0.7930538654327393,0,0,0,40000
1038027,0.48856037855148315,-0.6370855569839478,-143.0,1523.0,-36.126895904541016,1.092663288116455,0,0,0,40000
1038037,0.40243929624557495,0.28369930386543274,-110.0,1142.0,-41.64990997314453,1.5964107513427734,0,0,0,40000
1038047,0.3408781588077545,0.6806544661521912,-97.0,609.0,-44.04758834838867,1.9548006057739258,0,0,0,40000
1038057,0.26222172379493713,0.893631100654602,-103.0,2.0,-45.35101318359375,2.4178831577301025,0,0,0,40000
1038067,0.217763751745224,0.7308991551399231,-99.0,-734.0,-44.39891815185547,2.6775617599487305,0,0,0,40000
1038077,0.1586235910654068,-0.020122632384300232,-58.0,-1447.0,-39.90274429321289,3.027092933654785,0,0,0,40000
1038087,0.11510142683982849,-0.7959822416305542,-50.0,-1893.0,-35.23326873779297,3.284266948699951,0,0,0,40000
1038097,0.0816667303442955,-2.1318459510803223,-51.0,-1977.0,-27.170345306396484,3.481975555419922,0,0,0,40000
1038107,0.06528864055871964,-3.015287399291992,-73.0,-1819.0,-21.789752960205078,3.5780587196350098,0,0,0,40000
1038117,0.03389844298362732,-4.124735355377197,-55.0,-1390.0,-15.021659851074219,3.7650885581970215,0,0,0,40000
1038127,0.005875762086361647,-4.634419918060303,-18.0,-777.0,-11.83028793334961,3.9327588081359863,0,0,0,40000
1038137,-0.024093152955174446,-4.885129928588867,-12.0,50.0,-10.180610656738281,4.112946033477783,0,0,0,40000
1038147,-0.052311502397060394,-4.668961524963379,-40.0,848.0,-11.334531784057617,4.283454418182373,0,0,0,40000
1038157,-0.07340345531702042,-3.867586374282837,-32.0,1448.0,-16.015714645385742,4.411930561065674,0,0,0,40000
1038167,-0.07970459759235382,-3.1307668685913086,-23.0,1738.0,-20.333723068237305,4.452076435089111,0,0,0,40000
1038177,-0.09601711481809616,-1.8947947025299072,-1.0,1824.0,-27.677640914916992,4.552699089050293,0,0,0,40000
1038187,-0.0994400754570961,-1.0907716751098633,20.0,1684.0,-32.45947265625,4.576193809509277,0,0,0,40000
1038197,-0.09113277494907379,-0.04745758697390556,15.0,1344.0,-38.7061767578125,4.529147624969482,0,0,0,40000
1038207,-0.0784611701965332,0.4628390669822693,33.0,884.0,-41.77595138549805,4.455633640289307,0,0,0,40000
1038217,-0.05394096300005913,0.8934782147407532,35.0,339.0,-44.38257598876953,4.310434818267822,0,0,0,40000
1038227,-0.03173993527889252,0.9028618931770325,47.0,-318.0,-44.46620559692383,4.178464412689209,0,0,0,40000
1038237,0.015432188287377357,0.4245520234107971,85.0,-1070.0,-41.61648178100586,3.8956069946289062,0,0,0,40000
1038247,0.046509478241205215,-0.2223317176103592,86.0,-1680.0,-37.7365837097168,3.7080957889556885,0,0,0,40000
1038257,0.1010633185505867,-1.4920240640640259,65.0,-1959.0,-30.089508056640625,3.37825870513916,0,0,0,40000
1038267,0.14180782437324524,-2.4004151821136475,77.0,-1953.0,-24.578054428100586,3.1300599575042725,0,0,0,40000
1038277,0.20826900005340576,-3.643878698348999,80.0,-1661.0,-17.022226333618164,2.7259180545806885,0,0,0,40000
1038287,0.23610100150108337,-4.30094051361084,112.0,-1152.0,-12.958402633666992,2.5522360801696777,0,0,0,40000
1038297,0.2921355068683624,-4.8666605949401855,94.0,-453.0,-9.42330551147461,2.207857608795166,0,0,0,40000
1038307,0.3279035687446594,-4.88571834564209,53.0,382.0,-9.16218376159668,1.9837619066238403,0,0,0,40000
1038317,0.37424349784851074,-4.360146999359131,57.0,1112.0,-12.17690658569336,1.6950509548187256,0,0,0,40000
1038327,0.40000277757644653,-3.746335983276367,24.0,1526.0,-15.739803314208984,1.5287680625915527,0,0,0,40000
1038337,0.42140233516693115,-2.612849712371826,55.0,1769.0,-22.448192596435547,1.388070821762085,0,0,0,40000
1038347,0.4401928186416626,-1.7990517616271973,32.0,1798.0,-27.267227172851562,1.262324571609497,0,0,0,40000
1038357,0.472572922706604,-0.5846332907676697,32.0,1688.0,-34.52186584472656,1.054276704788208,0,0,0,40000
1038367,0.4881630837917328,0.12455178797245026,8.0,1375.0,-38.77238082885742,0.946235179901123,0,0,0,40000
1038377,0.5084231495857239,0.9256454110145569,30.0,938.0,-43.5980110168457,0.8097023963928223,0,0,0,40000
1038387,0.5190075635910034,1.2235419750213623,36.0,362.0,-45.418846130371094,0.7307612895965576,0,0,0,40000
1038397,0.5442878007888794,1.2574706077575684,34.0,-283.0,-45.661094665527344,0.5630524158477783,0,0,0,40000
1038407,0.5624430775642395,0.9663256406784058,40.0,-997.0,-43.9471321105957,0.4374680519104004,0,0,0,40000
1038417,0.5848652720451355,0.034090086817741394,18.0,-1643.0,-38.36731719970703,0.28559017181396484,0,0,0,40000
1038427,0.5995801091194153,-0.8138160109519958,15.0,-1968.0,-33.265830993652344,0.17947816848754883,0,0,0,40000
1038437,0.6113786101341248,-2.1663851737976074,16.0,-1959.0,-25.10161590576172,0.09044170379638672,0,0,0,40000
1038447,0.6189790964126587,-3.0088095664978027,5.0,-1703.0,-19.96678924560547,0.02634596824645996,0,0,0,40000
1038457,0.6106542348861694,-4.0107645988464355,-10.0,-1197.0,-13.84564208984375,0.0578455924987793,0,0,0,40000
1038467,0.5865456461906433,-4.416867256164551,-65.0,-526.0,-11.281030654907227,0.18458271026611328,0,0,0,40000
1038477,0.5379458069801331,-4.4913434982299805,-87.0,317.0,-10.698465347290039,0.45943403244018555,0,0,0,40000
1038487,0.4934290051460266,-4.163997173309326,-95.0,1064.0,-12.533275604248047,0.7111988067626953,0,0,0,40000
1038497,0.4172981381416321,-3.2653682231903076,-124.0,1531.0,-17.81525421142578,1.154451608657837,0,0,0,40000
1038507,0.36016589403152466,-2.493283271789551,-127.0,1790.0,-22.363569259643555,1.4857878684997559,0,0,0,40000
1038517,0.26681625843048096,-1.255824327468872,-123.0,1777.0,-29.73587417602539,2.0367581844329834,0,0,0,40000
1038527,0.20437845587730408,-0.4737089276313782,-113.0,1622.0,-34.40503692626953,2.404519557952881,0,0,0,40000
1038537,0.1264633685350418,0.5432685017585754,-107.0,1329.0,-40.51166534423828,2.8673012256622314,0,0,0,40000
1038547,0.08207350224256516,1.0570392608642578,-89.0,880.0,-43.62009048461914,3.1306464672088623,0,0,0,40000
1038557,0.018340634182095528,1.47457754611969,-86.0,311.0,-46.165836334228516,3.5117175579071045,0,0,0,40000
1038567,-0.015713777393102646,1.47821044921875,-82.0,-322.0,-46.232276916503906,3.7160654067993164,0,0,0,40000
1038577,-0.05944686383008957,0.9971466660499573,-71.0,-1070.0,-43.383243560791016,3.9797468185424805,0,0,0,40000
1038587,-0.0753863975405693,0.36031657457351685,-12.0,-1683.0,-39.581050872802734,4.077493667602539,0,0,0,40000
1038597,-0.08928004652261734,-0.9044906497001648,-5.0,-1964.0,-31.980876922607422,4.163370609283447,0,0,0,40000
1038607,-0.08123000711202621,-1.807128667831421,-5.0,-1961.0,-26.521650314331055,4.117603778839111,0,0,0,40000
1038617,-0.08067347854375839,-3.073089599609375,0.0,-1690.0,-18.84830093383789,4.116751194000244,0,0,0,40000
1038627,-0.08028477430343628,-3.728219747543335,17.0,-1196.0,-14.813222885131836,4.116870880126953,0,0,0,40000
1038637,-0.07776032388210297,-4.261938571929932,5.0,-501.0,-11.487953186035156,4.104058742523193,0,0,0,40000
1038647,-0.0734141618013382,-4.247697353363037,30.0,380.0,-11.445297241210938,4.080257415771484,0,0,0,40000
1038657,-0.05547747388482094,-3.6618692874908447,17.0,1118.0,-14.841894149780273,3.9745185375213623,0,0,0,40000
1038667,-0.038062721490859985,-3.0085818767547607,37.0,1589.0,-18.66326141357422,3.8713979721069336,0,0,0,40000
1038677,-0.014860276132822037,-1.824196219444275,41.0,1800.0,-25.700258255004883,3.732912540435791,0,0,0,40000
1038687,0.0059671299532055855,-1.0003135204315186,71.0,1792.0,-30.603660583496094,3.608051300048828,0,0,0,40000
1038697,0.06074614077806473,0.135885551571846,61.0,1551.0,-37.411865234375,3.278184652328491,0,0,0,40000
1038707,0.09420429170131683,0.7595648169517517,67.0,1208.0,-41.16943359375,3.074990749359131,0,0,0,40000
1038717,0.1423192322254181,1.3979113101959229,63.0,738.0,-45.034881591796875,2.78257155418396,0,0,0,40000
1038727,0.18105167150497437,1.5945100784301758,95.0,188.0,-46.260231018066406,2.545241355895996,0,0,0,40000
1038737,0.24486157298088074,1.4538767337799072,120.0,-493.0,-45.463279724121094,2.1559064388275146,0,0,0,40000
1038747,0.2884961664676666,1.0248980522155762,94.0,-1239.0,-42.92570877075195,1.8859343528747559,0,0,0,40000
1038757,0.3659787178039551,-0.05461392179131508,81.0,-1778.0,-36.46110534667969,1.4109139442443848,0,0,0,40000
1038767,0.42571213841438293,-0.9321795105934143,129.0,-1972.0,-31.178361892700195,1.0405161380767822,0,0,0,40000
1038777,0.4985838234424591,-2.2629032135009766,116.0,-1900.0,-23.141910552978516,0.5892016887664795,0,0,0,40000
1038787,0.5243786573410034,-3.033914089202881,71.0,-1517.0,-18.433876037597656,0.41898417472839355,0,0,0,40000
1038797,0.5740391612052917,-3.840762138366699,48.0,-932.0,-13.485921859741211,0.10426974296569824,0,0,0,40000
1038807,0.5996562838554382,-4.056818962097168,30.0,-143.0,-12.070013046264648,-0.06713676452636719,0,0,0,40000
1038817,0.62342369556427,-3.798722743988037,45.0,701.0,-13.499702453613281,-0.22808289527893066,0,0,0,40000
1038827,0.6386444568634033,-3.2923636436462402,56.0,1317.0,-16.432693481445312,-0.33836793899536133,0,0,0,40000
1038837,0.6674677133560181,-2.2215158939361572,33.0,1681.0,-22.777559280395508,-0.5310163497924805,0,0,0,40000
1038847,0.6727313995361328,-1.4074409008026123,-13.0,1800.0,-27.609981536865234,-0.5827794075012207,0,0,0,40000
1038857,0.6648372411727905,-0.22058342397212982,-38.0,1674.0,-34.71052551269531,-0.5555975437164307,0,0,0,40000
1038867,0.6638482809066772,0.47579532861709595,-18.0,1380.0,-38.89491653442383,-0.5695841312408447,0,0,0,40000
1038877,0.652506947517395,1.2610788345336914,2.0,971.0,-43.635955810546875,-0.5211746692657471,0,0,0,40000
1038887,0.6528034806251526,1.5723789930343628,-6.0,480.0,-45.54743957519531,-0.5425424575805664,0,0,0,40000
1038897,0.6540887355804443,1.6248488426208496,1.0,-208.0,-45.91192626953125,-0.5698466300964355,0,0,0,40000
1038907,0.6559422612190247,1.3265756368637085,-1.0,-954.0,-44.16606521606445,-0.600644588470459,0,0,0,40000
1038917,0.6561762690544128,0.3943049907684326,-21.0,-1600.0,-38.596858978271484,-0.6218228340148926,0,0,0,40000
1038927,0.663088858127594,-0.45103758573532104,4.0,-1936.0,-33.52157211303711,-0.6830930709838867,0,0,0,40000
1038937,0.6498449444770813,-1.7992736101150513,0.0,-1949.0,-25.394336700439453,-0.6232292652130127,0,0,0,40000
1038947,0.641177237033844,-2.619497776031494,-16.0,-1634.0,-20.40406036376953,-0.5905508995056152,0,0,0,40000
1038957,0.60822993516922,-3.5336079597473145,-70.0,-1117.0,-14.823257446289062,-0.41163206100463867,0,0,0,40000
1038967,0.5830065011978149,-3.8486135005950928,-66.0,-386.0,-12.821104049682617,-0.27808451652526855,0,0,0,40000
1038977,0.5370568037033081,-3.7493326663970947,-81.0,497.0,-13.301218032836914,-0.019069910049438477,0,0,0,40000
1038987,0.49922704696655273,-3.3303475379943848,-83.0,1153.0,-15.7098388671875,0.1925048828125,0,0,0,40000
1038997,0.42517057061195374,-2.359349489212036,-91.0,1570.0,-21.452560424804688,0.6232428550720215,0,0,0,40000
1039007,0.375506192445755,-1.594202995300293,-99.0,1720.0,-25.9863338470459,0.9093539714813232,0,0,0,40000
1039017,0.3070804476737976,-0.4050470292568207,-96.0,1722.0,-33.09486389160156,1.3099015951156616,0,0,0,40000
1039027,0.2717420756816864,0.35136252641677856,-95.0,1544.0,-37.634918212890625,1.5133635997772217,0,0,0,40000
1039037,0.21072708070278168,1.2680904865264893,-84.0,1192.0,-43.16310119628906,1.8724638223648071,0,0,0,40000
1039047,0.17139403522014618,1.6876524686813354,-69.0,721.0,-45.72634506225586,2.1028804779052734,0,0,0,40000
1039057,0.1121281310915947,1.9428826570510864,-81.0,126.0,-47.31427764892578,2.4543778896331787,0,0,0,40000
1039067,0.07820681482553482,1.808933973312378,-71.0,-533.0,-46.56684875488281,2.6551473140716553,0,0,0,40000
1039077,0.03579660877585411,1.1388860940933228,-48.0,-1255.0,-42.59032440185547,2.908057689666748,0,0,0,40000
1039087,0.016985248774290085,0.39591142535209656,-40.0,-1798.0,-38.1535530090332,3.020169258117676,0,0,0,40000
1039097,0.008638511411845684,-0.9445322155952454,-27.0,-2030.0,-30.09905242919922,3.0698511600494385,0,0,0,40000
1039107,0.017499813809990883,-1.866555094718933,3.0,-1956.0,-24.52193832397461,3.016263723373413,0,0,0,40000
1039117,0.035902660340070724,-3.0763349533081055,44.0,-1615.0,-17.18474006652832,2.9050850868225098,0,0,0,40000
1039127,0.04732760414481163,-3.6663668155670166,26.0,-1035.0,-13.541311264038086,2.835239887237549,0,0,0,40000
1039137,0.056197166442871094,-4.064948558807373,1.0,-258.0,-11.030967712402344,2.7803564071655273,0,0,0,40000
1039147,0.08073369413614273,-3.9376628398895264,22.0,598.0,-11.674571990966797,2.6310176849365234,0,0,0,40000
1039157,0.1140718013048172,-3.2499308586120605,50.0,1239.0,-15.69387435913086,2.4280436038970947,0,0,0,40000
1039167,0.13748368620872498,-2.5615580081939697,57.0,1637.0,-19.738805770874023,2.283738613128662,0,0,0,40000
1039177,0.1927729994058609,-1.3691165447235107,90.0,1806.0,-26.837726593017578,1.946999192237854,0,0,0,40000
1039187,0.23759528994560242,-0.5382260084152222,86.0,1803.0,-31.79695701599121,1.6715052127838135,0,0,0,40000
1039197,0.29207438230514526,0.6105471849441528,75.0,1575.0,-38.69466781616211,1.336509108543396,0,0,0,40000
1039207,0.33714497089385986,1.235277533531189,82.0,1208.0,-42.47283172607422,1.056499719619751,0,0,0,40000
1039217,0.39967259764671326,1.8715176582336426,111.0,749.0,-46.339813232421875,0.6701726913452148,0,0,0,40000
1039227,0.4444734454154968,2.055253267288208,133.0,161.0,-47.50199890136719,0.38860654830932617,0,0,0,40000
1039237,0.5281326770782471,1.8804097175598145,111.0,-544.0,-46.51301574707031,-0.1282331943511963,0,0,0,40000
1039247,0.5928172469139099,1.4273606538772583,126.0,-1282.0,-43.84339141845703,-0.5333361625671387,0,0,0,40000
1039257,0.6869322657585144,0.30950772762298584,142.0,-1824.0,-37.16012191772461,-1.1174099445343018,0,0,0,40000
1039267,0.7343588471412659,-0.5842766165733337,138.0,-2026.0,-31.79072380065918,-1.423391580581665,0,0,0,40000
1039277,0.8122493624687195,-1.919167399406433,125.0,-1868.0,-23.739421844482422,-1.9141957759857178,0,0,0,40000
1039287,0.858332097530365,-2.666917324066162,77.0,-1474.0,-19.181652069091797,-2.215930461883545,0,0,0,40000
1039297,0.911123514175415,-3.444169044494629,72.0,-876.0,-14.422780990600586,-2.5593700408935547,0,0,0,40000
1039307,0.9351694583892822,-3.6407299041748047,57.0,-90.0,-13.136112213134766,-2.7313780784606934,0,0,0,40000
1039317,0.9593177437782288,-3.37134051322937,40.0,718.0,-14.646286010742188,-2.904763698577881,0,0,0,40000
1039327,0.939321756362915,-2.8573310375213623,-87.0,1341.0,-17.638126373291016,-2.813347578048706,0,0,0,40000
1039337,0.925961971282959,-1.7809269428253174,-5.0,1684.0,-24.029544830322266,-2.761063575744629,0,0,0,40000
1039347,0.9234738945960999,-0.9683548212051392,-19.0,1803.0,-28.866132736206055,-2.7738895416259766,0,0,0,40000
1039357,0.9119088053703308,0.2580502927303314,-10.0,1762.0,-36.217735290527344,-2.73189115524292,0,0,0,40000
1039367,0.8961518406867981,1.0177193880081177,-13.0,1532.0,-40.79731750488281,-2.6644105911254883,0,0,0,40000
1039377,0.8752598762512207,1.9101531505584717,-31.0,1131.0,-46.19948959350586,-2.5656049251556396,0,0,0,40000
1039387,0.8596174716949463,2.2890031337738037,-40.0,615.0,-48.53699493408203,-2.4977540969848633,0,0,0,40000
1039397,0.8357425332069397,2.447550058364868,-67.0,-32.0,-49.56126403808594,-2.379948616027832,0,0,0,40000
1039407,0.8241941332817078,2.2463831901550293,-48.0,-733.0,-48.42445755004883,-2.3355045318603516,0,0,0,40000
1039417,0.794606626033783,1.4335901737213135,-15.0,-1473.0,-43.60205841064453,-2.1820576190948486,0,0,0,40000
1039427,0.778412401676178,0.6079646944999695,-32.0,-1994.0,-38.67672348022461,-2.1084866523742676,0,0,0,40000
1039437,0.7571556568145752,-0.826896071434021,-64.0,-2136.0,-30.06023406982422,-2.0040385723114014,0,0,0,40000
1039447,0.7384713888168335,-1.7768666744232178,-47.0,-1988.0,-24.31840705871582,-1.9142727851867676,0,0,0,40000
1039457,0.6969286799430847,-3.001206398010254,-43.0,-1615.0,-16.896142959594727,-1.686331033706665,0,0,0,40000
1039467,0.6621526479721069,-3.5786478519439697,-46.0,-1072.0,-13.352167129516602,-1.4939405918121338,0,0,0,40000
1039477,0.6250074505805969,-3.895005702972412,-110.0,-271.0,-11.340530395507812,-1.2903385162353516,0,0,0,40000
1039487,0.5600634813308716,-3.7811648845672607,-106.0,611.0,-11.906806945800781,-0.918250560760498,0,0,0,40000
1039497,0.5221245884895325,-3.3242104053497314,-111.0,1293.0,-14.54293441772461,-0.706690788269043,0,0,0,40000
1039507,0.4478727877140045,-2.2738921642303467,-84.0,1713.0,-20.76312255859375,-0.2753922939300537,0,0,0,40000
1039517,0.3986215889453888,-1.4287761449813843,-90.0,1954.0,-25.780664443969727,0.007552146911621094,0,0,0,40000
1039527,0.3354133665561676,-0.11167183518409729,-97.0,1893.0,-33.66423416137695,0.375917911529541,0,0,0,40000
1039537,0.3030710518360138,0.7241697907447815,-91.0,1723.0,-38.69107437133789,0.560490608215332,0,0,0,40000
1039547,0.25332507491111755,1.7820382118225098,-68.0,1366.0,-45.079833984375,0.8508262634277344,0,0,0,40000
1039557,0.22457490861415863,2.3093814849853516,-45.0,903.0,-48.30711364746094,1.0162943601608276,0,0,0,40000
1039567,0.19600875675678253,2.731200933456421,-18.0,334.0,-50.916168212890625,1.1815893650054932,0,0,0,40000
1039577,0.18992328643798828,2.73928165435791,0.0,-315.0,-51.047080993652344,1.2123534679412842,0,0,0,40000
1039587,0.1948733925819397,2.2736899852752686,27.0,-1032.0,-48.32890701293945,1.176984190940857,0,0,0,40000
1039597,0.2055952101945877,1.6392687559127808,64.0,-1688.0,-44.57955551147461,1.1066343784332275,0,0,0,40000
1039607,0.2348543405532837,0.3467801809310913,52.0,-2021.0,-36.85124969482422,0.9242804050445557,0,0,0,40000
1039617,0.26187318563461304,-0.5996452569961548,23.0,-2036.0,-31.16609764099121,0.7545872926712036,0,0,0,40000
1039627,0.3022613227367401,-1.9156215190887451,50.0,-1764.0,-23.227947235107422,0.503751277923584,0,0,0,40000
1039637,0.34090203046798706,-2.6159682273864746,72.0,-1267.0,-18.955528259277344,0.26220130920410156,0,0,0,40000
1039647,0.3898342549800873,-3.26004958152771,81.0,-582.0,-14.999460220336914,-0.0424346923828125,0,0,0,40000
1039657,0.4105418622493744,-3.3271493911743164,68.0,285.0,-14.497377395629883,-0.17877626419067383,0,0,0,40000
1039667,0.4519461989402771,-2.8475921154022217,34.0,1059.0,-17.281810760498047,-0.44043588638305664,0,0,0,40000
1039677,0.4746704399585724,-2.2563672065734863,6.0,1486.0,-20.754169464111328,-0.5907604694366455,0,0,0,40000
1039687,0.5017251372337341,-1.1289277076721191,52.0,1740.0,-27.47085189819336,-0.7676129341125488,0,0,0,40000
1039697,0.5180469751358032,-0.32516083121299744,52.0,1740.0,-32.274078369140625,-0.880854606628418,0,0,0,40000
1039707,0.547053873538971,0.8168449401855469,58.0,1587.0,-39.13727569580078,-1.0709576606750488,0,0,0,40000
1039717,0.5701915621757507,1.4649379253387451,39.0,1253.0,-43.06217956542969,-1.2266387939453125,0,0,0,40000
1039727,0.593507707118988,2.1661229133605957,31.0,777.0,-47.326927185058594,-1.3840835094451904,0,0,0,40000
1039737,0.6208632588386536,2.3974950313568115,33.0,198.0,-48.78461456298828,-1.5665030479431152,0,0,0,40000
1039747,0.6565349102020264,2.3025896549224854,59.0,-474.0,-48.28687286376953,-1.7996807098388672,0,0,0,40000
1039757,0.6749030351638794,1.9182069301605225,74.0,-1199.0,-46.043128967285156,-1.9298896789550781,0,0,0,40000
1039767,0.7076703906059265,0.8863346576690674,56.0,-1770.0,-39.89216995239258,-2.1474101543426514,0,0,0,40000
1039777,0.7359862327575684,0.027305912226438522,27.0,-1960.0,-34.74922180175781,-2.3390915393829346,0,0,0,40000
1039787,0.7640029191970825,-1.301160216331482,6.0,-1873.0,-26.75511932373047,-2.5297811031341553,0,0,0,40000
1039797,0.7830681204795837,-2.0810673236846924,51.0,-1540.0,-22.02239990234375,-2.6673526763916016,0,0,0,40000
1039807,0.8017370104789734,-2.931548595428467,40.0,-954.0,-16.840450286865234,-2.80316162109375,0,0,0,40000
1039817,0.7998652458190918,-3.1884989738464355,17.0,-138.0,-15.205753326416016,-2.8159661293029785,0,0,0,40000
1039827,0.7917563915252686,-2.9870777130126953,-54.0,711.0,-16.320396423339844,-2.7913732528686523,0,0,0,40000
1039837,0.7774584293365479,-2.498033046722412,-55.0,1355.0,-19.17346954345703,-2.7290821075439453,0,0,0,40000
1039847,0.7519717216491699,-1.4417052268981934,-72.0,1659.0,-25.454837799072266,-2.5990538597106934,0,0,0,40000
1039857,0.7081226706504822,-0.6321209073066711,-46.0,1818.0,-30.283523559570312,-2.357713460922241,0,0,0,40000
1039867,0.6518082618713379,0.5937072038650513,-74.0,1732.0,-37.64179611206055,-2.040189504623413,0,0,0,40000
1039877,0.6122686266899109,1.3390138149261475,-128.0,1471.0,-42.14503479003906,-1.8218756914138794,0,0,0,40000
1039887,0.5451978445053101,2.20410418510437,-124.0,1047.0,-47.392250061035156,-1.4366251230239868,0,0,0,40000
1039897,0.5017858743667603,2.5682249069213867,-97.0,544.0,-49.64994812011719,-1.1916521787643433,0,0,0,40000
1039907,0.4224708676338196,2.7121963500976562,-97.0,-119.0,-50.594844818115234,-0.7293310165405273,0,0,0,40000
1039917,0.37009480595588684,2.489943265914917,-79.0,-847.0,-49.33906555175781,-0.4267911911010742,0,0,0,40000
1039927,0.3136950135231018,1.6568523645401,-86.0,-1550.0,-44.40174102783203,-0.09848999977111816,0,0,0,40000
1039937,0.2814912796020508,0.8199872374534607,-78.0,-2002.0,-39.41545104980469,0.08590400218963623,0,0,0,40000
1039947,0.2372901737689972,-0.5987977981567383,-65.0,-2102.0,-30.902029037475586,0.3434641361236572,0,0,0,40000
1039957,0.20797181129455566,-1.5232272148132324,-56.0,-1898.0,-25.320735931396484,0.5127754211425781,0,0,0,40000
1039967,0.165383443236351,-2.693458080291748,-69.0,-1483.0,-18.231704711914062,0.7627993822097778,0,0,0,40000
1039977,0.1300971359014511,-3.2357542514801025,-69.0,-858.0,-14.887025833129883,0.9701805114746094,0,0,0,40000
1039987,0.09046661853790283,-3.5445117950439453,-37.0,-19.0,-12.930000305175781,1.2048550844192505,0,0,0,40000
1039997,0.0696912482380867,-3.3436787128448486,-67.0,804.0,-14.03183364868164,1.3271090984344482,0,0,0,40000
1040007,0.037354376167058945,-2.567368507385254,-64.0,1399.0,-18.60209083557129,1.5196391344070435,0,0,0,40000
1040017,0.02332012914121151,-1.838208556175232,-61.0,1732.0,-22.912979125976562,1.60300612449646,0,0,0,40000
1040027,-0.007234693504869938,-0.6107630729675293,-6.0,1822.0,-30.244430541992188,1.7864103317260742,0,0,0,40000
1040037,-0.01659124344587326,0.20369303226470947,-7.0,1705.0,-35.127567291259766,1.8429579734802246,0,0,0,40000
1040047,-0.025617454200983047,1.2907633781433105,-3.0,1455.0,-41.67621612548828,1.8977972269058228,0,0,0,40000
1040057,-0.023562250658869743,1.8704400062561035,11.0,1067.0,-45.203643798828125,1.886228084564209,0,0,0,40000
1040067,-0.01672900840640068,2.416546583175659,27.0,513.0,-48.54746627807617,1.8458832502365112,0,0,0,40000
1040077,-0.008912064135074615,2.506425619125366,41.0,-130.0,-49.16120910644531,1.7993630170822144,0,0,0,40000
1040087,0.010167277418076992,2.1747915744781494,30.0,-855.0,-47.24226379394531,1.684767246246338,0,0,0,40000
1040097,0.03966064006090164,1.6107043027877808,66.0,-1581.0,-43.91322708129883,1.5069901943206787,0,0,0,40000
1040107,0.09853854775428772,0.36552461981773376,98.0,-2005.0,-36.469024658203125,1.1516320705413818,0,0,0,40000
1040117,0.1384211629629135,-0.5749236941337585,133.0,-2078.0,-30.82040786743164,0.9087289571762085,0,0,0,40000
1040127,0.21283918619155884,-1.9521846771240234,122.0,-1902.0,-22.51443099975586,0.4566711187362671,0,0,0,40000
1040137,0.26075926423072815,-2.729595422744751,101.0,-1425.0,-17.77711296081543,0.1618574857711792,0,0,0,40000
1040147,0.3328556418418884,-3.498724937438965,64.0,-808.0,-13.06525993347168,-0.2799166440963745,0,0,0,40000
1040157,0.362105131149292,-3.691875696182251,67.0,19.0,-11.797475814819336,-0.46587932109832764,0,0,0,40000
1040167,0.40858155488967896,-3.376931667327881,93.0,864.0,-13.5802001953125,-0.7563351392745972,0,0,0,40000
1040177,0.43317943811416626,-2.8366801738739014,68.0,1421.0,-16.72979736328125,-0.9166429042816162,0,0,0,40000
1040187,0.47171494364738464,-1.751944661140442,23.0,1717.0,-23.171977996826172,-1.1617385149002075,0,0,0,40000
1040197,0.4905368387699127,-0.9511399865150452,12.0,1749.0,-27.938636779785156,-1.2891671657562256,0,0,0,40000
1040207,0.5107540488243103,0.20987412333488464,23.0,1614.0,-34.89735794067383,-1.4255428314208984,0,0,0,40000
1040217,0.5209519267082214,0.8831459879875183,44.0,1347.0,-38.95555114746094,-1.5022146701812744,0,0,0,40000
1040227,0.5420123934745789,1.6555875539779663,21.0,895.0,-43.63158416748047,-1.6446447372436523,0,0,0,40000
1040237,0.5600108504295349,1.9398539066314697,13.0,293.0,-45.392295837402344,-1.7692221403121948,0,0,0,40000
1040247,0.5754559636116028,1.9182491302490234,34.0,-384.0,-45.32194900512695,-1.878878116607666,0,0,0,40000
1040257,0.5877427458763123,1.5762319564819336,38.0,-1142.0,-43.32166290283203,-1.9701052904129028,0,0,0,40000
1040267,0.6091737151145935,0.5671449899673462,12.0,-1762.0,-37.29763412475586,-2.116780996322632,0,0,0,40000
1040277,0.6228939294815063,-0.3203434646129608,21.0,-2075.0,-31.973905563354492,-2.217604160308838,0,0,0,40000
1040287,0.6465287804603577,-1.7509968280792236,43.0,-2081.0,-23.3546142578125,-2.3784546852111816,0,0,0,40000
1040297,0.6607590913772583,-2.646702527999878,21.0,-1786.0,-17.911556243896484,-2.4834983348846436,0,0,0,40000
1040307,0.6667607426643372,-3.7004313468933105,-11.0,-1248.0,-11.489665985107422,-2.5395350456237793,0,0,0,40000
1040317,0.6642147302627563,-4.11256217956543,-19.0,-549.0,-8.898078918457031,-2.5442073345184326,0,0,0,40000
1040327,0.6469037532806396,-4.2065019607543945,-27.0,287.0,-8.207590103149414,-2.4599528312683105,0,0,0,40000
1040337,0.624938428401947,-3.885467767715454,-61.0,1069.0,-10.012945175170898,-2.3471837043762207,0,0,0,40000
1040347,0.5711252093315125,-2.965131998062134,-42.0,1582.0,-15.433893203735352,-2.0419936180114746,0,30,0,40000
1040357,0.5476218461990356,-2.1679329872131348,-55.0,1879.0,-200.68234252929688,-1.9177119731903076,0,30,0,40000
1040367,0.5086196064949036,-0.8361396789550781,-72.0,1959.0,-209.53187561035156,-1.6994553804397583,0,30,0,40000
1040377,0.48554307222366333,0.048864394426345825,-44.0,1879.0,-215.7327880859375,-1.5757808685302734,0,30,0,40000
1040387,0.45338666439056396,1.2627075910568237,-41.0,1636.0,-223.93963623046875,-1.3968226909637451,0,30,0,40000
1040397,0.429249107837677,1.923683762550354,-46.0,1232.0,-228.8555145263672,-1.2651580572128296,0,30,0,40000
1040407,0.39072656631469727,2.5934345722198486,-54.0,772.0,-233.84490966796875,-1.0462448596954346,0,30,0,40000
1040417,0.36800387501716614,2.7730743885040283,-59.0,132.0,-235.90414428710938,-0.921229362487793,0,30,0,40000
1040427,0.34635213017463684,2.5819756984710693,-35.0,-559.0,-235.73883056640625,-0.8018758296966553,0,30,0,40000
1040437,0.3317195177078247,2.113375425338745,-10.0,-1351.0,-233.89671325683594,-0.7241731882095337,0,30,0,40000
1040447,0.3175792992115021,0.8591325283050537,6.0,-2152.0,-227.31387329101562,-0.6489521265029907,0,30,0,40000
1040457,0.30909624695777893,-0.35809531807899475,-9.0,-3014.0,-220.91482543945312,-0.6074395179748535,0,30,0,40000
1040467,0.31309300661087036,-2.8071484565734863,0.0,-3944.0,-207.0677490234375,-0.6407605409622192,0,30,0,40000
1040477,0.3281482756137848,-4.86434268951416,17.0,-4793.0,-195.50376892089844,-0.7407653331756592,0,30,0,40000
1040487,0.35500192642211914,-8.380620956420898,62.0,-5301.0,-175.09783935546875,-0.912071943283081,0,30,0,40000
1040497,0.36764100193977356,-10.85689926147461,74.0,-5449.0,-160.84423828125,-0.998727560043335,0,30,0,40000
1040507,0.3868153691291809,-14.53940486907959,42.0,-5306.0,-139.25686645507812,-1.1252959966659546,0,30,0,40000
1040517,0.40747347474098206,-16.86665153503418,-2.0,-4919.0,-125.71510314941406,-1.261309027671814,0,30,0,40000
1040527,0.43338117003440857,-19.985536575317383,12.0,-4312.0,-107.33828735351562,-1.42947518825531,0,30,0,40000
1040537,0.45201340317726135,-21.74488639831543,41.0,-3514.0,-97.0505142211914,-1.5545856952667236,0,30,0,40000
1040547,0.4669507145881653,-23.759708404541016,33.0,-2530.0,-85.17074584960938,-1.6579043865203857,0,30,0,40000
1040557,0.4689675569534302,-24.60747718811035,20.0,-1401.0,-80.25543975830078,-1.6840612888336182,0,30,0,40000
1040567,0.4741141200065613,-25.065298080444336,-24.0,-210.0,-77.65951538085938,-1.7292602062225342,0,30,0,40000
1040577,0.4799204468727112,-24.907318115234375,1.0,688.0,-78.75779724121094,-1.778404712677002,0,30,0,40000
1040587,0.4756530225276947,-24.183364868164062,9.0,1280.0,-83.26605224609375,-1.7671376466751099,0,30,0,40000
1040597,0.4770629405975342,-23.494112014770508,9.0,1642.0,-87.58828735351562,-1.7898542881011963,0,30,0,40000
1040607,0.48080524802207947,-22.31467628479004,-10.0,1738.0,-94.88115692138672,-1.8267796039581299,0,30,0,40000
1040617,0.48534321784973145,-21.529155731201172,-28.0,1654.0,-99.83902740478516,-1.8685394525527954,0,30,0,40000
1040627,0.4832526743412018,-20.493532180786133,7.0,1390.0,-106.32615661621094,-1.8703699111938477,0,30,0,40000
1040637,0.48408618569374084,-19.96823501586914,-3.0,964.0,-109.77283477783203,-1.8898875713348389,0,30,0,40000
1040647,0.47225072979927063,-19.53046989440918,4.0,418.0,-112.70947265625,-1.8331316709518433,0,30,0,40000
1040657,0.47243115305900574,-19.518381118774414,0.0,-225.0,-113.09664916992188,-1.8483853340148926,0,30,0,40000
1040667,0.4685935080051422,-19.977529525756836,-2.0,-981.0,-110.64964294433594,-1.8394575119018555,0,30,0,40000
1040677,0.4699988067150116,-20.646326065063477,0.0,-1810.0,-106.92594909667969,-1.8619632720947266,0,30,0,40000
1040687,0.47007501125335693,-22.22603416442871,29.0,-2645.0,-97.70173645019531,-1.876557469367981,0,30,0,40000
1040697,0.4700841009616852,-23.60350799560547,-7.0,-3187.0,-89.64559173583984,-1.8907619714736938,0,30,0,40000
1040707,0.46212321519851685,-25.888731002807617,-18.0,-3411.0,-76.0854721069336,-1.857108235359192,0,30,0,40000
1040717,0.46125563979148865,-27.42632484436035,-2.0,-3296.0,-66.95547485351562,-1.8657073974609375,0,30,0,40000
1040727,0.44228944182395935,-29.557147979736328,2.0,-2955.0,-54.208595275878906,-1.7653672695159912,0,30,0,40000
1040737,0.42400920391082764,-30.757347106933594,-22.0,-2369.0,-46.998748779296875,-1.6685972213745117,0,30,0,40000
1040747,0.3936389982700348,-32.06023406982422,-7.0,-1578.0,-39.13347625732422,-1.4986170530319214,0,30,0,40000
1040757,0.3732984662055969,-32.53403854370117,-67.0,-639.0,-36.219757080078125,-1.3880586624145508,0,30,0,40000
1040767,0.3337138593196869,-32.542667388916016,-40.0,408.0,-36.08954620361328,-1.1609920263290405,0,30,0,40000
1040777,0.29794570803642273,-32.13153076171875,-40.0,1198.0,-38.487083435058594,-0.9557262659072876,0,30,0,40000
