timestamp,stabilizer.roll,stabilizer.pitch,stateEstimateZ.rateRoll,stateEstimateZ.ratePitch,controller.pitchRate,controller.rollRate,roll,pitch,yawdot,thrust
1086269,-36.28651428222656,65.28101348876953,2.0,-8.0,-393.64453125,218.8076934814453,0,0,0,40000
1086279,-36.287628173828125,65.26287841796875,-14.0,-21.0,-395.4938659667969,219.9029083251953,0,0,0,40000
1086289,-36.295623779296875,65.23613739013672,-21.0,-61.0,-397.2908630371094,221.0397186279297,0,0,0,40000
1086299,-36.29766082763672,65.17131805419922,-19.0,-141.0,-398.8580322265625,222.14105224609375,0,0,0,40000
1086309,-36.25900650024414,65.0882797241211,34.0,-292.0,-400.31353759765625,222.99758911132812,0,0,0,40000
1086319,-35.97157669067383,64.80535888671875,32.0,-568.0,-400.5640869140625,222.3563995361328,0,0,0,40000
1086329,-35.60871124267578,64.52737426757812,-20.0,-930.0,-400.8354797363281,221.25196838378906,0,0,0,40000
1086339,-34.641334533691406,63.834957122802734,49.0,-1484.0,-398.6053466796875,216.5000457763672,0,0,0,40000
1086349,-33.74135208129883,63.175437927246094,48.0,-2091.0,-396.5516662597656,212.12356567382812,0,0,0,40000
1086359,-31.916667938232422,61.77842330932617,31.0,-2834.0,-390.04107666015625,202.15609741210938,0,0,0,40000
1086369,-30.434011459350586,60.53984069824219,89.0,-3654.0,-384.4410705566406,194.1913299560547,0,0,0,40000
1086379,-27.89102554321289,58.14327621459961,166.0,-4562.0,-371.8365478515625,179.80157470703125,0,0,0,40000
1086389,-26.06139373779297,56.16286087036133,201.0,-5480.0,-361.6632080078125,169.6276397705078,0,0,0,40000
1086399,-23.254682540893555,52.57447052001953,268.0,-6364.0,-341.755126953125,153.51878356933594,0,0,0,40000
1086409,-21.414142608642578,49.82270431518555,443.0,-7049.0,-326.7725830078125,143.14004516601562,0,0,0,40000
1086419,-18.799121856689453,45.26003646850586,593.0,-7539.0,-300.8102722167969,128.0447235107422,0,0,0,40000
1086429,-17.177892684936523,42.02879333496094,743.0,-7735.0,-282.7225646972656,118.85202026367188,0,0,0,40000
1086439,-14.931692123413086,37.0668830871582,973.0,-7768.0,-254.12281799316406,105.84928894042969,0,0,0,40000
1086449,-13.55915355682373,33.779441833496094,1225.0,-7492.0,-235.4508514404297,98.03723907470703,0,0,0,40000
1086459,-11.604254722595215,29.0574893951416,1489.0,-7011.0,-208.04660034179688,86.67910766601562,0,0,0,40000
1086469,-10.349185943603516,26.117734909057617,1730.0,-6353.0,-191.22657775878906,79.47416687011719,0,0,0,40000
1086479,-8.5,22.204666137695312,2003.0,-5505.0,-168.45945739746094,68.65631866455078,0,0,0,40000
1086489,-7.265096187591553,20.016010284423828,2182.0,-4433.0,-155.95370483398438,61.47967529296875,0,0,0,40000
1086499,-5.398617744445801,17.45652961730957,2385.0,-3296.0,-141.1488037109375,50.46531295776367,0,0,0,40000
1086509,-4.1385931968688965,16.24779510498047,2517.0,-2145.0,-134.39773559570312,43.04447555541992,0,0,0,40000
1086519,-2.2158877849578857,15.1690034866333,2607.0,-1111.0,-128.3907470703125,31.59790802001953,0,0,0,40000
1086529,-0.9301573038101196,14.862719535827637,2620.0,-298.0,-127.00213623046875,23.926860809326172,0,0,0,40000
1086539,1.004671335220337,14.881030082702637,2617.0,321.0,-127.556884765625,12.310941696166992,0,0,0,40000
1086549,2.280609607696533,15.119452476501465,2563.0,714.0,-129.43795776367188,4.602175712585449,0,0,0,40000
1086559,4.156482219696045,15.659509658813477,2509.0,907.0,-133.14120483398438,-6.755346298217773,0,0,0,40000
1086569,5.367979526519775,16.07712173461914,2366.0,985.0,-136.12417602539062,-14.170909881591797,0,0,0,40000
1086579,7.101274490356445,16.680509567260742,2217.0,916.0,-140.2378387451172,-24.763193130493164,0,0,0,40000
1086589,8.177042961120605,17.0067195892334,2086.0,708.0,-142.70152282714844,-31.45026397705078,0,0,0,40000
1086599,9.653791427612305,17.306760787963867,1879.0,419.0,-145.01806640625,-40.58314895629883,0,0,0,40000
1086609,10.527945518493652,17.341028213500977,1620.0,-23.0,-145.74371337890625,-46.13362121582031,0,0,0,40000
1086619,11.665983200073242,17.107175827026367,1407.0,-439.0,-144.8575897216797,-53.29877853393555,0,0,0,40000
1086629,12.284102439880371,16.740297317504883,1157.0,-950.0,-143.16323852539062,-57.3687858581543,0,0,0,40000
1086639,13.012948989868164,15.841004371643066,961.0,-1456.0,-138.25450134277344,-62.12412643432617,0,0,0,40000
1086649,13.338046073913574,15.039039611816406,668.0,-1927.0,-133.9037322998047,-64.47108459472656,0,0,0,40000
1086659,13.628511428833008,13.59006404876709,397.0,-2258.0,-125.63562774658203,-66.61994934082031,0,0,0,40000
1086669,13.672622680664062,12.493575096130371,82.0,-2535.0,-119.4448013305664,-67.29446411132812,0,0,0,40000
1086679,13.532705307006836,10.767637252807617,-204.0,-2607.0,-109.4330062866211,-66.86322021484375,0,0,0,40000
1086689,13.321294784545898,9.626493453979492,-450.0,-2550.0,-102.88858032226562,-65.9970474243164,0,0,0,40000
1086699,12.817931175231934,8.008109092712402,-722.0,-2357.0,-93.43750762939453,-63.3679313659668,0,0,0,40000
1086709,12.372713088989258,7.043249130249023,-992.0,-2068.0,-87.87107849121094,-61.073299407958984,0,0,0,40000
1086719,11.568070411682129,5.8098649978637695,-1207.0,-1720.0,-80.6590576171875,-56.6025505065918,0,0,0,40000
1086729,10.950818061828613,5.147085189819336,-1384.0,-1368.0,-76.84457397460938,-53.23504638671875,0,0,0,40000
1086739,9.916494369506836,4.395263195037842,-1531.0,-992.0,-72.4737548828125,-47.33927917480469,0,0,0,40000
1086749,9.175565719604492,4.035642147064209,-1632.0,-721.0,-70.44127655029297,-43.17790222167969,0,0,0,40000
1086759,7.993666648864746,3.656984329223633,-1742.0,-478.0,-68.2831039428711,-36.34075164794922,0,0,0,40000
1086769,7.194734573364258,3.4952683448791504,-1742.0,-331.0,-67.41954040527344,-31.77261734008789,0,0,0,40000
1086779,5.958472728729248,3.3298046588897705,-1815.0,-192.0,-66.52830505371094,-24.548839569091797,0,0,0,40000
1086789,5.136970043182373,3.267653465270996,-1782.0,-150.0,-66.25418853759766,-19.783771514892578,0,0,0,40000
1086799,3.9312477111816406,3.1698074340820312,-1719.0,-151.0,-65.76339721679688,-12.68166732788086,0,0,0,40000
1086809,3.160400390625,3.080538511276245,-1637.0,-219.0,-65.32130432128906,-8.160589218139648,0,0,0,40000
1086819,2.083864450454712,2.8842294216156006,-1509.0,-319.0,-64.23258972167969,-1.7765188217163086,0,0,0,40000
1086829,1.4285080432891846,2.715353488922119,-1365.0,-419.0,-63.3028564453125,2.104970932006836,0,0,0,40000
1086839,0.5567959547042847,2.3784728050231934,-1208.0,-534.0,-61.35721969604492,7.308413505554199,0,0,0,40000
1086849,0.049278996884822845,2.130247116088867,-1033.0,-580.0,-59.93476867675781,10.346024513244629,0,0,0,40000
1086859,-0.5784851312637329,1.713420033454895,-815.0,-622.0,-57.490325927734375,14.122970581054688,0,0,0,40000
1086869,-0.9052320122718811,1.421811580657959,-620.0,-670.0,-55.78684997558594,16.106796264648438,0,0,0,40000
1086879,-1.2423840761184692,0.9563122987747192,-409.0,-682.0,-53.02816390991211,18.163375854492188,0,0,0,40000
1086889,-1.370741844177246,0.6527108550071716,-216.0,-631.0,-51.22975540161133,18.973190307617188,0,0,0,40000
1086899,-1.4235135316848755,0.23786239326000214,-16.0,-590.0,-48.752662658691406,19.332252502441406,0,0,0,40000
1086909,-1.3700530529022217,-0.007225129287689924,184.0,-481.0,-47.28482437133789,19.053333282470703,0,0,0,40000
1086919,-1.1717208623886108,-0.3074091374874115,364.0,-399.0,-45.47787857055664,17.90126609802246,0,0,0,40000
1086929,-0.9736562371253967,-0.45228108763694763,525.0,-262.0,-44.59675216674805,16.744556427001953,0,0,0,40000
1086939,-0.5638548135757446,-0.6009319424629211,638.0,-197.0,-43.68846893310547,14.307781219482422,0,0,0,40000
1086949,-0.2340347319841385,-0.6764320731163025,741.0,-155.0,-43.216087341308594,12.339882850646973,0,0,0,40000
1086959,0.3207874000072479,-0.7469407320022583,827.0,-56.0,-42.77125549316406,9.008160591125488,0,0,0,40000
1086969,0.7241648435592651,-0.7605882287025452,910.0,-18.0,-42.666717529296875,6.57109260559082,0,0,0,40000
1086979,1.3572274446487427,-0.7675643563270569,958.0,-2.0,-42.601871490478516,2.73972225189209,0,0,0,40000
1086989,1.7864694595336914,-0.7762664556503296,964.0,-30.0,-42.5264892578125,0.11579704284667969,0,0,0,40000
1086999,2.445697069168091,-0.8146532773971558,938.0,-72.0,-42.27229690551758,-3.905117988586426,0,0,0,40000
1087009,2.880492925643921,-0.8620033264160156,933.0,-127.0,-41.96289825439453,-6.595064163208008,0,0,0,40000
1087019,3.5055322647094727,-0.9832099676132202,886.0,-210.0,-41.20783996582031,-10.443050384521484,0,0,0,40000
1087029,3.8910536766052246,-1.0822227001190186,807.0,-231.0,-40.58250045776367,-12.868328094482422,0,0,0,40000
1087039,4.407630443572998,-1.2441329956054688,701.0,-230.0,-39.57564163208008,-16.09408950805664,0,0,0,40000
1087049,4.706624507904053,-1.3483790159225464,592.0,-230.0,-38.91091537475586,-18.025714874267578,0,0,0,40000
1087059,5.07434606552124,-1.527558445930481,496.0,-264.0,-37.79219436645508,-20.380046844482422,0,0,0,40000
1087069,5.264081954956055,-1.6459112167358398,383.0,-254.0,-37.03412628173828,-21.67414665222168,0,0,0,40000
1087079,5.454273223876953,-1.8163052797317505,241.0,-219.0,-35.9591178894043,-22.976863861083984,0,0,0,40000
1087089,5.527667045593262,-1.8992033004760742,100.0,-144.0,-35.40571594238281,-23.582279205322266,0,0,0,40000
1087099,5.533772945404053,-1.9765820503234863,-46.0,-88.0,-34.8829345703125,-23.785198211669922,0,0,0,40000
1087109,5.494850158691406,-2.0065629482269287,-128.0,-49.0,-34.643211364746094,-23.717016220092773,0,0,0,40000
1087119,5.3464765548706055,-2.0630385875701904,-243.0,-80.0,-34.243186950683594,-22.98916244506836,0,0,0,40000
1087129,5.188983917236328,-2.089050531387329,-337.0,-55.0,-34.024749755859375,-22.201784133911133,0,0,0,40000
1087139,4.909267902374268,-2.1305181980133057,-439.0,-49.0,-33.712547302246094,-20.674301147460938,0,0,0,40000
1087149,4.678345680236816,-2.1524507999420166,-547.0,-70.0,-33.51666259765625,-19.431961059570312,0,0,0,40000
1087159,4.2650227546691895,-2.1947503089904785,-627.0,-67.0,-33.19750213623047,-17.085098266601562,0,0,0,40000
1087169,3.967168092727661,-2.2374165058135986,-650.0,-93.0,-32.874916076660156,-15.420570373535156,0,0,0,40000
1087179,3.5045697689056396,-2.304042339324951,-669.0,-117.0,-32.406917572021484,-12.755716323852539,0,0,0,40000
1087189,3.190025806427002,-2.367053985595703,-688.0,-133.0,-31.95861053466797,-10.967952728271484,0,0,0,40000
1087199,2.718108654022217,-2.4737181663513184,-688.0,-168.0,-31.245853424072266,-8.223710060119629,0,0,0,40000
1087209,2.4113335609436035,-2.5586063861846924,-653.0,-173.0,-30.66075897216797,-6.459040641784668,0,0,0,40000
1087219,1.9833335876464844,-2.6825528144836426,-599.0,-189.0,-29.838115692138672,-3.955526351928711,0,0,0,40000
1087229,1.7147178649902344,-2.7780704498291016,-578.0,-221.0,-29.182823181152344,-2.3984856605529785,0,0,0,40000
1087239,1.3413690328598022,-2.9216482639312744,-502.0,-207.0,-28.235429763793945,-0.2029714584350586,0,0,0,40000
1087249,1.1286970376968384,-3.015199661254883,-415.0,-173.0,-27.584766387939453,1.0367193222045898,0,0,0,40000
1087259,0.8678174614906311,-3.123217821121216,-334.0,-147.0,-26.844196319580078,2.5730462074279785,0,0,0,40000
1087269,0.7283322811126709,-3.1764988899230957,-262.0,-102.0,-26.429821014404297,3.3864712715148926,0,0,0,40000
1087279,0.5796015858650208,-3.217982292175293,-187.0,-26.0,-26.084749221801758,4.259823799133301,0,0,0,40000
1087289,0.5194451808929443,-3.2205920219421387,-103.0,11.0,-25.972469329833984,4.604475975036621,0,0,0,40000
1087299,0.4922078251838684,-3.18798565864563,-17.0,46.0,-26.072052001953125,4.752985954284668,0,0,0,40000
1087309,0.5042158365249634,-3.1740334033966064,78.0,31.0,-26.060405731201172,4.666018486022949,0,0,0,40000
1087319,0.5752720832824707,-3.171583414077759,136.0,-25.0,-25.980085372924805,4.223392009735107,0,0,0,40000
1087329,0.6362231969833374,-3.200786828994751,155.0,-57.0,-25.709196090698242,3.8393404483795166,0,0,0,40000
1087339,0.7830143570899963,-3.2200260162353516,211.0,-32.0,-25.497364044189453,2.9369354248046875,0,0,0,40000
1087349,0.9058270454406738,-3.2408335208892822,269.0,-52.0,-25.275541305541992,2.1744117736816406,0,0,0,40000
1087359,1.104732632637024,-3.261078357696533,323.0,-21.0,-25.056476593017578,0.9503803253173828,0,0,0,40000
1087369,1.2403703927993774,-3.2890982627868652,333.0,-28.0,-24.790000915527344,0.10101747512817383,0,0,0,40000
1087379,1.4745229482650757,-3.288301706314087,356.0,-5.0,-24.6960391998291,-1.345271110534668,0,0,0,40000
1087389,1.6403720378875732,-3.2778568267822266,347.0,36.0,-24.660255432128906,-2.387606143951416,0,0,0,40000
1087399,1.8845672607421875,-3.2398300170898438,352.0,53.0,-24.790752410888672,-3.9063758850097656,0,0,0,40000
1087409,2.0383071899414062,-3.22521710395813,320.0,13.0,-24.78152084350586,-4.888134956359863,0,0,0,40000
1087419,2.2597553730010986,-3.240805149078369,309.0,-46.0,-24.591148376464844,-6.282021522521973,0,0,0,40000
1087429,2.3914101123809814,-3.2839105129241943,265.0,-99.0,-24.234540939331055,-7.142133712768555,0,0,0,40000
1087439,2.551456928253174,-3.374495506286621,208.0,-145.0,-23.591001510620117,-8.177179336547852,0,0,0,40000
1087449,2.6399569511413574,-3.443373203277588,184.0,-149.0,-23.07525634765625,-8.78631591796875,0,0,0,40000
1087459,2.745435953140259,-3.551607847213745,133.0,-158.0,-22.320598602294922,-9.50037956237793,0,0,0,40000
1087469,2.7988545894622803,-3.6238136291503906,107.0,-153.0,-21.801239013671875,-9.887445449829102,0,0,0,40000
1087479,2.829453468322754,-3.6946098804473877,29.0,-155.0,-21.266456604003906,-10.15561580657959,0,0,0,40000
1087489,2.826368570327759,-3.8029885292053223,-31.0,-147.0,-20.503398895263672,-10.22212028503418,0,0,0,40000
1087499,2.8036608695983887,-3.85695481300354,-57.0,-81.0,-20.06450080871582,-10.170263290405273,0,0,0,40000
1087509,2.7431728839874268,-3.8905537128448486,-97.0,-14.0,-19.746448516845703,-9.890453338623047,0,0,0,40000
1087519,2.686901092529297,-3.880199670791626,-157.0,48.0,-19.69199562072754,-9.63414192199707,0,0,0,40000
1087529,2.567591667175293,-3.8268206119537354,-178.0,102.0,-19.89671516418457,-8.996783256530762,0,0,0,40000
1087539,2.4765729904174805,-3.7754549980163574,-210.0,103.0,-20.091022491455078,-8.52609634399414,0,0,0,40000
1087549,2.332655191421509,-3.7073311805725098,-226.0,96.0,-20.387718200683594,-7.73427677154541,0,0,0,40000
1087559,2.225349187850952,-3.660945415496826,-240.0,114.0,-20.555652618408203,-7.1584906578063965,0,0,0,40000
1087569,2.053478956222534,-3.586451530456543,-260.0,113.0,-20.894140243530273,-6.191024303436279,0,0,0,40000
1087579,1.939137578010559,-3.535675287246704,-228.0,119.0,-21.092130661010742,-5.564521789550781,0,0,0,40000
1087589,1.7669463157653809,-3.483682870864868,-241.0,52.0,-21.2990779876709,-4.586474418640137,0,0,0,40000
1087599,1.6584700345993042,-3.460422992706299,-233.0,29.0,-21.334537506103516,-3.986659049987793,0,0,0,40000
1087609,1.5047273635864258,-3.4495320320129395,-204.0,23.0,-21.29627227783203,-3.111109733581543,0,0,0,40000
1087619,1.4146969318389893,-3.442723274230957,-171.0,-27.0,-21.233789443969727,-2.614438056945801,0,0,0,40000
1087629,1.2913682460784912,-3.4635562896728516,-162.0,-41.0,-21.005126953125,-1.9146647453308105,0,0,0,40000
1087639,1.2214120626449585,-3.4876198768615723,-134.0,-49.0,-20.756393432617188,-1.5324172973632812,0,0,0,40000
1087649,1.139999270439148,-3.534771203994751,-116.0,-64.0,-20.368059158325195,-1.0791068077087402,0,0,0,40000
1087659,1.0937824249267578,-3.563063621520996,-88.0,-56.0,-20.091745376586914,-0.8351597785949707,0,0,0,40000
1087669,1.0416011810302734,-3.5945427417755127,-49.0,-32.0,-19.79538345336914,-0.5538148880004883,0,0,0,40000
1087679,1.017310619354248,-3.5993993282318115,-20.0,14.0,-19.658288955688477,-0.43887996673583984,0,0,0,40000
1087689,1.0018963813781738,-3.578676700592041,-22.0,38.0,-19.675018310546875,-0.37667131423950195,0,0,0,40000
1087699,1.0024536848068237,-3.555551052093506,14.0,63.0,-19.706798553466797,-0.4100766181945801,0,0,0,40000
1087709,1.0206732749938965,-3.513246774673462,20.0,97.0,-19.85466194152832,-0.5497884750366211,0,0,0,40000
1087719,1.0404400825500488,-3.4624783992767334,49.0,125.0,-20.054750442504883,-0.6993327140808105,0,0,0,40000
1087729,1.0777846574783325,-3.3770837783813477,86.0,113.0,-20.464784622192383,-0.9551801681518555,0,0,0,40000
1087739,1.1044220924377441,-3.33019757270813,67.0,84.0,-20.645648956298828,-1.1478490829467773,0,0,0,40000
1087749,1.157775640487671,-3.2977025508880615,61.0,35.0,-20.74139976501465,-1.5020909309387207,0,0,0,40000
1087759,1.1927162408828735,-3.2867937088012695,75.0,-10.0,-20.708139419555664,-1.7470827102661133,0,0,0,40000
1087769,1.241544485092163,-3.3043668270111084,79.0,-41.0,-20.503870010375977,-2.0766563415527344,0,0,0,40000
1087779,1.270747423171997,-3.3284695148468018,77.0,-72.0,-20.25970458984375,-2.2896361351013184,0,0,0,40000
1087789,1.321348786354065,-3.3709237575531006,80.0,-21.0,-19.90421485900879,-2.63226318359375,0,0,0,40000
1087799,1.356885313987732,-3.3787660598754883,69.0,2.0,-19.755861282348633,-2.885772705078125,0,0,0,40000
1087809,1.3977493047714233,-3.3668298721313477,48.0,14.0,-19.726285934448242,-3.17246150970459,0,0,0,40000
1087819,1.422660231590271,-3.3553833961486816,46.0,30.0,-19.69415283203125,-3.364307403564453,0,0,0,40000
1087829,1.4526584148406982,-3.334811210632324,41.0,29.0,-19.717329025268555,-3.5875186920166016,0,0,0,40000
1087839,1.471964955329895,-3.334913492202759,37.0,-11.0,-19.616701126098633,-3.7472972869873047,0,0,0,40000
1087849,1.4849239587783813,-3.350041627883911,17.0,-33.0,-19.4256591796875,-3.8695034980773926,0,0,0,40000
1087859,1.4871176481246948,-3.3577520847320557,-2.0,-3.0,-19.278749465942383,-3.9272727966308594,0,0,0,40000
1087869,1.491328477859497,-3.367920160293579,4.0,-13.0,-19.11686897277832,-3.997180938720703,0,0,0,40000
1087879,1.4870778322219849,-3.371000289916992,-20.0,-10.0,-18.997303009033203,-4.0163493156433105,0,0,0,40000
1087889,1.4694876670837402,-3.3680331707000732,-21.0,0.0,-18.914020538330078,-3.9551267623901367,0,0,0,40000
1087899,1.4397907257080078,-3.3619980812072754,-59.0,22.0,-18.849285125732422,-3.8205204010009766,0,0,0,40000
1087909,1.39596688747406,-3.3381247520446777,-72.0,36.0,-18.89206314086914,-3.599991798400879,0,0,0,40000
1087919,1.3708208799362183,-3.312870502471924,-81.0,54.0,-18.94387435913086,-3.49053955078125,0,0,0,40000
1087929,1.3265388011932373,-3.2561392784118652,-67.0,111.0,-19.185768127441406,-3.265129566192627,0,0,0,40000
1087939,1.297079086303711,-3.1924657821655273,-66.0,154.0,-19.471242904663086,-3.1276063919067383,0,0,0,40000
1087949,1.2508529424667358,-3.084414482116699,-53.0,182.0,-20.025671005249023,-2.888303756713867,0,0,0,40000
1087959,1.208838701248169,-3.0009841918945312,-77.0,178.0,-20.435195922851562,-2.673027992248535,0,0,0,40000
1087969,1.1634289026260376,-2.8782382011413574,-55.0,155.0,-21.083919525146484,-2.435990810394287,0,0,0,40000
1087979,1.1435431241989136,-2.8067681789398193,-55.0,130.0,-21.42768669128418,-2.35122013092041,0,0,0,40000
1087989,1.1139787435531616,-2.7333574295043945,-32.0,83.0,-21.78537940979004,-2.2075304985046387,0,0,0,40000
1087999,1.0981504917144775,-2.7109620571136475,-32.0,15.0,-21.838186264038086,-2.1456894874572754,0,0,0,40000
1088009,1.075630784034729,-2.7027528285980225,-30.0,0.0,-21.806306838989258,-2.043142318725586,0,0,0,40000
1088019,1.0592437982559204,-2.7014987468719482,-13.0,-7.0,-21.732784271240234,-1.9768028259277344,0,0,0,40000
1088029,1.0487993955612183,-2.717536211013794,-6.0,-35.0,-21.555278778076172,-1.945734977722168,0,0,0,40000
1088039,1.048067569732666,-2.7408742904663086,1.0,-52.0,-21.333337783813477,-1.9727773666381836,0,0,0,40000
1088049,1.0438803434371948,-2.759793519973755,4.0,13.0,-21.137107849121094,-1.9789795875549316,0,0,0,40000
1088059,1.0443787574768066,-2.755272626876831,24.0,12.0,-21.08150863647461,-2.01326847076416,0,0,0,40000
1088069,1.0511651039123535,-2.740680694580078,9.0,11.0,-21.086647033691406,-2.0854926109313965,0,0,0,40000
1088079,1.0572359561920166,-2.740326166152954,12.0,15.0,-21.006528854370117,-2.153566360473633,0,0,0,40000
1088089,1.0680218935012817,-2.737558603286743,17.0,-9.0,-20.941068649291992,-2.2502212524414062,0,0,0,40000
1088099,1.0876259803771973,-2.7392828464508057,31.0,-21.0,-20.848596572875977,-2.4002370834350586,0,0,0,40000
1088109,1.1129060983657837,-2.74320387840271,37.0,-11.0,-20.7427921295166,-2.58498477935791,0,0,0,40000
1088119,1.1227493286132812,-2.7550599575042725,35.0,-12.0,-20.589139938354492,-2.677598476409912,0,0,0,40000
1088129,1.136974573135376,-2.779731273651123,33.0,-20.0,-20.358028411865234,-2.7969112396240234,0,0,0,40000
1088139,1.1506834030151367,-2.793532371520996,29.0,-58.0,-20.191606521606445,-2.9135491847991943,0,0,0,40000
1088149,1.1644060611724854,-2.82433819770813,16.0,-36.0,-19.922321319580078,-3.0306735038757324,0,0,0,40000
1088159,1.1691985130310059,-2.836557149887085,20.0,-20.0,-19.76405143737793,-3.0944108963012695,0,0,0,40000
1088169,1.1735323667526245,-2.8459861278533936,11.0,-4.0,-19.622207641601562,-3.1556177139282227,0,0,0,40000
1088179,1.1741806268692017,-2.852653980255127,-1.0,-8.0,-19.496685028076172,-3.1947522163391113,0,0,0,40000
1088189,1.1796115636825562,-2.8506264686584473,-2.0,14.0,-19.423297882080078,-3.262692928314209,0,0,0,40000
1088199,1.1811425685882568,-2.833798408508301,-11.0,47.0,-19.439027786254883,-3.3073031902313232,0,0,0,40000
1088209,1.1756541728973389,-2.7733142375946045,-13.0,124.0,-19.717823028564453,-3.309654951095581,0,0,0,40000
1088219,1.16270911693573,-2.7148914337158203,-13.0,121.0,-19.986209869384766,-3.267019033432007,0,0,0,40000
1088229,1.135482907295227,-2.623044490814209,-47.0,136.0,-20.457481384277344,-3.138146162033081,0,0,0,40000
1088239,1.1155743598937988,-2.5617849826812744,-58.0,107.0,-20.74744987487793,-3.0524160861968994,0,0,0,40000
1088249,1.085810899734497,-2.5085649490356445,-42.0,77.0,-20.990968704223633,-2.9067225456237793,0,0,0,40000
1088259,1.0669009685516357,-2.485773801803589,-51.0,18.0,-21.052879333496094,-2.8254876136779785,0,0,0,40000
1088269,1.0200440883636475,-2.4756312370300293,-47.0,6.0,-21.039371490478516,-2.5755257606506348,0,0,0,40000
1088279,0.99275141954422,-2.4789974689483643,-66.0,0.0,-20.944839477539062,-2.441920757293701,0,0,0,40000
1088289,0.9539207220077515,-2.4561843872070312,-64.0,61.0,-21.007640838623047,-2.238032102584839,0,0,0,40000
1088299,0.932449221611023,-2.4325990676879883,-54.0,66.0,-21.07585334777832,-2.1374056339263916,0,0,0,40000
1088309,0.8923791646957397,-2.387329578399658,-47.0,42.0,-21.27538299560547,-1.9242064952850342,0,0,0,40000
1088319,0.8671364784240723,-2.3799946308135986,-35.0,33.0,-21.247886657714844,-1.7990248203277588,0,0,0,40000
1088329,0.8443437814712524,-2.37188720703125,-29.0,0.0,-21.22533416748047,-1.6878557205200195,0,0,0,40000
1088339,0.8437054753303528,-2.372954845428467,-18.0,26.0,-21.147701263427734,-1.7092978954315186,0,0,0,40000
1088349,0.8390592932701111,-2.357238531112671,-7.0,30.0,-21.171064376831055,-1.7066431045532227,0,0,0,40000
1088359,0.8366966247558594,-2.347571611404419,17.0,14.0,-21.158527374267578,-1.717587947845459,0,0,0,40000
1088369,0.8407783508300781,-2.3448143005371094,14.0,-1.0,-21.10467529296875,-1.7672560214996338,0,0,0,40000
1088379,0.850757360458374,-2.364665985107422,31.0,-37.0,-20.914886474609375,-1.8525166511535645,0,0,0,40000
1088389,0.8591916561126709,-2.393153190612793,-3.0,-40.0,-20.672483444213867,-1.9288568496704102,0,0,0,40000
1088399,0.8638064861297607,-2.4081509113311768,11.0,-48.0,-20.510414123535156,-1.9823956489562988,0,0,0,40000
1088409,0.8764999508857727,-2.452817440032959,14.0,-62.0,-20.16938018798828,-2.0847067832946777,0,0,0,40000
1088419,0.8906489014625549,-2.4800033569335938,30.0,-49.0,-19.932174682617188,-2.1961417198181152,0,0,0,40000
1088429,0.9028416872024536,-2.5127391815185547,14.0,-32.0,-19.66069793701172,-2.296252727508545,0,0,0,40000
1088439,0.9114354252815247,-2.518869638442993,21.0,-2.0,-19.54840660095215,-2.3750808238983154,0,0,0,40000
1088449,0.920648992061615,-2.5168569087982178,18.0,25.0,-19.484861373901367,-2.457855701446533,0,0,0,40000
1088459,0.9285715818405151,-2.489283800125122,13.0,81.0,-19.575252532958984,-2.5331594944000244,0,0,0,40000
1088469,0.9332612156867981,-2.418250322341919,-3.0,122.0,-19.92795181274414,-2.5892577171325684,0,0,0,40000
1088479,0.9348142743110657,-2.36191463470459,1.0,104.0,-20.194448471069336,-2.6266205310821533,0,0,0,40000
1088489,0.9307180643081665,-2.2892026901245117,-3.0,104.0,-20.561201095581055,-2.630031108856201,0,0,0,40000
1088499,0.9256975650787354,-2.239039421081543,-25.0,111.0,-20.79439353942871,-2.627753257751465,0,0,0,40000
1088509,0.9172844290733337,-2.1688432693481445,-12.0,83.0,-21.149736404418945,-2.6048552989959717,0,0,0,40000
1088519,0.9089930653572083,-2.1282153129577637,-9.0,91.0,-21.32917022705078,-2.5824778079986572,0,0,0,40000
1088529,0.89482182264328,-2.0889625549316406,-28.0,29.0,-21.501705169677734,-2.524498701095581,0,0,0,40000
1088539,0.8881402015686035,-2.0769338607788086,-28.0,26.0,-21.51141929626465,-2.5111312866210938,0,0,0,40000
1088549,0.8715659379959106,-2.072073459625244,-18.0,-7.0,-21.47845458984375,-2.437995433807373,0,0,0,40000
1088559,0.8494976162910461,-2.0838632583618164,-43.0,-21.0,-21.34531593322754,-2.331342935562134,0,0,0,40000
1088569,0.8289408087730408,-2.0989632606506348,-9.0,-27.0,-21.19194793701172,-2.2330496311187744,0,0,0,40000
1088579,0.8117790222167969,-2.1254875659942627,-42.0,-80.0,-20.969390869140625,-2.1546573638916016,0,0,0,40000
1088589,0.7957435846328735,-2.1853885650634766,-18.0,-81.0,-20.545089721679688,-2.0824506282806396,0,0,0,40000
1088599,0.7763115167617798,-2.223809242248535,-50.0,-74.0,-20.248289108276367,-1.9894139766693115,0,0,0,40000
1088609,0.7560818791389465,-2.2452540397644043,-19.0,-12.0,-20.05239486694336,-1.890873908996582,0,0,0,40000
1088619,0.7369928956031799,-2.261263370513916,-45.0,-10.0,-19.888687133789062,-1.7987055778503418,0,0,0,40000
1088629,0.7107632756233215,-2.257218837738037,-38.0,13.0,-19.845176696777344,-1.6629853248596191,0,0,0,40000
1088639,0.6972936391830444,-2.2386748790740967,-27.0,36.0,-19.889049530029297,-1.6032514572143555,0,0,0,40000
1088649,0.6711763143539429,-2.206141471862793,-23.0,73.0,-20.01755714416504,-1.4669654369354248,0,0,0,40000
1088659,0.648551881313324,-2.19193959236145,-51.0,41.0,-20.036853790283203,-1.3509764671325684,0,0,0,40000
1088669,0.6222010850906372,-2.170862913131714,-47.0,30.0,-20.097923278808594,-1.2118480205535889,0,0,0,40000
1088679,0.6097452044487,-2.1572916507720947,-56.0,22.0,-20.114484786987305,-1.1555876731872559,0,0,0,40000
1088689,0.5770183205604553,-2.159611701965332,-42.0,-1.0,-20.03581428527832,-0.9768788814544678,0,0,0,40000
1088699,0.552536129951477,-2.165743827819824,-44.0,7.0,-19.934114456176758,-0.8468673229217529,0,0,0,40000
1088709,0.5241431593894958,-2.1565215587615967,-56.0,4.0,-19.924636840820312,-0.6926734447479248,0,0,0,40000
1088719,0.5034538507461548,-2.157320261001587,-61.0,-23.0,-19.85514259338379,-0.5839016437530518,0,0,0,40000
1088729,0.47429749369621277,-2.158806085586548,-55.0,15.0,-19.781400680541992,-0.4235494136810303,0,0,0,40000
1088739,0.4574376046657562,-2.150005340576172,-39.0,26.0,-19.769588470458984,-0.33629465103149414,0,0,0,40000
1088749,0.43052661418914795,-2.115064859390259,-33.0,63.0,-19.915281295776367,-0.18806910514831543,0,0,0,40000
1088759,0.41259047389030457,-2.084200859069824,-16.0,95.0,-20.037534713745117,-0.09302210807800293,0,0,0,40000
1088769,0.4042188227176666,-2.0078492164611816,-4.0,97.0,-20.434524536132812,-0.054978132247924805,0,0,0,40000
1088779,0.3975112736225128,-1.9782048463821411,-29.0,75.0,-20.55270767211914,-0.026747465133666992,0,0,0,40000
1088789,0.38513028621673584,-1.9314156770706177,-22.0,50.0,-20.774986267089844,0.03586983680725098,0,0,0,40000
1088799,0.38626787066459656,-1.9082406759262085,-12.0,40.0,-20.856548309326172,0.017483234405517578,0,0,0,40000
1088809,0.380382776260376,-1.8601551055908203,17.0,82.0,-21.088626861572266,0.04141831398010254,0,0,0,40000
1088819,0.3857118785381317,-1.8251011371612549,6.0,104.0,-21.243759155273438,-0.0020682811737060547,0,0,0,40000
1088829,0.40351125597953796,-1.7487571239471436,15.0,109.0,-21.648468017578125,-0.1207728385925293,0,0,0,40000
1088839,0.41110193729400635,-1.7094241380691528,15.0,104.0,-21.832698822021484,-0.17856764793395996,0,0,0,40000
1088849,0.42551231384277344,-1.6506167650222778,32.0,78.0,-22.135406494140625,-0.2775571346282959,0,0,0,40000
1088859,0.43787962198257446,-1.6333491802215576,50.0,34.0,-22.18983268737793,-0.3647184371948242,0,0,0,40000
1088869,0.45878881216049194,-1.6147404909133911,54.0,28.0,-22.25275421142578,-0.5036475658416748,0,0,0,40000
1088879,0.4854126274585724,-1.5931042432785034,48.0,38.0,-22.334529876708984,-0.6776297092437744,0,0,0,40000
1088889,0.516470730304718,-1.5671133995056152,24.0,33.0,-22.44318389892578,-0.879194974899292,0,0,0,40000
1088899,0.5318107604980469,-1.5527819395065308,42.0,51.0,-22.482410430908203,-0.9869956970214844,0,0,0,40000
1088909,0.5524255037307739,-1.5293662548065186,32.0,27.0,-22.576805114746094,-1.127037763595581,0,0,0,40000
1088919,0.5636968016624451,-1.5269219875335693,35.0,-7.0,-22.545663833618164,-1.211430311203003,0,0,0,40000
1088929,0.5823009610176086,-1.5384711027145386,21.0,-26.0,-22.430397033691406,-1.3403050899505615,0,0,0,40000
1088939,0.5873971581459045,-1.5611995458602905,-8.0,-43.0,-22.247472763061523,-1.3884587287902832,0,0,0,40000
1088949,0.6022675633430481,-1.5849885940551758,22.0,-45.0,-22.057519912719727,-1.4955434799194336,0,0,0,40000
1088959,0.6077479720115662,-1.594906210899353,12.0,-21.0,-21.950275421142578,-1.546590805053711,0,0,0,40000
1088969,0.618095874786377,-1.602531909942627,22.0,-6.0,-21.856510162353516,-1.6270685195922852,0,0,0,40000
1088979,0.6140138506889343,-1.6152749061584473,-3.0,-38.0,-21.731773376464844,-1.621058702468872,0,0,0,40000
1088989,0.6176149249076843,-1.6581467390060425,21.0,-56.0,-21.42535400390625,-1.6610722541809082,0,0,0,40000
1088999,0.6148800849914551,-1.694196105003357,-17.0,-77.0,-21.158647537231445,-1.663163661956787,0,0,0,40000
1089009,0.6107544302940369,-1.7416167259216309,7.0,-54.0,-20.822349548339844,-1.6566762924194336,0,0,0,40000
1089019,0.6153556108474731,-1.7616333961486816,-11.0,-43.0,-20.649620056152344,-1.702722430229187,0,0,0,40000
1089029,0.6280048489570618,-1.7782248258590698,18.0,-14.0,-20.49683380126953,-1.7972993850708008,0,0,0,40000
1089039,0.6270243525505066,-1.7960238456726074,-1.0,-46.0,-20.336387634277344,-1.8102481365203857,0,0,0,40000
1089049,0.6136108040809631,-1.7975387573242188,-1.0,15.0,-20.273317337036133,-1.7483112812042236,0,0,0,40000
1089059,0.6000710725784302,-1.7803149223327637,-28.0,45.0,-20.323028564453125,-1.6852537393569946,0,0,0,40000
1089069,0.5823400020599365,-1.757749319076538,-39.0,33.0,-20.405406951904297,-1.5966110229492188,0,0,0,40000
1089079,0.5685296058654785,-1.7339109182357788,-54.0,43.0,-20.496126174926758,-1.530979871749878,0,0,0,40000
1089089,0.547143816947937,-1.6820892095565796,-31.0,70.0,-20.755918502807617,-1.4192652702331543,0,0,0,40000
1089099,0.5220523476600647,-1.6592174768447876,-45.0,70.0,-20.843103408813477,-1.2846684455871582,0,0,0,40000
1089109,0.4946167767047882,-1.5999280214309692,-19.0,88.0,-21.15008544921875,-1.1351449489593506,0,0,0,40000
1089119,0.47190868854522705,-1.5779427289962769,-42.0,20.0,-21.23446273803711,-1.0133800506591797,0,0,0,40000
1089129,0.44537875056266785,-1.5615520477294922,-34.0,32.0,-21.285709381103516,-0.8678585290908813,0,0,0,40000
1089139,0.43302127718925476,-1.562601089477539,-30.0,19.0,-21.2325496673584,-0.8068318367004395,0,0,0,40000
1089149,0.4209282398223877,-1.5511882305145264,-31.0,14.0,-21.254356384277344,-0.7470914125442505,0,0,0,40000
1089159,0.41066402196884155,-1.5478180646896362,-5.0,0.0,-21.22808074951172,-0.697933554649353,0,0,0,40000
1089169,0.40681886672973633,-1.5729855298995972,-1.0,-59.0,-21.030269622802734,-0.6870613098144531,0,0,0,40000
1089179,0.40003207325935364,-1.6024078130722046,-4.0,-93.0,-20.806060791015625,-0.6584235429763794,0,0,0,40000
1089189,0.39535200595855713,-1.6534756422042847,-7.0,-63.0,-20.450576782226562,-0.64228355884552,0,0,0,40000
1089199,0.3993825912475586,-1.6793328523635864,5.0,-43.0,-20.245346069335938,-0.6784000396728516,0,0,0,40000
1089209,0.4198348820209503,-1.6934815645217896,38.0,-7.0,-20.10976791381836,-0.8133952617645264,0,0,0,40000
1089219,0.43960779905319214,-1.6848574876785278,25.0,40.0,-20.110828399658203,-0.9449832439422607,0,0,0,40000
1089229,0.4552074372768402,-1.649620771408081,28.0,67.0,-20.272260665893555,-1.0520386695861816,0,0,0,40000
1089239,0.46400347352027893,-1.6216310262680054,32.0,50.0,-20.391212463378906,-1.1186294555664062,0,0,0,40000
1089249,0.482540100812912,-1.5895752906799316,32.0,67.0,-20.545196533203125,-1.2413049936294556,0,0,0,40000
1089259,0.5079897046089172,-1.546736478805542,33.0,71.0,-20.755338668823242,-1.4088809490203857,0,0,0,40000
1089269,0.5205679535865784,-1.5182673931121826,24.0,47.0,-20.88026237487793,-1.499815583229065,0,0,0,40000
1089279,0.5360376238822937,-1.479135513305664,42.0,52.0,-21.070209503173828,-1.6084641218185425,0,0,0,40000
1089289,0.5564299821853638,-1.4540197849273682,16.0,52.0,-21.17698097229004,-1.7472606897354126,0,0,0,40000
1089299,0.5702180862426758,-1.4368219375610352,5.0,16.0,-21.236948013305664,-1.8469688892364502,0,0,0,40000
1089309,0.5718660950660706,-1.4349665641784668,15.0,-4.0,-21.205028533935547,-1.8739962577819824,0,0,0,40000
1089319,0.5728079080581665,-1.4453647136688232,-1.0,-40.0,-21.09949493408203,-1.8968768119812012,0,0,0,40000
1089329,0.575928270816803,-1.4605894088745117,-2.0,-54.0,-20.964523315429688,-1.9328618049621582,0,0,0,40000
1089339,0.5775763988494873,-1.505990982055664,-5.0,-76.0,-20.64756202697754,-1.9600886106491089,0,0,0,40000
1089349,0.571086049079895,-1.5477690696716309,-20.0,-102.0,-20.3509521484375,-1.9383809566497803,0,0,0,40000
1089359,0.5508190393447876,-1.6048678159713745,-33.0,-53.0,-19.9608154296875,-1.8336180448532104,0,0,0,40000
1089369,0.540621817111969,-1.6340850591659546,-42.0,-56.0,-19.736827850341797,-1.7887828350067139,0,0,0,40000
1089379,0.5235815048217773,-1.6655540466308594,-16.0,-37.0,-19.4984130859375,-1.7023578882217407,0,0,0,40000
1089389,0.507702648639679,-1.6726887226104736,-27.0,1.0,-19.40546989440918,-1.6225380897521973,0,0,0,40000
1089399,0.49515795707702637,-1.6433216333389282,-7.0,54.0,-19.531902313232422,-1.562238097190857,0,0,0,40000
1089409,0.4922656714916229,-1.6073369979858398,0.0,85.0,-19.69914436340332,-1.5596824884414673,0,0,0,40000
1089419,0.4890104830265045,-1.559314250946045,-19.0,73.0,-19.939998626708984,-1.5549012422561646,0,0,0,40000
1089429,0.4832780361175537,-1.5360865592956543,-23.0,33.0,-20.03302764892578,-1.5350836515426636,0,0,0,40000
1089439,0.46789610385894775,-1.5432740449905396,-27.0,-29.0,-19.94388198852539,-1.4570342302322388,0,0,0,40000
1089449,0.45436689257621765,-1.5646448135375977,-28.0,-66.0,-19.768993377685547,-1.3896465301513672,0,0,0,40000
1089459,0.42387762665748596,-1.6181546449661255,-37.0,-71.0,-19.40005874633789,-1.2197909355163574,0,0,0,40000
1089469,0.40348389744758606,-1.646881341934204,-23.0,-88.0,-19.178625106811523,-1.1097359657287598,0,0,0,40000
1089479,0.3839963972568512,-1.6870566606521606,-30.0,-36.0,-18.887351989746094,-1.0045907497406006,0,0,0,40000
1089489,0.3643437922000885,-1.694503903388977,-54.0,-30.0,-18.79192352294922,-0.8978784084320068,0,0,0,40000
1089499,0.325796902179718,-1.6999393701553345,-80.0,12.0,-18.708303451538086,-0.676895022392273,0,0,0,40000
1089509,0.29736655950546265,-1.695451259613037,-62.0,41.0,-18.684284210205078,-0.5155597925186157,0,0,0,40000
1089519,0.25444620847702026,-1.6869771480560303,-45.0,15.0,-18.684478759765625,-0.2661234140396118,0,0,0,40000
1089529,0.22599372267723083,-1.6816327571868896,-54.0,10.0,-18.666025161743164,-0.10254645347595215,0,0,0,40000
1089539,0.17463427782058716,-1.6577255725860596,-69.0,48.0,-18.759326934814453,0.19972741603851318,0,0,0,40000
1089549,0.14935140311717987,-1.6282440423965454,-60.0,77.0,-18.886993408203125,0.34664249420166016,0,0,0,40000
1089559,0.1131322905421257,-1.565126895904541,-51.0,94.0,-19.21802520751953,0.5601432919502258,0,0,0,40000
1089569,0.0960216298699379,-1.5129026174545288,-54.0,117.0,-19.485355377197266,0.6597131490707397,0,0,0,40000
1089579,0.06149936839938164,-1.4514718055725098,-50.0,79.0,-19.809749603271484,0.864610493183136,0,0,0,40000
1089589,0.042258065193891525,-1.4180378913879395,-24.0,87.0,-19.96737289428711,0.9785926342010498,0,0,0,40000
1089599,0.018384506925940514,-1.3738664388656616,-29.0,62.0,-20.19070816040039,1.1209852695465088,0,0,0,40000
1089609,0.0014412917662411928,-1.349938154220581,-24.0,34.0,-20.293506622314453,1.2223985195159912,0,0,0,40000
1089619,-0.01151719968765974,-1.3219287395477295,-33.0,1.0,-20.421628952026367,1.3003524541854858,0,0,0,40000
1089629,-0.01674380898475647,-1.3349121809005737,-26.0,-62.0,-20.30388641357422,1.3321471214294434,0,0,0,40000
1089639,-0.024441571906208992,-1.3917417526245117,3.0,-93.0,-19.92193031311035,1.3790379762649536,0,0,0,40000
1089649,-0.025524048134684563,-1.4635405540466309,-2.0,-184.0,-19.448131561279297,1.38629949092865,0,0,0,40000
1089659,-0.03301879018545151,-1.5878758430480957,0.0,-153.0,-18.655914306640625,1.4321553707122803,0,0,0,40000
1089669,-0.025634173303842545,-1.657814621925354,7.0,-135.0,-18.187381744384766,1.3887112140655518,0,0,0,40000
1089679,-0.013537385500967503,-1.7193251848220825,29.0,-55.0,-17.767242431640625,1.3167606592178345,0,0,0,40000
1089689,0.00416528107598424,-1.7244799137115479,44.0,2.0,-17.68460464477539,1.2106589078903198,0,0,0,40000
1089699,0.04717838391661644,-1.6886674165725708,42.0,58.0,-17.84825897216797,0.9517190456390381,0,0,0,40000
1089709,0.07114863395690918,-1.651853084564209,59.0,110.0,-18.01913070678711,0.8060672283172607,0,0,0,40000
1089719,0.09835918247699738,-1.578481674194336,35.0,132.0,-18.41103744506836,0.6401225328445435,0,0,0,40000
1089729,0.11380661278963089,-1.524741768836975,26.0,136.0,-18.687076568603516,0.5441953539848328,0,0,0,40000
1089739,0.1294899433851242,-1.4402117729187012,18.0,113.0,-19.150047302246094,0.4463651180267334,0,0,0,40000
1089749,0.141181081533432,-1.3790717124938965,5.0,123.0,-19.47478485107422,0.37213200330734253,0,0,0,40000
1089759,0.14902067184448242,-1.2962305545806885,10.0,102.0,-19.93197250366211,0.32075297832489014,0,0,0,40000
1089769,0.15155628323554993,-1.2525752782821655,-13.0,26.0,-20.155858993530273,0.30102044343948364,0,0,0,40000
1089779,0.13758626580238342,-1.2418485879898071,-23.0,-4.0,-20.18288230895996,0.38050609827041626,0,0,0,40000
1089789,0.12667816877365112,-1.2459685802459717,-20.0,-18.0,-20.1208438873291,0.44202733039855957,0,0,0,40000
1089799,0.10491044819355011,-1.2496211528778076,-30.0,28.0,-20.06128692626953,0.5692282915115356,0,0,0,40000
1089809,0.0852736160159111,-1.2387704849243164,-29.0,19.0,-20.08912467956543,0.6842363476753235,0,0,0,40000
1089819,0.06579151749610901,-1.2327245473861694,-35.0,-3.0,-20.088397979736328,0.7988973259925842,0,0,0,40000
1089829,0.04873885214328766,-1.2388410568237305,-50.0,-25.0,-20.014623641967773,0.8995426893234253,0,0,0,40000
1089839,0.02422287128865719,-1.2555574178695679,-30.0,-44.0,-19.876895904541016,1.0456812381744385,0,0,0,40000
1089849,0.01289360411465168,-1.279747486114502,-26.0,-24.0,-19.69363784790039,1.1131513118743896,0,0,0,40000
1089859,-0.0018542844336479902,-1.304709553718567,-18.0,-20.0,-19.505050659179688,1.2015470266342163,0,0,0,40000
1089869,-0.011837204918265343,-1.3067820072174072,-28.0,28.0,-19.453426361083984,1.2616939544677734,0,0,0,40000
1089879,-0.0322563461959362,-1.2793169021606445,-25.0,64.0,-19.579435348510742,1.3849632740020752,0,0,0,40000
1089889,-0.03827493637800217,-1.241615891456604,-5.0,79.0,-19.767948150634766,1.4221633672714233,0,0,0,40000
1089899,-0.038310155272483826,-1.1677649021148682,13.0,123.0,-20.175012588500977,1.4235889911651611,0,0,0,40000
1089909,-0.04223731905221939,-1.120681881904602,12.0,92.0,-20.423343658447266,1.4483840465545654,0,0,0,40000
1089919,-0.035884786397218704,-1.05441153049469,3.0,93.0,-20.788516998291016,1.4113869667053223,0,0,0,40000
1089929,-0.04002512991428375,-1.0139951705932617,-12.0,91.0,-21.00010871887207,1.43739914894104,0,0,0,40000
1089939,-0.039133280515670776,-0.9547836184501648,15.0,73.0,-21.326087951660156,1.4333171844482422,0,0,0,40000
1089949,-0.036264754831790924,-0.9297148585319519,30.0,37.0,-21.448307037353516,1.4172630310058594,0,0,0,40000
1089959,-0.01806214079260826,-0.9119833111763,31.0,23.0,-21.527111053466797,1.3088291883468628,0,0,0,40000
1089969,-0.011126994155347347,-0.915330708026886,17.0,-45.0,-21.479652404785156,1.2676080465316772,0,0,0,40000
1089979,0.008589367382228374,-0.9552329778671265,41.0,-86.0,-21.212121963500977,1.1493442058563232,0,0,0,40000
1089989,0.03493505343794823,-0.9961693286895752,39.0,-89.0,-20.93711280822754,0.9905484914779663,0,0,0,40000
1089999,0.05617689713835716,-1.0712231397628784,42.0,-110.0,-20.455615997314453,0.8616769313812256,0,0,0,40000
1090009,0.0678577646613121,-1.1143850088119507,51.0,-72.0,-20.16370391845703,0.7896996736526489,0,0,0,40000
1090019,0.09949753433465958,-1.1573222875595093,53.0,-39.0,-19.87178611755371,0.5972106456756592,0,0,0,40000
1090029,0.11392796784639359,-1.1876561641693115,30.0,-55.0,-19.65452003479004,0.5073555111885071,0,0,0,40000
1090039,0.14225824177265167,-1.2114663124084473,40.0,-21.0,-19.475509643554688,0.33348941802978516,0,0,0,40000
1090049,0.16641707718372345,-1.2096530199050903,48.0,8.0,-19.4500732421875,0.18384766578674316,0,0,0,40000
1090059,0.20685166120529175,-1.1955078840255737,63.0,13.0,-19.498912811279297,-0.0644146203994751,0,0,0,40000
1090069,0.23653437197208405,-1.1800055503845215,66.0,48.0,-19.55630874633789,-0.24924910068511963,0,0,0,40000
1090079,0.26578766107559204,-1.1308752298355103,46.0,108.0,-19.81641387939453,-0.43244850635528564,0,0,0,40000
1090089,0.28923121094703674,-1.083683729171753,33.0,89.0,-20.066484451293945,-0.5815150737762451,0,0,0,40000
1090099,0.32057705521583557,-1.0537630319595337,48.0,38.0,-20.214107513427734,-0.7787907123565674,0,0,0,40000
1090109,0.3356657922267914,-1.049389362335205,41.0,15.0,-20.208831787109375,-0.8791801929473877,0,0,0,40000
1090119,0.36709827184677124,-1.030230164527893,52.0,22.0,-20.292644500732422,-1.078362226486206,0,0,0,40000
1090129,0.36988088488578796,-1.0266523361206055,12.0,1.0,-20.283308029174805,-1.1061651706695557,0,0,0,40000
1090139,0.38071757555007935,-1.0192071199417114,8.0,23.0,-20.297237396240234,-1.1825315952301025,0,0,0,40000
1090149,0.39485964179039,-0.9964885711669922,23.0,48.0,-20.403385162353516,-1.2790582180023193,0,0,0,40000
1090159,0.4020169675350189,-0.9750346541404724,19.0,40.0,-20.502574920654297,-1.3339310884475708,0,0,0,40000
1090169,0.40885820984840393,-0.9604427814483643,12.0,45.0,-20.561140060424805,-1.387178659439087,0,0,0,40000
1090179,0.4014659821987152,-0.940983772277832,-10.0,20.0,-20.649477005004883,-1.3550190925598145,0,0,0,40000
1090189,0.3993191123008728,-0.9381749033927917,-5.0,-3.0,-20.638179779052734,-1.3541650772094727,0,0,0,40000
1090199,0.40090543031692505,-0.9396976232528687,-23.0,-14.0,-20.600934982299805,-1.3757867813110352,0,0,0,40000
1090209,0.3985348045825958,-0.9434266686439514,13.0,0.0,-20.550289154052734,-1.373477578163147,0,0,0,40000
1090219,0.3982286751270294,-0.9418957233428955,33.0,15.0,-20.53115463256836,-1.3834755420684814,0,0,0,40000
1090229,0.39737504720687866,-0.940030574798584,-2.0,-6.0,-20.51413345336914,-1.3903311491012573,0,0,0,40000
1090239,0.3997473120689392,-0.939501166343689,-16.0,11.0,-20.489059448242188,-1.4165829420089722,0,0,0,40000
1090249,0.41327667236328125,-0.9226595759391785,-3.0,48.0,-20.562191009521484,-1.5100152492523193,0,0,0,40000
1090259,0.4137284457683563,-0.8779000043869019,16.0,75.0,-20.803791046142578,-1.5250288248062134,0,0,0,40000
1090269,0.4140523076057434,-0.8439499139785767,11.0,66.0,-20.981731414794922,-1.5393542051315308,0,0,0,40000
1090279,0.39998993277549744,-0.7816130518913269,-14.0,95.0,-21.331539154052734,-1.4671740531921387,0,0,0,40000
1090289,0.4018334746360779,-0.7467468976974487,-14.0,91.0,-21.51793670654297,-1.4903182983398438,0,0,0,40000
1090299,0.3944309949874878,-0.6865039467811584,-12.0,71.0,-21.858137130737305,-1.457795262336731,0,0,0,40000
1090309,0.3880455493927002,-0.6630218029022217,-6.0,42.0,-21.978878021240234,-1.4311411380767822,0,0,0,40000
1090319,0.3768532872200012,-0.6320531964302063,-5.0,46.0,-22.14537811279297,-1.375378131866455,0,0,0,40000
1090329,0.35093796253204346,-0.6204485893249512,-45.0,17.0,-22.19628143310547,-1.230753779411316,0,0,0,40000
1090339,0.3260563313961029,-0.5893644094467163,-43.0,51.0,-22.364654541015625,-1.0915899276733398,0,0,0,40000
1090349,0.30306681990623474,-0.5867757201194763,-66.0,-37.0,-22.362607955932617,-0.9630628228187561,0,0,0,40000
1090359,0.2604706883430481,-0.6414903402328491,-53.0,-110.0,-22.015869140625,-0.7157539129257202,0,0,0,40000
1090369,0.24096891283988953,-0.7066863179206848,-37.0,-139.0,-21.604320526123047,-0.6061650514602661,0,0,0,40000
1090379,0.20231175422668457,-0.8150420784950256,-49.0,-171.0,-20.931081771850586,-0.3807508945465088,0,0,0,40000
1090389,0.16575907170772552,-0.8955478668212891,-77.0,-176.0,-20.422147750854492,-0.16684240102767944,0,0,0,40000
1090399,0.11453592032194138,-1.0072603225708008,-75.0,-140.0,-19.722885131835938,0.13639646768569946,0,0,0,40000
1090409,0.08100136369466782,-1.0507620573043823,-71.0,-64.0,-19.430850982666016,0.33475297689437866,0,0,0,40000
1090419,0.04221413657069206,-1.0599802732467651,-47.0,10.0,-19.343711853027344,0.5657732486724854,0,0,0,40000
1090429,0.02312612533569336,-1.0483945608139038,-46.0,25.0,-19.38162612915039,0.6793878078460693,0,0,0,40000
1090439,-0.0024169061798602343,-1.0267069339752197,-27.0,56.0,-19.480573654174805,0.8324832916259766,0,0,0,40000
1090449,-0.020313819870352745,-1.0042792558670044,-28.0,54.0,-19.584758758544922,0.9402538537979126,0,0,0,40000
1090459,-0.03530288115143776,-0.9435612559318542,-5.0,96.0,-19.91996955871582,1.0311071872711182,0,0,0,40000
1090469,-0.04379851743578911,-0.8961678743362427,-19.0,106.0,-20.17685317993164,1.0832793712615967,0,0,0,40000
1090479,-0.05650161951780319,-0.8430496454238892,-18.0,66.0,-20.469688415527344,1.1610190868377686,0,0,0,40000
1090489,-0.05004321038722992,-0.8237428069114685,24.0,51.0,-20.560558319091797,1.1238837242126465,0,0,0,40000
1090499,-0.03796519339084625,-0.8055105209350586,12.0,18.0,-20.645658493041992,1.0526798963546753,0,0,0,40000
1090509,-0.025035593658685684,-0.7942304611206055,32.0,18.0,-20.68941879272461,0.9760267734527588,0,0,0,40000
1090519,-0.00903317704796791,-0.7829492688179016,16.0,20.0,-20.73345184326172,0.8804181218147278,0,0,0,40000
1090529,0.0024174307473003864,-0.7761050462722778,21.0,17.0,-20.751129150390625,0.8117656111717224,0,0,0,40000
1090539,0.025816483423113823,-0.7704347968101501,40.0,13.0,-20.76194953918457,0.6709177494049072,0,0,0,40000
1090549,0.04532437399029732,-0.7751227021217346,53.0,-29.0,-20.710664749145508,0.5527849197387695,0,0,0,40000
1090559,0.07933315634727478,-0.8054632544517517,57.0,-47.0,-20.50485610961914,0.3467971086502075,0,0,0,40000
1090569,0.1025964766740799,-0.8412564396858215,55.0,-117.0,-20.265321731567383,0.2044135332107544,0,0,0,40000
1090579,0.13536210358142853,-0.9492924213409424,33.0,-173.0,-19.59005355834961,0.004080772399902344,0,0,0,40000
1090589,0.15674138069152832,-1.0263406038284302,38.0,-151.0,-19.09789276123047,-0.12863785028457642,0,0,0,40000
1090599,0.1748506724834442,-1.137527346611023,26.0,-154.0,-18.397953033447266,-0.24234306812286377,0,0,0,40000
1090609,0.18795771896839142,-1.1886217594146729,31.0,-90.0,-18.056297302246094,-0.32648342847824097,0,0,0,40000
1090619,0.20412306487560272,-1.216997504234314,24.0,-11.0,-17.849679946899414,-0.4294261932373047,0,0,0,40000
1090629,0.2177337110042572,-1.2053325176239014,41.0,53.0,-17.883346557617188,-0.5174524188041687,0,0,0,40000
1090639,0.24262921512126923,-1.1514577865600586,21.0,84.0,-18.171342849731445,-0.6738511323928833,0,0,0,40000
1090649,0.2559075355529785,-1.0959547758102417,23.0,123.0,-18.470794677734375,-0.7610473036766052,0,0,0,40000
1090659,0.27049747109413147,-1.023499608039856,24.0,101.0,-18.873977661132812,-0.8564894199371338,0,0,0,40000
1090669,0.2763509750366211,-0.9809939861297607,4.0,101.0,-19.099092483520508,-0.8998410701751709,0,0,0,40000
1090679,0.2783028781414032,-0.9118583798408508,0.0,97.0,-19.485782623291016,-0.9199140071868896,0,0,0,40000
1090689,0.2757118046283722,-0.8711192607879639,-25.0,75.0,-19.70362663269043,-0.9127025008201599,0,0,0,40000
1090699,0.2678995728492737,-0.8169897198677063,-7.0,82.0,-20.00322723388672,-0.8739109635353088,0,0,0,40000
1090709,0.2655535638332367,-0.7813555598258972,-23.0,63.0,-20.19317626953125,-0.8678543567657471,0,0,0,40000
1090719,0.2572076916694641,-0.7470407485961914,-15.0,47.0,-20.376306533813477,-0.8255876898765564,0,0,0,40000
1090729,0.243856281042099,-0.740940272808075,-43.0,-10.0,-20.390640258789062,-0.7529836893081665,0,0,0,40000
1090739,0.22316350042819977,-0.7781464457511902,-16.0,-51.0,-20.144590377807617,-0.6356985569000244,0,0,0,40000
1090749,0.21891431510448456,-0.8137180805206299,-10.0,-80.0,-19.90717887878418,-0.616824746131897,0,0,0,40000
1090759,0.19223544001579285,-0.8787493705749512,-37.0,-103.0,-19.49144744873047,-0.4628503918647766,0,0,0,40000
1090769,0.18005898594856262,-0.9079421758651733,-20.0,-47.0,-19.289386749267578,-0.395338773727417,0,0,0,40000
1090779,0.17370082437992096,-0.9302549958229065,-4.0,-29.0,-19.127840042114258,-0.36244112253189087,0,0,0,40000
1090789,0.1658012866973877,-0.9256253838539124,-8.0,28.0,-19.12775421142578,-0.3201119899749756,0,0,0,40000
1090799,0.16019868850708008,-0.906943142414093,1.0,39.0,-19.212398529052734,-0.29137539863586426,0,0,0,40000
1090809,0.16678519546985626,-0.895629346370697,14.0,28.0,-19.253297805786133,-0.33583247661590576,0,0,0,40000
1090819,0.17906849086284637,-0.8752056956291199,11.0,34.0,-19.349267959594727,-0.4147586226463318,0,0,0,40000
1090829,0.1899113953113556,-0.8505955934524536,13.0,46.0,-19.476207733154297,-0.48425227403640747,0,0,0,40000
1090839,0.215240478515625,-0.8187162280082703,52.0,47.0,-19.637447357177734,-0.6434403657913208,0,0,0,40000
1090849,0.2385053187608719,-0.7907785773277283,44.0,55.0,-19.785757064819336,-0.7884832620620728,0,0,0,40000
1090859,0.26330721378326416,-0.767789900302887,25.0,20.0,-19.895708084106445,-0.9463801383972168,0,0,0,40000
1090869,0.2834426760673523,-0.7632280588150024,38.0,-10.0,-19.904754638671875,-1.0737583637237549,0,0,0,40000
1090879,0.2948102653026581,-0.7973819375038147,19.0,-47.0,-19.671794891357422,-1.1524114608764648,0,0,0,40000
1090889,0.3023473918437958,-0.8208248019218445,20.0,-45.0,-19.511703491210938,-1.2048250436782837,0,0,0,40000
1090899,0.32840287685394287,-0.8219292163848877,15.0,19.0,-19.475399017333984,-1.3726041316986084,0,0,0,40000
1090909,0.3499981164932251,-0.7987934350967407,32.0,49.0,-19.594743728637695,-1.5103005170822144,0,0,0,40000
1090919,0.37290388345718384,-0.7588793039321899,38.0,57.0,-19.806224822998047,-1.6607017517089844,0,0,0,40000
1090929,0.3828218877315521,-0.7460336089134216,33.0,49.0,-19.865205764770508,-1.7292636632919312,0,0,0,40000
1090939,0.3982142210006714,-0.7455214858055115,11.0,0.0,-19.841564178466797,-1.835745096206665,0,0,0,40000
1090949,0.4097805321216583,-0.7547644376754761,14.0,-6.0,-19.768096923828125,-1.9148685932159424,0,0,0,40000
1090959,0.4199572503566742,-0.7719385623931885,21.0,-35.0,-19.63762092590332,-1.9908156394958496,0,0,0,40000
1090969,0.43113282322883606,-0.7907141447067261,35.0,-56.0,-19.506210327148438,-2.0680465698242188,0,0,0,40000
1090979,0.44950008392333984,-0.8162973523139954,21.0,-26.0,-19.323745727539062,-2.194183111190796,0,0,0,40000
1090989,0.45420244336128235,-0.8272354006767273,2.0,-33.0,-19.23839569091797,-2.2332615852355957,0,0,0,40000
1090999,0.4616573750972748,-0.8600344061851501,5.0,-61.0,-19.011301040649414,-2.2945287227630615,0,0,0,40000
1091009,0.4705456495285034,-0.8947555422782898,14.0,-79.0,-18.78192138671875,-2.3590590953826904,0,0,0,40000
1091019,0.47531741857528687,-0.9592888355255127,6.0,-101.0,-18.361431121826172,-2.4047412872314453,0,0,0,40000
1091029,0.4737253487110138,-1.0113190412521362,-11.0,-115.0,-18.025588989257812,-2.406586170196533,0,0,0,40000
1091039,0.4782407879829407,-1.067980170249939,6.0,-120.0,-17.654294967651367,-2.4479622840881348,0,0,0,40000
1091049,0.47976696491241455,-1.1421257257461548,-18.0,-107.0,-17.176042556762695,-2.4715473651885986,0,0,0,40000
1091059,0.4791886806488037,-1.1718674898147583,-20.0,-66.0,-16.962749481201172,-2.482480764389038,0,0,0,40000
1091069,0.46228912472724915,-1.203062891960144,-24.0,-24.0,-16.73978042602539,-2.3951830863952637,0,0,0,40000
1091079,0.45829305052757263,-1.1963629722595215,-18.0,39.0,-16.743988037109375,-2.385005235671997,0,0,0,40000
1091089,0.44883137941360474,-1.1470774412155151,-8.0,115.0,-17.00452423095703,-2.341825485229492,0,0,0,40000
1091099,0.4307369589805603,-1.0854741334915161,-69.0,161.0,-17.340808868408203,-2.246436595916748,0,0,0,40000
1091109,0.39009952545166016,-0.9800387620925903,-53.0,169.0,-17.942745208740234,-2.0147817134857178,0,0,0,40000
1091119,0.3623674809932709,-0.9097415804862976,-78.0,133.0,-18.336410522460938,-1.8596086502075195,0,0,0,40000
1091129,0.3071351647377014,-0.8091418147087097,-75.0,112.0,-18.91459846496582,-1.538092851638794,0,0,0,40000
1091139,0.26834532618522644,-0.7555485963821411,-88.0,105.0,-19.21286392211914,-1.3138794898986816,0,0,0,40000
1091149,0.2035352885723114,-0.6981527209281921,-92.0,93.0,-19.535633087158203,-0.9318971633911133,0,0,0,40000
1091159,0.15815512835979462,-0.6697813868522644,-80.0,58.0,-19.685461044311523,-0.6649035215377808,0,0,0,40000
1091169,0.10006288439035416,-0.6286506056785583,-93.0,40.0,-19.91291046142578,-0.3200659155845642,0,0,0,40000
1091179,0.06716699153184891,-0.6088424921035767,-75.0,44.0,-20.01324462890625,-0.1250743269920349,0,0,0,40000
1091189,0.01144847460091114,-0.569909393787384,-83.0,66.0,-20.22919464111328,0.2081993669271469,0,0,0,40000
1091199,-0.033118799328804016,-0.5416523814201355,-72.0,53.0,-20.382150650024414,0.476066529750824,0,0,0,40000
1091209,-0.08841358870267868,-0.5114752650260925,-68.0,28.0,-20.547582626342773,0.8098059296607971,0,0,0,40000
1091219,-0.1110944151878357,-0.4971057176589966,-41.0,20.0,-20.618703842163086,0.9489827156066895,0,0,0,40000
1091229,-0.12822116911411285,-0.5073025226593018,-25.0,-38.0,-20.542512893676758,1.0554447174072266,0,0,0,40000
1091239,-0.13205236196517944,-0.531751811504364,14.0,-19.0,-20.380126953125,1.08235502243042,0,0,0,40000
1091249,-0.11601243168115616,-0.5199925899505615,20.0,42.0,-20.43476676940918,0.9897911548614502,0,0,0,40000
1091259,-0.10720526427030563,-0.4896971881389618,16.0,57.0,-20.60147476196289,0.9402775764465332,0,0,0,40000
1091269,-0.08921605348587036,-0.44180476665496826,37.0,86.0,-20.87490463256836,0.8353070020675659,0,30,0,40000
1091279,-0.06581532210111618,-0.40380197763442993,46.0,64.0,-201.81033325195312,0.6971753239631653,0,30,0,40000
1091289,-0.040137879550457,-0.39925163984298706,60.0,-65.0,-202.7259063720703,0.5446823835372925,0,30,0,40000
1091299,-0.011277412995696068,-0.5040867328643799,56.0,-384.0,-202.9832305908203,0.37222030758857727,0,30,0,40000
1091309,0.02776673436164856,-0.9138229489326477,64.0,-828.0,-201.4032745361328,0.13763853907585144,0,30,0,40000
1091319,0.05622643977403641,-1.4233546257019043,66.0,-1402.0,-199.20982360839844,-0.03445345163345337,0,30,0,40000
1091329,0.09747519344091415,-2.6018638610839844,53.0,-2032.0,-192.97625732421875,-0.28440001606941223,0,30,0,40000
1091339,0.11994500458240509,-3.665557861328125,54.0,-2645.0,-187.39723205566406,-0.42254966497421265,0,30,0,40000
1091349,0.1541849821805954,-5.671403408050537,50.0,-3168.0,-176.11720275878906,-0.6322177052497864,0,30,0,40000
1091359,0.17356961965560913,-7.222042083740234,63.0,-3543.0,-167.51553344726562,-0.7534759640693665,0,30,0,40000
1091369,0.1997038722038269,-9.73118782043457,47.0,-3739.0,-153.09927368164062,-0.9159489870071411,0,30,0,40000
1091379,0.21452437341213226,-11.443763732910156,27.0,-3717.0,-143.40106201171875,-1.0111620426177979,0,30,0,40000
1091389,0.2142803817987442,-13.925847053527832,-15.0,-3489.0,-129.02011108398438,-1.01625657081604,0,30,0,40000
1091399,0.21483100950717926,-15.43011474609375,-24.0,-3083.0,-120.44941711425781,-1.0260331630706787,0,30,0,40000
1091409,0.1929345726966858,-17.366025924682617,-22.0,-2562.0,-109.23503112792969,-0.9006469249725342,0,30,0,40000
1091419,0.1758808195590973,-18.418132781982422,-16.0,-2040.0,-103.28218841552734,-0.8037814497947693,0,30,0,40000
1091429,0.1351308524608612,-19.64149284362793,-35.0,-1519.0,-96.26631164550781,-0.5638996362686157,0,30,0,40000
1091439,0.10711805522441864,-20.225873947143555,-59.0,-1052.0,-93.05996704101562,-0.3993958830833435,0,30,0,40000
1091449,0.05234375596046448,-20.821958541870117,-66.0,-701.0,-89.76518249511719,-0.07304123044013977,0,30,0,40000
1091459,0.01716224104166031,-21.08759307861328,-80.0,-458.0,-88.44181823730469,0.13710571825504303,0,30,0,40000
1091469,-0.04346257448196411,-21.363534927368164,-71.0,-350.0,-87.04832458496094,0.5014077425003052,0,30,0,40000
1091479,-0.0936867818236351,-21.514299392700195,-83.0,-330.0,-86.40010070800781,0.8049678206443787,0,30,0,40000
1091489,-0.15897127985954285,-21.754226684570312,-63.0,-372.0,-85.21088409423828,1.200680136680603,0,30,0,40000
1091499,-0.19705501198768616,-21.954736709594727,-86.0,-505.0,-84.25167846679688,1.4346425533294678,0,30,0,40000
1091509,-0.2534860372543335,-22.345544815063477,-46.0,-653.0,-82.14149475097656,1.7801897525787354,0,30,0,40000
1091519,-0.28557494282722473,-22.694171905517578,-82.0,-844.0,-80.27323150634766,1.980892539024353,0,30,0,40000
1091529,-0.33740440011024475,-23.34001922607422,-37.0,-1049.0,-76.60616302490234,2.3014447689056396,0,30,0,40000
1091539,-0.3596686124801636,-23.852937698364258,-32.0,-1172.0,-73.71929931640625,2.4455385208129883,0,30,0,40000
1091549,-0.3893086016178131,-24.675052642822266,-13.0,-1237.0,-68.95633697509766,2.634713649749756,0,30,0,40000
1091559,-0.3954794406890869,-25.241865158081055,-24.0,-1248.0,-65.70501708984375,2.6835198402404785,0,30,0,40000
1091569,-0.399455189704895,-26.078760147094727,31.0,-1202.0,-60.811222076416016,2.719371795654297,0,30,0,40000
1091579,-0.39867931604385376,-26.615001678466797,10.0,-1116.0,-57.70171356201172,2.7267301082611084,0,30,0,40000
1091589,-0.3783215880393982,-27.328794479370117,43.0,-963.0,-53.507286071777344,2.6161856651306152,0,30,0,40000
1091599,-0.3620028495788574,-27.729690551757812,37.0,-776.0,-51.17474365234375,2.5293161869049072,0,30,0,40000
1091609,-0.32937589287757874,-28.205224990844727,57.0,-589.0,-48.38064956665039,2.3437905311584473,0,30,0,40000
1091619,-0.3084937632083893,-28.42959213256836,31.0,-385.0,-47.0841064453125,2.2279868125915527,0,30,0,40000
1091629,-0.2727113664150238,-28.62741470336914,35.0,-228.0,-45.94036865234375,2.021958351135254,0,30,0,40000
1091639,-0.2509636878967285,-28.70412826538086,26.0,-124.0,-45.51985168457031,1.8992582559585571,0,30,0,40000
1091649,-0.21000389754772186,-28.75581169128418,45.0,-43.0,-45.247493743896484,1.660298466682434,0,30,0,40000
1091659,-0.19010089337825775,-28.778409957885742,32.0,-32.0,-45.1488151550293,1.5468111038208008,0,30,0,40000
1091669,-0.1553952395915985,-28.820512771606445,12.0,-64.0,-44.9321174621582,1.3434913158416748,0,30,0,40000
1091679,-0.13595640659332275,-28.853736877441406,0.0,-116.0,-44.767616271972656,1.2311573028564453,0,30,0,40000
1091689,-0.1243080273270607,-28.959505081176758,8.0,-170.0,-44.165584564208984,1.1652475595474243,0,30,0,40000
1091699,-0.1269139051437378,-29.064985275268555,28.0,-291.0,-43.56207275390625,1.1846587657928467,0,30,0,40000
1091709,-0.12896348536014557,-29.292253494262695,-6.0,-388.0,-42.22263717651367,1.2007277011871338,0,30,0,40000
1091719,-0.13658998906612396,-29.494098663330078,-17.0,-487.0,-41.029212951660156,1.2504372596740723,0,30,0,40000
