timestamp,stabilizer.roll,stabilizer.pitch,stateEstimateZ.rateRoll,stateEstimateZ.ratePitch,controller.pitchRate,controller.rollRate,roll,pitch,yawdot,thrust
872006,-35.97016906738281,64.45946502685547,-7.0,5.0,-389.4640197753906,217.33120727539062,0,0,0,40000
872016,-36.00485610961914,64.45575714111328,-3.0,17.0,-391.3755187988281,218.61903381347656,0,0,0,40000
872026,-36.034217834472656,64.40837097167969,-30.0,-96.0,-393.0242614746094,219.87615966796875,0,0,0,40000
872036,-36.027713775634766,64.34918975830078,-61.0,-157.0,-394.6004638671875,220.91815185546875,0,0,0,40000
872046,-35.92262268066406,64.16987609863281,-48.0,-402.0,-395.4522705078125,221.36724853515625,0,0,0,40000
872056,-35.68049621582031,63.940216064453125,33.0,-653.0,-395.995361328125,220.9879150390625,0,0,0,40000
872066,-35.07648849487305,63.42787170410156,26.0,-1106.0,-394.8310546875,218.42453002929688,0,0,0,40000
872076,-34.39231872558594,62.89585876464844,-11.0,-1646.0,-393.532470703125,215.35975646972656,0,0,0,40000
872086,-32.962162017822266,61.77798080444336,13.0,-2273.0,-388.69305419921875,207.78616333007812,0,0,0,40000
872096,-31.74005889892578,60.762001037597656,90.0,-3023.0,-384.4325866699219,201.42076110839844,0,0,0,40000
872106,-29.564149856567383,58.77168273925781,115.0,-3840.0,-374.2793884277344,189.2794647216797,0,0,0,40000
872116,-27.915857315063477,57.09394454956055,105.0,-4704.0,-365.9463195800781,180.24703979492188,0,0,0,40000
872126,-25.297866821289062,53.99569320678711,191.0,-5604.0,-349.01580810546875,165.3297882080078,0,0,0,40000
872136,-23.51347541809082,51.509525299072266,274.0,-6616.0,-335.6744689941406,155.35031127929688,0,0,0,40000
872146,-20.869434356689453,47.1181640625,377.0,-7520.0,-310.7945861816406,140.1435546875,0,0,0,40000
872156,-19.178077697753906,43.83439254760742,504.0,-8123.0,-292.4467468261719,130.59091186523438,0,0,0,40000
872166,-16.836734771728516,38.54188919067383,736.0,-8491.0,-261.9124755859375,117.07557678222656,0,0,0,40000
872176,-15.396918296813965,34.85490417480469,978.0,-8658.0,-240.88052368164062,108.915771484375,0,0,0,40000
872186,-13.415274620056152,29.270418167114258,1233.0,-8556.0,-208.31869506835938,97.45169067382812,0,0,0,40000
872196,-12.172428131103516,25.61664581298828,1454.0,-8202.0,-187.20831298828125,90.37450408935547,0,0,0,40000
872206,-10.362151145935059,20.383480072021484,1727.0,-7660.0,-156.48260498046875,79.84526062011719,0,0,0,40000
872216,-9.180781364440918,17.15981674194336,2030.0,-6916.0,-137.6936798095703,73.04672241210938,0,0,0,40000
872226,-7.408071517944336,12.893348693847656,2276.0,-5908.0,-112.53077697753906,62.65416717529297,0,0,0,40000
872236,-6.203471660614014,10.5014066696167,2494.0,-4721.0,-98.52226257324219,55.627159118652344,0,0,0,40000
872246,-4.344141483306885,7.73851203918457,2631.0,-3458.0,-82.20753479003906,44.62387466430664,0,0,0,40000
872256,-3.080397367477417,6.518773555755615,2692.0,-1979.0,-75.0985107421875,37.14892578125,0,0,0,40000
872266,-1.1788512468338013,5.701000690460205,2714.0,-431.0,-70.3692626953125,25.797786712646484,0,0,0,40000
872276,0.09227139502763748,5.828138828277588,2711.0,949.0,-71.30464935302734,18.18355369567871,0,0,0,40000
872286,1.9636268615722656,6.853891372680664,2698.0,1995.0,-77.65019989013672,6.919000625610352,0,0,0,40000
872296,3.184633493423462,7.94978666305542,2599.0,2789.0,-84.45046997070312,-0.48796653747558594,0,0,0,40000
872306,4.967890739440918,10.0278902053833,2424.0,3301.0,-97.19389343261719,-11.315526962280273,0,0,0,40000
872316,6.113011360168457,11.596954345703125,2263.0,3623.0,-106.93719482421875,-18.355993270874023,0,0,0,40000
872326,7.746922969818115,14.085260391235352,2064.0,3772.0,-122.25949096679688,-28.372591018676758,0,0,0,40000
872336,8.762773513793945,15.772599220275879,1889.0,3799.0,-132.83642578125,-34.71842575073242,0,0,0,40000
872346,10.173295974731445,18.234691619873047,1597.0,3637.0,-148.126953125,-43.47035217285156,0,0,0,40000
872356,11.012497901916504,19.771224975585938,1369.0,3387.0,-157.92100524902344,-48.82598876953125,0,0,0,40000
872366,12.134285926818848,21.839092254638672,1074.0,2971.0,-170.9594268798828,-55.907962799072266,0,0,0,40000
872376,12.770605087280273,23.016651153564453,827.0,2457.0,-178.70144653320312,-60.10153579711914,0,0,0,40000
872386,13.538658142089844,24.395156860351562,592.0,1844.0,-187.6890869140625,-65.10747528076172,0,0,0,40000
872396,13.902605056762695,25.029573440551758,391.0,1129.0,-192.23922729492188,-67.70397186279297,0,0,0,40000
872406,14.222726821899414,25.486106872558594,181.0,358.0,-195.73910522460938,-70.04826354980469,0,0,0,40000
872416,14.269912719726562,25.454030990600586,-9.0,-454.0,-196.31106567382812,-70.75906372070312,0,0,0,40000
872426,14.093817710876465,24.84000015258789,-253.0,-1374.0,-193.38137817382812,-70.12828063964844,0,0,0,40000
872436,13.821964263916016,24.027498245239258,-450.0,-2374.0,-189.23745727539062,-68.91532135009766,0,0,0,40000
872446,13.216828346252441,22.149818420410156,-640.0,-3363.0,-178.6605224609375,-65.68887329101562,0,0,0,40000
872456,12.691341400146484,20.440954208374023,-798.0,-4397.0,-169.04165649414062,-62.92310333251953,0,0,0,40000
872466,11.763002395629883,17.297636032104492,-968.0,-5071.0,-150.73985290527344,-57.71738815307617,0,0,0,40000
872476,11.083356857299805,14.967876434326172,-1163.0,-5409.0,-137.23849487304688,-53.98023986816406,0,0,0,40000
872486,10.008983612060547,11.359002113342285,-1363.0,-5406.0,-115.9693374633789,-47.84745407104492,0,0,0,40000
872496,9.252296447753906,8.99928092956543,-1536.0,-5142.0,-102.109130859375,-43.59406661987305,0,0,0,40000
872506,8.076022148132324,5.688168525695801,-1679.0,-4645.0,-82.45184326171875,-36.79295349121094,0,0,0,40000
872516,7.260896682739258,3.7370550632476807,-1761.0,-3991.0,-70.88033294677734,-32.12982177734375,0,0,0,40000
872526,6.007072925567627,1.313352108001709,-1839.0,-3168.0,-56.40481185913086,-24.802257537841797,0,0,0,40000
872536,5.149622917175293,0.07640881836414337,-1884.0,-2221.0,-48.99977493286133,-19.82236099243164,0,0,0,40000
872546,3.863537311553955,-1.099585771560669,-1874.0,-1198.0,-41.92274475097656,-12.237176895141602,0,0,0,40000
872556,3.006694793701172,-1.409501314163208,-1836.0,-134.0,-40.02409362792969,-7.196551322937012,0,0,0,40000
872566,1.7716126441955566,-1.1637651920318604,-1774.0,799.0,-41.45861053466797,0.14616012573242188,0,0,0,40000
872576,0.9719619154930115,-0.6359851956367493,-1673.0,1485.0,-44.599517822265625,4.905354022979736,0,0,0,40000
872586,-0.14740398526191711,0.5292827486991882,-1569.0,1898.0,-51.59210205078125,11.612749099731445,0,0,0,40000
872596,-0.8392218947410583,1.4591822624206543,-1462.0,2131.0,-57.20402908325195,15.780574798583984,0,0,0,40000
872606,-1.7888187170028687,2.950525999069214,-1303.0,2192.0,-66.22252655029297,21.520767211914062,0,0,0,40000
872616,-2.352857828140259,3.927658796310425,-1119.0,2105.0,-72.19146728515625,24.968921661376953,0,0,0,40000
872626,-3.0689401626586914,5.297076225280762,-927.0,1886.0,-80.55088806152344,29.349271774291992,0,0,0,40000
872636,-3.4615564346313477,6.09455680847168,-734.0,1589.0,-85.50923156738281,31.80419921875,0,0,0,40000
872646,-3.9184281826019287,7.033522129058838,-553.0,1163.0,-91.34371948242188,34.657958984375,0,0,0,40000
872656,-4.132750034332275,7.437893867492676,-338.0,659.0,-93.98853302001953,36.06544876098633,0,0,0,40000
872666,-4.3119049072265625,7.67952823638916,-143.0,56.0,-95.66707611083984,37.26804733276367,0,0,0,40000
872676,-4.336297035217285,7.553103923797607,81.0,-610.0,-95.13700866699219,37.54429626464844,0,0,0,40000
872686,-4.222956657409668,6.894915580749512,244.0,-1340.0,-91.4041519165039,36.992610931396484,0,0,0,40000
872696,-4.048109531402588,6.10760498046875,422.0,-2139.0,-86.87344360351562,36.06715774536133,0,0,0,40000
872706,-3.668039560317993,4.404488563537598,605.0,-2799.0,-76.8087158203125,33.901763916015625,0,0,0,40000
872716,-3.334054470062256,3.0535829067230225,792.0,-3111.0,-68.811279296875,32.00201416015625,0,0,0,40000
872726,-2.7374231815338135,0.9273804426193237,943.0,-3079.0,-56.10737228393555,28.511878967285156,0,0,0,40000
872736,-2.27219557762146,-0.415436714887619,1066.0,-2795.0,-48.05398178100586,25.79433822631836,0,0,0,40000
872746,-1.5231236219406128,-2.166208267211914,1128.0,-2274.0,-37.504268646240234,21.354705810546875,0,0,0,40000
872756,-0.9883742332458496,-3.0364162921905518,1181.0,-1524.0,-32.20195770263672,18.182327270507812,0,0,0,40000
872766,-0.16054055094718933,-3.7733912467956543,1227.0,-697.0,-27.6737060546875,13.230199813842773,0,0,0,40000
872776,0.39684271812438965,-3.8117260932922363,1233.0,300.0,-27.32925033569336,9.880668640136719,0,0,0,40000
872786,1.2388672828674316,-3.2654058933258057,1208.0,1073.0,-30.501039505004883,4.801419258117676,0,0,0,40000
872796,1.7922677993774414,-2.6291866302490234,1183.0,1570.0,-34.23159408569336,1.4338665008544922,0,0,0,40000
872806,2.6045713424682617,-1.4316054582595825,1169.0,1835.0,-41.359214782714844,-3.508424758911133,0,0,0,40000
872816,3.1089465618133545,-0.5662887692451477,1120.0,1889.0,-46.523738861083984,-6.621854782104492,0,0,0,40000
872826,3.8423261642456055,0.682630717754364,1039.0,1747.0,-54.023075103759766,-11.12878131866455,0,0,0,40000
872836,4.289807319641113,1.4000900983810425,947.0,1423.0,-58.36140823364258,-13.937044143676758,0,0,0,40000
872846,4.919722080230713,2.208791971206665,877.0,1009.0,-63.271141052246094,-17.856714248657227,0,0,0,40000
872856,5.293127059936523,2.519752264022827,768.0,485.0,-65.20902252197266,-20.25150489807129,0,0,0,40000
872866,5.778770446777344,2.5924594402313232,668.0,-136.0,-65.72351837158203,-23.333099365234375,0,0,0,40000
872876,6.046977996826172,2.326846122741699,552.0,-879.0,-64.20321655273438,-25.12059783935547,0,0,0,40000
872886,6.363994121551514,1.3971441984176636,418.0,-1680.0,-58.6798210144043,-27.21010971069336,0,0,0,40000
872896,6.516143798828125,0.4328190088272095,273.0,-2355.0,-52.91877365112305,-28.316753387451172,0,0,0,40000
872906,6.647249698638916,-1.3341385126113892,129.0,-2706.0,-42.298866271972656,-29.301523208618164,0,0,0,40000
872916,6.683696269989014,-2.568594217300415,31.0,-2701.0,-34.82988739013672,-29.72030258178711,0,0,0,40000
872926,6.645207405090332,-4.316882133483887,-127.0,-2461.0,-24.23103904724121,-29.689411163330078,0,0,0,40000
872936,6.5614142417907715,-5.315217971801758,-261.0,-1979.0,-18.093242645263672,-29.384597778320312,0,0,0,40000
872946,6.326715469360352,-6.392432689666748,-416.0,-1300.0,-11.449565887451172,-28.169410705566406,0,0,0,40000
872956,6.119604587554932,-6.771701335906982,-498.0,-475.0,-8.974903106689453,-27.112873077392578,0,0,0,40000
872966,5.722387790679932,-6.733146667480469,-600.0,438.0,-9.001747131347656,-24.906238555908203,0,0,0,40000
872976,5.4190239906311035,-6.308626174926758,-685.0,1198.0,-11.35409164428711,-23.25229835510254,0,0,0,40000
872986,4.912041664123535,-5.311159133911133,-745.0,1635.0,-17.16668701171875,-20.36400604248047,0,0,0,40000
872996,4.556015491485596,-4.50543212890625,-777.0,1846.0,-21.8560791015625,-18.36880874633789,0,0,0,40000
873006,3.9876861572265625,-3.2480599880218506,-843.0,1808.0,-29.28792381286621,-15.085429191589355,0,0,0,40000
873016,3.5918798446655273,-2.4625511169433594,-857.0,1648.0,-33.917762756347656,-12.823108673095703,0,0,0,40000
873026,2.9943840503692627,-1.4791635274887085,-866.0,1292.0,-39.762752532958984,-9.335197448730469,0,0,0,40000
873036,2.5989761352539062,-1.0209845304489136,-849.0,792.0,-42.4759521484375,-7.045432090759277,0,0,0,40000
873046,2.029998540878296,-0.7151846885681152,-795.0,207.0,-44.286949157714844,-3.6991167068481445,0,0,0,40000
873056,1.6770111322402954,-0.8128795623779297,-744.0,-500.0,-43.677974700927734,-1.6357135772705078,0,0,0,40000
873066,1.1830693483352661,-1.4615402221679688,-695.0,-1245.0,-39.75157928466797,1.2866086959838867,0,0,0,40000
873076,0.890612006187439,-2.2119851112365723,-617.0,-1878.0,-35.19188690185547,3.0111818313598633,0,0,0,40000
873086,0.5057645440101624,-3.6705362796783447,-525.0,-2242.0,-26.348669052124023,5.3006815910339355,0,0,0,40000
873096,0.278716117143631,-4.738658905029297,-442.0,-2317.0,-19.810585021972656,6.651952743530273,0,0,0,40000
873106,-0.008498096838593483,-6.251471996307373,-383.0,-2089.0,-10.563713073730469,8.372138023376465,0,0,0,40000
873116,-0.15994301438331604,-7.095336437225342,-314.0,-1644.0,-5.297554016113281,9.28378677368164,0,0,0,40000
873126,-0.3463827967643738,-7.964065074920654,-251.0,-1022.0,0.14466094970703125,10.41067886352539,0,0,0,40000
873136,-0.44105249643325806,-8.207956314086914,-160.0,-184.0,1.8518028259277344,10.990852355957031,0,0,0,40000
873146,-0.5379300713539124,-7.969645023345947,-84.0,688.0,0.6657638549804688,11.587335586547852,0,0,0,40000
873156,-0.5773727893829346,-7.459613800048828,-28.0,1355.0,-2.1641578674316406,11.84089469909668,0,0,0,40000
873166,-0.5751501321792603,-6.382091999053955,17.0,1701.0,-8.424186706542969,11.844898223876953,0,0,0,40000
873176,-0.562531590461731,-5.563469886779785,50.0,1837.0,-13.159130096435547,11.786206245422363,0,0,0,40000
873186,-0.48271870613098145,-4.317543029785156,125.0,1783.0,-20.490375518798828,11.322921752929688,0,0,0,40000
873196,-0.3996766209602356,-3.5552072525024414,185.0,1530.0,-24.948732376098633,10.837702751159668,0,0,0,40000
873206,-0.24771572649478912,-2.646836996078491,244.0,1157.0,-30.309534072875977,9.93535041809082,0,0,0,40000
873216,-0.12508253753185272,-2.2522664070129395,294.0,617.0,-32.60494613647461,9.20481014251709,0,0,0,40000
873226,0.09350981563329697,-2.0832958221435547,360.0,-7.0,-33.55561828613281,7.893267631530762,0,0,0,40000
873236,0.26179978251457214,-2.2850308418273926,410.0,-725.0,-32.27943801879883,6.87774658203125,0,0,0,40000
873246,0.5319843292236328,-3.1088852882385254,410.0,-1493.0,-27.25457763671875,5.243939399719238,0,0,0,40000
873256,0.7375676035881042,-3.9419047832489014,434.0,-1983.0,-22.1484375,3.9907426834106445,0,0,0,40000
873266,1.0631499290466309,-5.374372959136963,450.0,-2142.0,-13.409858703613281,2.009256362915039,0,0,0,40000
873276,1.2784088850021362,-6.33329963684082,467.0,-2017.0,-7.477710723876953,0.6819696426391602,0,0,0,40000
873286,1.5970392227172852,-7.580085277557373,484.0,-1655.0,0.21632003784179688,-1.2738037109375,0,0,0,40000
873296,1.794598937034607,-8.183191299438477,426.0,-1074.0,4.073551177978516,-2.5106544494628906,0,0,0,40000
873306,2.0811350345611572,-8.60196590423584,395.0,-297.0,6.840972900390625,-4.288948059082031,0,0,0,40000
873316,2.2643883228302,-8.49677848815918,374.0,573.0,6.466487884521484,-5.454198837280273,0,0,0,40000
873326,2.5123941898345947,-7.795574188232422,335.0,1300.0,2.5030784606933594,-7.014697074890137,0,0,0,40000
873336,2.6566858291625977,-7.056963920593262,295.0,1737.0,-1.707763671875,-7.9584059715271,0,0,0,40000
873346,2.850451946258545,-5.781890869140625,262.0,1908.0,-9.169086456298828,-9.204217910766602,0,0,0,40000
873356,2.9645943641662598,-4.906800270080566,205.0,1865.0,-14.261995315551758,-9.976715087890625,0,0,0,40000
873366,3.1015465259552,-3.703392744064331,163.0,1661.0,-21.357425689697266,-10.889986038208008,0,0,0,40000
873376,3.1750411987304688,-3.049191474914551,151.0,1273.0,-25.183530807495117,-11.42531967163086,0,0,0,40000
873386,3.2479865550994873,-2.3760030269622803,106.0,784.0,-29.144411087036133,-11.959564208984375,0,0,0,40000
873396,3.287637710571289,-2.18571400642395,95.0,169.0,-30.218616485595703,-12.295616149902344,0,0,0,40000
873406,3.329084873199463,-2.374109983444214,54.0,-574.0,-29.02092742919922,-12.643739700317383,0,0,0,40000
873416,3.337479829788208,-2.8638336658477783,6.0,-1371.0,-26.003002166748047,-12.794178009033203,0,0,0,40000
873426,3.328507423400879,-4.075129985809326,-27.0,-1985.0,-18.628742218017578,-12.840362548828125,0,0,0,40000
873436,3.3116159439086914,-5.0702595710754395,-55.0,-2239.0,-12.51791763305664,-12.838580131530762,0,0,0,40000
873446,3.2627551555633545,-6.585414886474609,-77.0,-2169.0,-3.247425079345703,-12.643913269042969,0,0,0,40000
873456,3.208104133605957,-7.504162788391113,-138.0,-1860.0,2.4793548583984375,-12.412934303283691,0,0,0,40000
873466,3.0922281742095947,-8.574382781982422,-194.0,-1325.0,9.146324157714844,-11.811880111694336,0,0,0,40000
873476,2.9954826831817627,-8.981473922729492,-228.0,-601.0,11.85384750366211,-11.322460174560547,0,0,0,40000
873486,2.819633960723877,-9.022417068481445,-263.0,307.0,12.371711730957031,-10.354202270507812,0,0,0,40000
873496,2.674294948577881,-8.63326644897461,-305.0,1161.0,10.300926208496094,-9.564149856567383,0,0,0,40000
873506,2.426755666732788,-7.602549076080322,-359.0,1744.0,4.3583221435546875,-8.154765129089355,0,0,0,40000
873516,2.262221336364746,-6.701523303985596,-366.0,2071.0,-0.8358192443847656,-7.237421035766602,0,0,0,40000
873526,1.9956310987472534,-5.247345924377441,-372.0,2152.0,-9.385896682739258,-5.700946807861328,0,0,0,40000
873536,1.821348786354065,-4.27508020401001,-350.0,2088.0,-15.079601287841797,-4.711972713470459,0,0,0,40000
873546,1.589492917060852,-2.9515979290008545,-355.0,1827.0,-22.916648864746094,-3.371351718902588,0,0,0,40000
873556,1.429438591003418,-2.2211718559265137,-334.0,1429.0,-27.22403335571289,-2.4558119773864746,0,0,0,40000
873566,1.199617624282837,-1.4583022594451904,-308.0,904.0,-31.749553680419922,-1.1155705451965332,0,0,0,40000
873576,1.0648596286773682,-1.21196448802948,-273.0,259.0,-33.18862533569336,-0.34054040908813477,0,0,0,40000
873586,0.8789156079292297,-1.3529605865478516,-246.0,-507.0,-32.30546569824219,0.7466287612915039,0,0,0,40000
873596,0.7685686945915222,-1.8096890449523926,-224.0,-1304.0,-29.516712188720703,1.3843235969543457,0,0,0,40000
873606,0.6301589012145996,-2.9908173084259033,-199.0,-1952.0,-22.355751037597656,2.194218635559082,0,0,0,40000
873616,0.5586451292037964,-3.9751408100128174,-160.0,-2240.0,-16.342483520507812,2.6056759357452393,0,0,0,40000
873626,0.46830981969833374,-5.511199474334717,-115.0,-2226.0,-6.979167938232422,3.1326894760131836,0,0,0,40000
873636,0.42657822370529175,-6.4471564292907715,-59.0,-1915.0,-1.1810379028320312,3.3698291778564453,0,0,0,40000
873646,0.3954060971736908,-7.241631507873535,-47.0,-1484.0,3.7551193237304688,3.547165870666504,0,0,0,40000
873656,0.3728786110877991,-8.033637046813965,-47.0,-826.0,8.740108489990234,3.6708626747131348,0,0,0,40000
873666,0.3711244761943817,-8.225102424621582,4.0,22.0,10.133811950683594,3.670306921005249,0,0,0,40000
873676,0.36659786105155945,-7.903773307800293,19.0,921.0,8.448883056640625,3.6864802837371826,0,0,0,40000
873686,0.3721572160720825,-7.314062595367432,54.0,1591.0,5.1374969482421875,3.6420485973358154,0,0,0,40000
873696,0.40939152240753174,-6.083252906799316,39.0,1969.0,-2.04925537109375,3.4068186283111572,0,0,0,40000
873706,0.44951382279396057,-5.136832237243652,73.0,2121.0,-7.562246322631836,3.1531410217285156,0,0,0,40000
873716,0.51191645860672,-3.696629524230957,120.0,2055.0,-16.075441360473633,2.7643003463745117,0,0,0,40000
873726,0.5562341809272766,-2.793849229812622,144.0,1837.0,-21.397579193115234,2.4822797775268555,0,0,0,40000
873736,0.6523147821426392,-1.6645548343658447,158.0,1487.0,-28.110551834106445,1.8873546123504639,0,0,0,40000
873746,0.7359583377838135,-1.0918691158294678,162.0,993.0,-31.507314682006836,1.3644013404846191,0,0,0,40000
873756,0.8650813102722168,-0.6179903149604797,198.0,372.0,-34.327720642089844,0.5653390884399414,0,0,0,40000
873766,0.9598348736763,-0.60853111743927,216.0,-360.0,-34.36650848388672,-0.0308380126953125,0,0,0,40000
873776,1.1057584285736084,-1.1315826177597046,215.0,-1156.0,-31.202295303344727,-0.937777042388916,0,0,0,40000
873786,1.2093887329101562,-1.831973671913147,222.0,-1866.0,-26.95377540588379,-1.5945696830749512,0,0,0,40000
873796,1.3645485639572144,-3.2448558807373047,231.0,-2235.0,-18.396907806396484,-2.5645060539245605,0,0,0,40000
873806,1.4692288637161255,-4.2728986740112305,223.0,-2229.0,-12.112821578979492,-3.2354297637939453,0,0,0,40000
873816,1.613069772720337,-5.732203483581543,192.0,-1982.0,-3.2019920349121094,-4.145226955413818,0,0,0,40000
873826,1.7006398439407349,-6.523510932922363,160.0,-1454.0,1.73236083984375,-4.72066593170166,0,0,0,40000
873836,1.8229234218597412,-7.300698757171631,160.0,-789.0,6.6066741943359375,-5.507537364959717,0,0,0,40000
873846,1.896916389465332,-7.459913730621338,149.0,88.0,7.784343719482422,-6.0074872970581055,0,0,0,40000
873856,1.9847289323806763,-7.094712734222412,101.0,965.0,5.812297821044922,-6.592964172363281,0,0,0,40000
873866,2.021306037902832,-6.500748157501221,82.0,1559.0,2.451000213623047,-6.87266206741333,0,0,0,40000
873876,2.0902585983276367,-5.32228422164917,94.0,1845.0,-4.4453582763671875,-7.348093032836914,0,0,0,40000
873886,2.099043607711792,-4.450003623962402,51.0,1907.0,-9.535074234008789,-7.463603973388672,0,0,0,40000
873896,2.106478214263916,-3.145927906036377,-4.0,1822.0,-17.249740600585938,-7.57143497467041,0,0,0,40000
873906,2.0926785469055176,-2.381507635116577,-20.0,1518.0,-21.755800247192383,-7.5515947341918945,0,0,0,40000
873916,2.055213451385498,-1.4969205856323242,-62.0,1042.0,-27.00887107849121,-7.388973236083984,0,0,0,40000
873926,2.031808376312256,-1.1484880447387695,-86.0,462.0,-29.061120986938477,-7.3098320960998535,0,0,0,40000
873936,1.9657073020935059,-1.076361060142517,-102.0,-262.0,-29.46232795715332,-6.973020553588867,0,0,0,40000
873946,1.9185571670532227,-1.3829082250595093,-107.0,-1087.0,-27.585695266723633,-6.748239517211914,0,0,0,40000
873956,1.8373160362243652,-2.3715927600860596,-118.0,-1778.0,-21.595821380615234,-6.31689453125,0,0,0,40000
873966,1.7814468145370483,-3.279402256011963,-129.0,-2131.0,-16.061668395996094,-6.035799980163574,0,0,0,40000
873976,1.6912516355514526,-4.791751861572266,-121.0,-2218.0,-6.8621673583984375,-5.546425819396973,0,0,0,40000
873986,1.630521535873413,-5.767072677612305,-112.0,-1984.0,-0.8488197326660156,-5.231717586517334,0,0,0,40000
873996,1.5393855571746826,-6.9814772605896,-153.0,-1543.0,6.633411407470703,-4.732287883758545,0,0,0,40000
874006,1.475005865097046,-7.540066719055176,-162.0,-877.0,10.204818725585938,-4.39103889465332,0,0,0,40000
874016,1.3618266582489014,-7.865118503570557,-181.0,-58.0,12.388988494873047,-3.754182815551758,0,0,0,40000
874026,1.2734205722808838,-7.680370807647705,-200.0,857.0,11.513675689697266,-3.262986660003662,0,0,0,40000
874036,1.1284754276275635,-6.846360206604004,-196.0,1529.0,6.7264862060546875,-2.4288430213928223,0,0,0,40000
874046,1.024463176727295,-6.0389227867126465,-226.0,1953.0,2.07293701171875,-1.8367681503295898,0,0,0,40000
874056,0.8730114698410034,-4.615149021148682,-212.0,2143.0,-6.313774108886719,-0.9560279846191406,0,0,0,40000
874066,0.7833266258239746,-3.6271026134490967,-207.0,2142.0,-12.12137222290039,-0.4425010681152344,0,0,0,40000
874076,0.6538346409797668,-2.224607229232788,-164.0,1943.0,-20.453256607055664,0.3134174346923828,0,0,0,40000
874086,0.5754662156105042,-1.4168415069580078,-140.0,1584.0,-25.247844696044922,0.7654366493225098,0,0,0,40000
874096,0.4801371693611145,-0.48933693766593933,-113.0,1109.0,-30.788114547729492,1.3219084739685059,0,0,0,40000
874106,0.42712411284446716,-0.11592672765254974,-102.0,502.0,-33.02094268798828,1.626509189605713,0,0,0,40000
874116,0.37257295846939087,-0.002866789698600769,-76.0,-210.0,-33.69944381713867,1.9420366287231445,0,0,0,40000
874126,0.3491477370262146,-0.2731967270374298,-20.0,-991.0,-32.07292938232422,2.071890354156494,0,0,0,40000
874136,0.3432842791080475,-1.222709059715271,35.0,-1758.0,-26.352252960205078,2.096787929534912,0,0,0,40000
874146,0.35990360379219055,-2.1403121948242188,49.0,-2161.0,-20.79364013671875,1.9864399433135986,0,0,0,40000
874156,0.4100630283355713,-3.6778297424316406,59.0,-2278.0,-11.476909637451172,1.673741340637207,0,0,0,40000
874166,0.45243239402770996,-4.691769599914551,73.0,-2107.0,-5.264596939086914,1.406517505645752,0,0,0,40000
874176,0.5128074288368225,-5.9982733726501465,118.0,-1682.0,2.7396812438964844,1.029778003692627,0,0,0,40000
874186,0.5516454577445984,-6.628999710083008,118.0,-1025.0,6.7157135009765625,0.7806768417358398,0,0,0,40000
874196,0.6142364144325256,-7.0473151206970215,115.0,-192.0,9.433815002441406,0.3873739242553711,0,0,0,40000
874206,0.663332462310791,-6.925530910491943,79.0,734.0,8.912872314453125,0.0734100341796875,0,0,0,40000
874216,0.7314954996109009,-6.150122165679932,59.0,1473.0,4.455852508544922,-0.3567318916320801,0,0,0,40000
874226,0.7715815305709839,-5.375424385070801,95.0,1871.0,-0.0215606689453125,-0.6198701858520508,0,0,0,40000
874236,0.827162504196167,-4.026883125305176,108.0,2046.0,-7.975435256958008,-0.977412223815918,0,0,0,40000
874246,0.8659490346908569,-3.093261957168579,88.0,1986.0,-13.473161697387695,-1.2356798648834229,0,0,0,40000
874256,0.918045163154602,-1.7963708639144897,70.0,1776.0,-21.185508728027344,-1.5752673149108887,0,0,0,40000
874266,0.9616532921791077,-1.0634452104568481,75.0,1395.0,-25.54261016845703,-1.8652679920196533,0,0,0,40000
874276,1.017203450202942,-0.29089200496673584,88.0,847.0,-30.161142349243164,-2.228377342224121,0,0,0,40000
874286,1.0508395433425903,-0.05629332363605499,67.0,181.0,-31.5645694732666,-2.4613239765167236,0,0,0,40000
874296,1.1073023080825806,-0.18185663223266602,91.0,-558.0,-30.808856964111328,-2.832557201385498,0,0,0,40000
874306,1.1428484916687012,-0.6231793761253357,105.0,-1349.0,-28.147974014282227,-3.079704523086548,0,0,0,40000
874316,1.1978864669799805,-1.7761505842208862,77.0,-1958.0,-21.192035675048828,-3.445347309112549,0,0,0,40000
874326,1.2479333877563477,-2.7452685832977295,78.0,-2228.0,-15.306755065917969,-3.782451868057251,0,0,0,40000
874336,1.3084262609481812,-4.280550956726074,63.0,-2209.0,-5.98499870300293,-4.183963775634766,0,0,0,40000
874346,1.335904836654663,-5.233348846435547,73.0,-1915.0,-0.12248611450195312,-4.388522624969482,0,0,0,40000
874356,1.3701163530349731,-6.367795944213867,54.0,-1366.0,6.862861633300781,-4.634559631347656,0,0,0,40000
874366,1.3860360383987427,-6.848004341125488,21.0,-687.0,9.944133758544922,-4.771531105041504,0,0,0,40000
874376,1.4001120328903198,-7.035247802734375,3.0,176.0,11.278341293334961,-4.897897720336914,0,0,0,40000
874386,1.3968539237976074,-6.7470927238464355,-41.0,1028.0,9.755769729614258,-4.920324325561523,0,0,0,40000
874396,1.3610212802886963,-5.786263942718506,-78.0,1730.0,4.177448272705078,-4.746697425842285,0,0,0,40000
874406,1.3286470174789429,-4.892138481140137,-71.0,2119.0,-1.0295906066894531,-4.592737197875977,0,0,0,40000
874416,1.2691082954406738,-3.3880808353424072,-104.0,2249.0,-9.933980941772461,-4.274395942687988,0,0,0,40000
874426,1.2270883321762085,-2.3667895793914795,-110.0,2149.0,-15.97852897644043,-4.0596208572387695,0,0,0,40000
874436,1.156328558921814,-0.9829492568969727,-101.0,1859.0,-24.23613929748535,-3.6705820560455322,0,0,0,40000
874446,1.1101330518722534,-0.21319662034511566,-108.0,1447.0,-28.839248657226562,-3.4272899627685547,0,0,0,40000
874456,1.0332999229431152,0.5966233015060425,-118.0,916.0,-33.707542419433594,-2.9982311725616455,0,0,0,40000
874466,0.9870490431785583,0.8661367297172546,-103.0,248.0,-35.34774398803711,-2.750896692276001,0,0,0,40000
874476,0.9096001982688904,0.7965818643569946,-119.0,-460.0,-34.956764221191406,-2.3144187927246094,0,0,0,40000
874486,0.860093355178833,0.4081645905971527,-76.0,-1253.0,-32.64360046386719,-2.043743133544922,0,0,0,40000
874496,0.8018101453781128,-0.6968472003936768,-79.0,-1857.0,-26.00735092163086,-1.7188315391540527,0,0,0,40000
874506,0.775634765625,-1.6659250259399414,-81.0,-2214.0,-20.15467643737793,-1.5854222774505615,0,0,0,40000
874516,0.734362781047821,-3.213040590286255,-91.0,-2221.0,-10.794071197509766,-1.360386848449707,0,0,0,40000
874526,0.7017002701759338,-4.170965194702148,-90.0,-1970.0,-4.93275260925293,-1.1858294010162354,0,0,0,40000
874536,0.6261914968490601,-5.3243513107299805,-101.0,-1456.0,2.1346378326416016,-0.752403974533081,0,0,0,40000
874546,0.5689887404441833,-5.81724214553833,-102.0,-786.0,5.260984420776367,-0.4269242286682129,0,0,0,40000
874556,0.4704974591732025,-6.009108066558838,-158.0,88.0,6.592081069946289,0.1486208438873291,0,0,0,40000
874566,0.4050922393798828,-5.723039150238037,-156.0,956.0,5.051263809204102,0.528078556060791,0,0,0,40000
874576,0.31088972091674805,-4.791608810424805,-159.0,1570.0,-0.3812103271484375,1.0828642845153809,0,0,0,40000
874586,0.24926260113716125,-3.9492921829223633,-122.0,1980.0,-5.3062591552734375,1.4444797039031982,0,0,0,40000
874596,0.1441553831100464,-2.5470662117004395,-141.0,2072.0,-13.626265525817871,2.0695526599884033,0,0,0,40000
874606,0.07800734043121338,-1.6255125999450684,-124.0,1967.0,-19.095809936523438,2.463346481323242,0,0,0,40000
874616,-0.010388542897999287,-0.387042760848999,-126.0,1690.0,-26.500782012939453,2.9929559230804443,0,0,0,40000
874626,-0.06562819331884384,0.27085044980049133,-128.0,1244.0,-30.44862174987793,3.3256664276123047,0,0,0,40000
874636,-0.14181582629680634,0.8912036418914795,-107.0,669.0,-34.19135284423828,3.7861876487731934,0,0,0,40000
874646,-0.17235450446605682,1.0061525106430054,-72.0,-29.0,-34.91024398803711,3.974233388900757,0,0,0,40000
874656,-0.2091718465089798,0.6812922954559326,-37.0,-777.0,-32.987125396728516,4.201067924499512,0,0,0,40000
874666,-0.22323034703731537,0.11452902853488922,10.0,-1519.0,-29.59718132019043,4.29202127456665,0,0,0,40000
874676,-0.22444692254066467,-1.152314305305481,29.0,-2031.0,-21.977813720703125,4.306102752685547,0,0,0,40000
874686,-0.21465303003787994,-2.1344640254974365,40.0,-2181.0,-16.032733917236328,4.253878593444824,0,0,0,40000
874696,-0.18790952861309052,-3.606482744216919,15.0,-2103.0,-7.109889984130859,4.099267959594727,0,0,0,40000
874706,-0.15979084372520447,-4.4658684730529785,55.0,-1721.0,-1.8297348022460938,3.935713052749634,0,0,0,40000
874716,-0.1250544637441635,-5.392271995544434,81.0,-1083.0,3.880769729614258,3.7315621376037598,0,0,0,40000
874726,-0.10082071274518967,-5.662811279296875,81.0,-231.0,5.671131134033203,3.5894811153411865,0,0,0,40000
874736,-0.06612605601549149,-5.440139293670654,41.0,684.0,4.502986907958984,3.3835861682891846,0,0,0,40000
874746,-0.03710263967514038,-4.918953895568848,38.0,1401.0,1.5300922393798828,3.210869312286377,0,0,0,40000
874756,0.006374451797455549,-3.7882978916168213,50.0,1799.0,-5.125764846801758,2.9503321647644043,0,0,0,40000
874766,0.042408864945173264,-2.9099841117858887,81.0,1985.0,-10.297735214233398,2.7333264350891113,0,0,0,40000
874776,0.09179812669754028,-1.5456353425979614,82.0,1953.0,-18.42123031616211,2.4348983764648438,0,0,0,40000
874786,0.12221255898475647,-0.7141675353050232,73.0,1708.0,-23.378774642944336,2.249094247817993,0,0,0,40000
874796,0.16715174913406372,0.28464555740356445,67.0,1297.0,-29.369129180908203,1.9749900102615356,0,0,0,40000
874806,0.2066243290901184,0.7372560501098633,53.0,766.0,-32.101783752441406,1.732385277748108,0,0,0,40000
874816,0.25880497694015503,1.0047065019607544,73.0,141.0,-33.73473358154297,1.4122194051742554,0,0,0,40000
874826,0.2977008819580078,0.8685609102249146,96.0,-590.0,-32.94595718383789,1.1704144477844238,0,0,0,40000
874836,0.34690940380096436,0.1398725062608719,86.0,-1379.0,-28.588476181030273,0.8653252124786377,0,0,0,40000
874846,0.38606539368629456,-0.6643733382225037,58.0,-1959.0,-23.753036499023438,0.6192378997802734,0,0,0,40000
874856,0.44721344113349915,-2.120738983154297,77.0,-2189.0,-14.96908950805664,0.239715576171875,0,0,0,40000
874866,0.4828217327594757,-3.1155622005462646,82.0,-2148.0,-8.918588638305664,0.012008190155029297,0,0,0,40000
874876,0.5207546949386597,-4.455812931060791,75.0,-1810.0,-0.7587242126464844,-0.23073506355285645,0,0,0,40000
874886,0.5338760018348694,-5.129378318786621,28.0,-1237.0,3.428781509399414,-0.32536959648132324,0,0,0,40000
874896,0.5516929030418396,-5.659154415130615,-10.0,-451.0,6.772626876831055,-0.448763370513916,0,0,0,40000
874906,0.5539180636405945,-5.627209186553955,-21.0,408.0,6.750644683837891,-0.4787137508392334,0,0,0,40000
874916,0.5427494049072266,-5.020661354064941,-17.0,1173.0,3.2708492279052734,-0.4281027317047119,0,0,0,40000
874926,0.5168892741203308,-4.351454734802246,-30.0,1650.0,-0.6055641174316406,-0.2887401580810547,0,0,0,40000
874936,0.4913236200809479,-3.110203981399536,-33.0,1893.0,-7.944374084472656,-0.1503915786743164,0,0,0,40000
874946,0.47240057587623596,-2.237119197845459,-66.0,1900.0,-13.105301856994629,-0.05129694938659668,0,0,0,40000
874956,0.4483847916126251,-1.0106312036514282,-39.0,1685.0,-20.41974449157715,0.0790708065032959,0,0,0,40000
874966,0.4344424903392792,-0.3229660093784332,-21.0,1376.0,-24.527971267700195,0.1495506763458252,0,0,0,40000
874976,0.40326127409935,0.41842424869537354,-28.0,893.0,-28.981042861938477,0.324204683303833,0,0,0,40000
874986,0.3848262131214142,0.6577096581459045,-30.0,278.0,-30.43395233154297,0.42307543754577637,0,0,0,40000
874996,0.35764816403388977,0.5578253865242004,-14.0,-429.0,-29.854135513305664,0.5751831531524658,0,0,0,40000
875006,0.3457169830799103,0.1433212161064148,0.0,-1226.0,-27.376827239990234,0.6362736225128174,0,0,0,40000
875016,0.32526323199272156,-0.993484616279602,-22.0,-1900.0,-20.54123306274414,0.7489173412322998,0,0,0,40000
875026,0.31701529026031494,-1.964861512184143,-40.0,-2203.0,-14.665834426879883,0.7887275218963623,0,0,0,40000
875036,0.3074050843715668,-3.499232769012451,-28.0,-2225.0,-5.372987747192383,0.8370378017425537,0,0,0,40000
875046,0.29693537950515747,-4.464091777801514,-22.0,-1971.0,0.5386581420898438,0.8908728361129761,0,0,0,40000
875056,0.28514671325683594,-5.616788387298584,4.0,-1475.0,7.610630035400391,0.9530191421508789,0,0,0,40000
875066,0.25946560502052307,-6.098519802093506,-21.0,-721.0,10.678586959838867,1.098985195159912,0,0,0,40000
875076,0.24311265349388123,-6.238882064819336,-43.0,170.0,11.708255767822266,1.1895318031311035,0,0,0,40000
875086,0.2373741716146469,-5.905404567718506,-58.0,1053.0,9.889030456542969,1.2167237997055054,0,0,0,40000
875096,0.22143076360225677,-4.893895149230957,-11.0,1713.0,3.9803218841552734,1.3056889772415161,0,0,0,40000
875106,0.20941101014614105,-3.979069232940674,41.0,2127.0,-1.378082275390625,1.3714741468429565,0,0,0,40000
875116,0.2088613659143448,-2.4660680294036865,29.0,2259.0,-10.363668441772461,1.3685296773910522,0,0,0,40000
875126,0.21142542362213135,-1.444103479385376,8.0,2179.0,-16.43993377685547,1.3468091487884521,0,0,0,40000
875136,0.23550476133823395,-0.037942804396152496,0.0,1949.0,-24.85942268371582,1.1954127550125122,0,0,0,40000
875146,0.2488701492547989,0.7447612285614014,15.0,1541.0,-29.568819046020508,1.1079314947128296,0,0,0,40000
875156,0.2583900988101959,1.5878232717514038,33.0,1018.0,-34.665855407714844,1.043294906616211,0,0,0,40000
875166,0.2758365869522095,1.8780577182769775,53.0,358.0,-36.46049499511719,0.9305760860443115,0,0,0,40000
875176,0.3035680949687958,1.8280773162841797,55.0,-365.0,-36.21766662597656,0.7554538249969482,0,0,0,40000
875186,0.3306913673877716,1.4428021907806396,46.0,-1185.0,-33.95439529418945,0.5830528736114502,0,0,0,40000
875196,0.37119340896606445,0.33728790283203125,14.0,-1876.0,-27.34619903564453,0.329211950302124,0,0,0,40000
875206,0.40880319476127625,-0.6361833214759827,62.0,-2241.0,-21.498146057128906,0.0917961597442627,0,0,0,40000
875216,0.456357479095459,-2.189162254333496,106.0,-2231.0,-12.133119583129883,-0.20644259452819824,0,0,0,40000
875226,0.4669226408004761,-3.1503939628601074,47.0,-2000.0,-6.301506042480469,-0.28372836112976074,0,0,0,40000
875236,0.49159255623817444,-4.280550956726074,19.0,-1427.0,0.6143779754638672,-0.44636106491088867,0,0,0,40000
875246,0.5063987374305725,-4.733295440673828,-14.0,-751.0,3.439464569091797,-0.5472421646118164,0,0,0,40000
875256,0.5160934329032898,-4.821477890014648,0.0,243.0,4.142581939697266,-0.6238021850585938,0,0,0,40000
875266,0.5127359628677368,-4.4680070877075195,23.0,997.0,2.133665084838867,-0.6159408092498779,0,0,0,40000
875276,0.4962744414806366,-3.5014235973358154,-6.0,1621.0,-3.521221160888672,-0.5352921485900879,0,0,0,40000
875286,0.4831973910331726,-2.6850924491882324,-34.0,1857.0,-8.344833374023438,-0.46863317489624023,0,0,0,40000
875296,0.4628163278102875,-1.3717368841171265,-53.0,1948.0,-16.151769638061523,-0.36351728439331055,0,0,0,40000
875306,0.4554561674594879,-0.511868953704834,-40.0,1827.0,-21.288494110107422,-0.3304009437561035,0,0,0,40000
875316,0.4441572427749634,0.6094385981559753,-33.0,1499.0,-28.018779754638672,-0.2788219451904297,0,0,0,40000
875326,0.43200165033340454,1.1770002841949463,1.0,1104.0,-31.445825576782227,-0.216353178024292,0,0,0,40000
875336,0.4185304641723633,1.6656579971313477,-7.0,474.0,-34.43025207519531,-0.15087223052978516,0,0,0,40000
875346,0.41571786999702454,1.702872633934021,-32.0,-124.0,-34.69435501098633,-0.14406871795654297,0,0,0,40000
875356,0.41428112983703613,1.2584657669067383,-13.0,-958.0,-32.08293914794922,-0.15037775039672852,0,0,0,40000
875366,0.4216223359107971,0.6038448810577393,50.0,-1646.0,-28.177947998046875,-0.20435523986816406,0,0,0,40000
875376,0.4327898919582367,-0.767397403717041,52.0,-2143.0,-19.94837188720703,-0.2866339683532715,0,0,0,40000
875386,0.4396129250526428,-1.7963182926177979,16.0,-2262.0,-13.744142532348633,-0.33808207511901855,0,0,0,40000
875396,0.4584083557128906,-3.257770299911499,-13.0,-2007.0,-4.883813858032227,-0.46720147132873535,0,0,0,40000
875406,0.4755367636680603,-4.053393363952637,27.0,-1593.0,-0.022062301635742188,-0.5811681747436523,0,0,0,40000
875416,0.48558783531188965,-4.640690326690674,44.0,-887.0,4.868808746337891,-0.7221825122833252,0,0,0,40000
875426,0.4913904368877411,-5.029980182647705,13.0,-161.0,6.117942810058594,-0.7055041790008545,0,0,0,40000
875436,0.48980849981307983,-4.896478176116943,-20.0,712.0,5.465919494628906,-0.7107834815979004,0,0,0,40000
875446,0.4742913544178009,-4.163383960723877,-41.0,1402.0,1.2026081085205078,-0.6321587562561035,0,0,0,40000
875456,0.4659513831138611,-3.4128963947296143,-28.0,1799.0,-3.188718795776367,-0.5961601734161377,0,0,0,40000
875466,0.44527140259742737,-2.1276280879974365,0.0,1922.0,-10.820810317993164,-0.4855475425720215,0,0,0,40000
875476,0.4337782859802246,-1.2458906173706055,2.0,1889.0,-16.063295364379883,-0.4297492504119873,0,0,0,40000
875486,0.43266773223876953,-0.03179958090186119,-11.0,1637.0,-23.332841873168945,-0.4361844062805176,0,0,0,40000
875496,0.43076249957084656,0.6260934472084045,-36.0,1219.0,-27.291332244873047,-0.4377315044403076,0,0,0,40000
875506,0.42033156752586365,1.2951056957244873,-18.0,724.0,-31.337316513061523,-0.387786865234375,0,0,0,40000
875516,0.4156710207462311,1.484627604484558,0.0,91.0,-32.517051696777344,-0.3723151683807373,0,0,0,40000
875526,0.40717029571533203,1.2870333194732666,11.0,-673.0,-31.374177932739258,-0.33359527587890625,0,0,0,40000
875536,0.40806758403778076,0.8005938529968262,17.0,-1434.0,-28.485816955566406,-0.351210355758667,0,0,0,40000
875546,0.4245085120201111,-0.377814382314682,36.0,-1952.0,-21.419301986694336,-0.4622650146484375,0,0,0,40000
875556,0.4362638592720032,-1.3286113739013672,47.0,-2125.0,-15.686172485351562,-0.5456953048706055,0,0,0,40000
875566,0.46458950638771057,-2.7673428058624268,62.0,-2006.0,-6.987817764282227,-0.729215145111084,0,0,0,40000
875576,0.47511541843414307,-3.6008002758026123,19.0,-1594.0,-1.8888111114501953,-0.8065478801727295,0,0,0,40000
875586,0.48268258571624756,-4.484264850616455,-11.0,-957.0,3.537273406982422,-0.8664267063140869,0,0,0,40000
875596,0.4782886803150177,-4.754197597503662,0.0,-187.0,5.296697616577148,-0.8544104099273682,0,0,0,40000
875606,0.46571579575538635,-4.5696516036987305,-7.0,709.0,4.330718994140625,-0.7930445671081543,0,0,0,40000
875616,0.4503735899925232,-4.08310079574585,-1.0,1372.0,1.540121078491211,-0.7146651744842529,0,0,0,40000
875626,0.45477697253227234,-2.9993560314178467,-12.0,1768.0,-4.858440399169922,-0.7546975612640381,0,0,0,40000
875636,0.4673769176006317,-2.144592523574829,9.0,1911.0,-9.91231918334961,-0.8441424369812012,0,0,0,40000
875646,0.48075392842292786,-0.849595308303833,22.0,1843.0,-17.64143180847168,-0.9386541843414307,0,0,0,40000
875656,0.4880537688732147,-0.052154459059238434,43.0,1606.0,-22.415075302124023,-0.9969804286956787,0,0,0,40000
875666,0.5150331258773804,0.908618152141571,59.0,1186.0,-28.196399688720703,-1.1739267110824585,0,0,0,40000
875676,0.5368328094482422,1.3303537368774414,39.0,644.0,-30.761972427368164,-1.320591688156128,0,0,0,40000
875686,0.5742592215538025,1.5455588102340698,43.0,-9.0,-32.098388671875,-1.5618865489959717,0,0,0,40000
875696,0.6063674092292786,1.3844809532165527,47.0,-731.0,-31.175800323486328,-1.772289752960205,0,0,0,40000
875706,0.649420976638794,0.6359249949455261,76.0,-1467.0,-26.71409034729004,-2.0494654178619385,0,0,0,40000
875716,0.673816978931427,-0.15551920235157013,97.0,-1929.0,-21.970531463623047,-2.2157247066497803,0,0,0,40000
875726,0.7290951013565063,-1.5546948909759521,89.0,-2097.0,-13.546012878417969,-2.568699359893799,0,0,0,40000
875736,0.7679682970046997,-2.4889707565307617,77.0,-1940.0,-7.876829147338867,-2.8245651721954346,0,0,0,40000
875746,0.8206720948219299,-3.680593729019165,59.0,-1500.0,-0.6299858093261719,-3.1647772789001465,0,0,0,40000
875756,0.8530663847923279,-4.221996307373047,66.0,-852.0,2.738985061645508,-3.384298324584961,0,0,0,40000
875766,0.8872570991516113,-4.536980628967285,48.0,-9.0,4.763120651245117,-3.6156444549560547,0,0,0,40000
875776,0.8986705541610718,-4.3519978523254395,36.0,782.0,3.7864627838134766,-3.7109713554382324,0,0,0,40000
875786,0.9071135520935059,-3.598722457885742,-15.0,1366.0,-0.6149044036865234,-3.7889037132263184,0,0,0,40000
875796,0.9096182584762573,-2.881251573562622,-4.0,1711.0,-4.8245086669921875,-3.8311872482299805,0,0,0,40000
875806,0.899669885635376,-1.666068434715271,-21.0,1818.0,-12.050859451293945,-3.798605442047119,0,0,0,40000
875816,0.8992379903793335,-0.8558148741722107,30.0,1753.0,-16.87703514099121,-3.8229360580444336,0,0,0,40000
875826,0.9057962894439697,0.250112384557724,28.0,1471.0,-23.507495880126953,-3.8893988132476807,0,0,0,40000
875836,0.9032134413719177,0.8341362476348877,5.0,1070.0,-27.029869079589844,-3.9010744094848633,0,0,0,40000
875846,0.918982982635498,1.3977481126785278,6.0,562.0,-30.44784164428711,-4.02308988571167,0,0,0,40000
875856,0.9226298928260803,1.508740782737732,30.0,-100.0,-31.158077239990234,-4.072596549987793,0,0,0,40000
875866,0.9397076964378357,1.1865646839141846,52.0,-853.0,-29.26613998413086,-4.20297908782959,0,0,0,40000
875876,0.949076771736145,0.6274276971817017,40.0,-1585.0,-25.93726921081543,-4.287588119506836,0,0,0,40000
875886,0.985624372959137,-0.6134921312332153,48.0,-1988.0,-18.489120483398438,-4.535984516143799,0,0,0,40000
875896,1.009874701499939,-1.560992956161499,40.0,-2098.0,-12.768732070922852,-4.711484909057617,0,0,0,40000
875906,1.0410847663879395,-2.943068265914917,47.0,-1856.0,-4.404016494750977,-4.929556846618652,0,0,0,40000
875916,1.0595556497573853,-3.705909013748169,34.0,-1411.0,0.2752876281738281,-5.071967124938965,0,0,0,40000
875926,1.0818313360214233,-4.44692850112915,19.0,-745.0,4.847402572631836,-5.237823486328125,0,0,0,40000
875936,1.0912808179855347,-4.5811262130737305,-7.0,140.0,5.788904190063477,-5.327164173126221,0,0,0,40000
875946,1.0853054523468018,-4.199086666107178,-3.0,952.0,3.628988265991211,-5.323939800262451,0,0,0,40000
875956,1.0681424140930176,-3.611719846725464,-26.0,1550.0,0.22048377990722656,-5.25322151184082,0,0,0,40000
875966,1.0652045011520386,-2.447859525680542,-12.0,1827.0,-6.674709320068359,-5.267602920532227,0,0,0,40000
875976,1.0661778450012207,-1.5836197137832642,-50.0,1904.0,-11.80223274230957,-5.305459022521973,0,0,0,40000
875986,1.0526437759399414,-0.32540416717529297,-23.0,1740.0,-19.326988220214844,-5.255902290344238,0,0,0,40000
875996,1.0276457071304321,0.4154609441757202,-51.0,1447.0,-23.775907516479492,-5.137035846710205,0,0,0,40000
876006,0.9865968227386475,1.2508277893066406,-58.0,987.0,-28.816625595092773,-4.920870780944824,0,0,0,40000
876016,0.9562934041023254,1.5730465650558472,-63.0,381.0,-30.793609619140625,-4.768116474151611,0,0,0,40000
876026,0.9111981987953186,1.6086995601654053,-77.0,-298.0,-31.056852340698242,-4.5254621505737305,0,0,0,40000
876036,0.8792989253997803,1.299850583076477,-72.0,-1061.0,-29.246902465820312,-4.360814094543457,0,0,0,40000
876046,0.8365510702133179,0.3311960995197296,-57.0,-1731.0,-23.457983016967773,-4.129862308502197,0,0,0,40000
876056,0.8123460412025452,-0.5581637024879456,-42.0,-2060.0,-18.115936279296875,-4.009241104125977,0,0,0,40000
876066,0.7858253717422485,-1.9708313941955566,-34.0,-2022.0,-9.59763240814209,-3.873997211456299,0,0,0,40000
876076,0.7693364024162292,-2.8291256427764893,-72.0,-1724.0,-4.373138427734375,-3.798403024673462,0,0,0,40000
876086,0.7209227085113525,-3.8400824069976807,-85.0,-1207.0,1.7968082427978516,-3.53013277053833,0,0,0,40000
876096,0.6940561532974243,-4.235566139221191,-73.0,-502.0,4.292411804199219,-3.3900182247161865,0,0,0,40000
876106,0.635190486907959,-4.296998023986816,-86.0,360.0,4.79106330871582,-3.0565638542175293,0,0,0,40000
876116,0.5832414031028748,-3.955366611480713,-86.0,1126.0,2.864452362060547,-2.7630176544189453,0,0,0,40000
876126,0.5229992866516113,-2.999176025390625,-104.0,1610.0,-2.7701797485351562,-2.4180164337158203,0,0,0,40000
876136,0.4757789671421051,-2.202308416366577,-103.0,1839.0,-7.475610733032227,-2.1495563983917236,0,0,0,40000
876146,0.4090449810028076,-0.9284685850143433,-101.0,1837.0,-15.07552433013916,-1.7621893882751465,0,0,0,40000
876156,0.36278605461120605,-0.12106142938137054,-82.0,1632.0,-19.90677261352539,-1.496058464050293,0,0,0,40000
876166,0.30577459931373596,0.8758735060691833,-84.0,1264.0,-25.90349769592285,-1.1638360023498535,0,0,0,40000
876176,0.26245367527008057,1.3448686599731445,-88.0,775.0,-28.752470016479492,-0.9123085737228394,0,0,0,40000
876186,0.2114093005657196,1.6506080627441406,-72.0,146.0,-30.634197235107422,-0.6129926443099976,0,0,0,40000
876196,0.1762295961380005,1.554048776626587,-48.0,-548.0,-30.102983474731445,-0.40761798620224,0,0,0,40000
876206,0.14602313935756683,0.9323864579200745,-23.0,-1247.0,-26.40995979309082,-0.23109108209609985,0,0,0,40000
876216,0.12929655611515045,0.22581471502780914,-36.0,-1777.0,-22.18606185913086,-0.13486957550048828,0,0,0,40000
876226,0.12432215362787247,-1.0652309656143188,-34.0,-1937.0,-14.42369270324707,-0.10884010791778564,0,0,0,40000
876236,0.12234107404947281,-1.9390506744384766,-19.0,-1859.0,-9.133058547973633,-0.10061728954315186,0,0,0,40000
876246,0.11974485963582993,-3.1052520275115967,-4.0,-1505.0,-2.0558853149414062,-0.08859837055206299,0,0,0,40000
876256,0.09833229333162308,-3.6762967109680176,-14.0,-957.0,1.4741268157958984,0.03668481111526489,0,0,0,40000
876266,0.0691009908914566,-4.083383560180664,-32.0,-197.0,4.035953521728516,0.20958051085472107,0,0,0,40000
876276,0.06658680737018585,-3.97411847114563,-42.0,627.0,3.5013599395751953,0.22260943055152893,0,0,0,40000
876286,0.040880247950553894,-3.3059332370758057,-50.0,1288.0,-0.3990802764892578,0.3753935992717743,0,0,0,40000
876296,0.022939428687095642,-2.615227699279785,-25.0,1692.0,-4.456338882446289,0.4821929633617401,0,0,0,40000
876306,-0.01749657653272152,-1.3779182434082031,-65.0,1875.0,-11.823616027832031,0.724779486656189,0,0,0,40000
876316,-0.04367772117257118,-0.5106522440910339,-71.0,1863.0,-17.00153160095215,0.8828220367431641,0,0,0,40000
876326,-0.08165058493614197,0.6863719820976257,-63.0,1670.0,-24.190364837646484,1.1126127243041992,0,0,0,40000
876336,-0.09575002640485764,1.3668832778930664,-24.0,1323.0,-28.306482315063477,1.1999585628509521,0,0,0,40000
876346,-0.12439517676830292,2.0800957679748535,-15.0,848.0,-32.64064025878906,1.3752937316894531,0,0,0,40000
876356,-0.13509631156921387,2.3171164989471436,-6.0,259.0,-34.12976837158203,1.4434245824813843,0,0,0,40000
876366,-0.13187789916992188,2.2389461994171143,10.0,-385.0,-33.73026657104492,1.4281198978424072,0,0,0,40000
876376,-0.11994057893753052,1.8731305599212646,9.0,-1126.0,-31.59636116027832,1.3601930141448975,0,0,0,40000
876386,-0.10266393423080444,0.8359349370002747,17.0,-1745.0,-25.412044525146484,1.2597997188568115,0,0,0,40000
876396,-0.08518262952566147,-0.05532762035727501,54.0,-2037.0,-20.073623657226562,1.1577494144439697,0,0,0,40000
876406,-0.06544722616672516,-1.4764878749847412,52.0,-2043.0,-11.519384384155273,1.04159677028656,0,0,0,40000
876416,-0.057930365204811096,-2.338181257247925,41.0,-1763.0,-6.289253234863281,0.9982955455780029,0,0,0,40000
876426,-0.04990324378013611,-3.357361078262329,-22.0,-1282.0,-0.08459663391113281,0.9515560269355774,0,0,0,40000
876436,-0.034448910504579544,-3.7501144409179688,-27.0,-559.0,2.3801040649414062,0.8600165247917175,0,0,0,40000
876446,-0.016481101512908936,-3.7688581943511963,28.0,318.0,2.607358932495117,0.7531123161315918,0,0,0,40000
876456,-0.02253267914056778,-3.3923137187957764,23.0,1078.0,0.4547710418701172,0.7900665402412415,0,0,0,40000
876466,-0.0378066822886467,-2.437981128692627,-8.0,1582.0,-5.18557071685791,0.8826632499694824,0,0,0,40000
876476,-0.05073677375912666,-1.6389074325561523,-42.0,1841.0,-9.92111587524414,0.9615312218666077,0,0,0,40000
876486,-0.05916014313697815,-0.3737756311893463,-34.0,1846.0,-17.48553466796875,1.0137079954147339,0,0,0,40000
876496,-0.062086839228868484,0.4367464780807495,-2.0,1708.0,-22.352121353149414,1.0331218242645264,0,0,0,40000
876506,-0.05274253338575363,1.487159252166748,21.0,1390.0,-28.687339782714844,0.9788752794265747,0,0,0,40000
876516,-0.051389921456575394,2.0185248851776123,29.0,958.0,-31.929962158203125,0.9723466038703918,0,0,0,40000
876526,-0.04072444140911102,2.460089921951294,15.0,404.0,-34.649147033691406,0.9096853733062744,0,0,0,40000
876536,-0.038943611085414886,2.4657270908355713,7.0,-251.0,-34.75725173950195,0.9001712799072266,0,0,0,40000
876546,-0.025655506178736687,1.9974697828292847,35.0,-959.0,-32.014808654785156,0.8214380741119385,0,0,0,40000
876556,-0.018319394439458847,1.3657865524291992,37.0,-1637.0,-28.273643493652344,0.7780489325523376,0,0,0,40000
876566,0.02089102193713188,0.07768005132675171,32.0,-2017.0,-20.56357765197754,0.5425404906272888,0,0,0,40000
876576,0.04652206227183342,-0.8774265050888062,24.0,-2109.0,-14.818136215209961,0.38763636350631714,0,0,0,40000
876586,0.07951289415359497,-2.2234530448913574,69.0,-1869.0,-6.690840721130371,0.18784642219543457,0,0,0,40000
876596,0.09323717653751373,-2.957801580429077,27.0,-1386.0,-2.204549789428711,0.1028473973274231,0,0,0,40000
876606,0.10587819665670395,-3.647531032562256,13.0,-750.0,2.0363807678222656,0.02391725778579712,0,0,0,40000
876616,0.10870781540870667,-3.771409273147583,-32.0,80.0,2.8917503356933594,0.003648221492767334,0,0,0,40000
876626,0.09277026355266571,-3.374039888381958,-54.0,889.0,0.6152057647705078,0.09617918729782104,0,0,0,40000
876636,0.07226032763719559,-2.807868242263794,-24.0,1452.0,-2.6904678344726562,0.21689385175704956,0,0,0,40000
876646,0.03277244046330452,-1.6917697191238403,-71.0,1718.0,-9.322371482849121,0.45229655504226685,0,0,0,40000
876656,-0.0062431287951767445,-0.8797711133956909,-96.0,1785.0,-14.158204078674316,0.6860589981079102,0,0,0,40000
876666,-0.06360677629709244,0.315233439207077,-99.0,1685.0,-21.323671340942383,1.0313997268676758,0,0,0,40000
876676,-0.10644521564245224,1.0060060024261475,-96.0,1351.0,-25.49038314819336,1.291109561920166,0,0,0,40000
876686,-0.16619762778282166,1.746059536933899,-74.0,901.0,-29.975250244140625,1.653954267501831,0,0,0,40000
876696,-0.2122812420129776,2.0074517726898193,-81.0,338.0,-31.600990295410156,1.936297059059143,0,0,0,40000
876706,-0.24515452980995178,1.9539636373519897,-48.0,-338.0,-31.340829849243164,2.1405372619628906,0,0,0,40000
876716,-0.2556911110877991,1.581512451171875,-39.0,-1100.0,-29.158437728881836,2.2113351821899414,0,0,0,40000
876726,-0.26955801248550415,0.5154883861541748,4.0,-1810.0,-22.792015075683594,2.302621841430664,0,0,0,40000
876736,-0.2735023498535156,-0.4190400540828705,18.0,-2161.0,-17.183652877807617,2.3344597816467285,0,0,0,40000
876746,-0.26860758662223816,-1.9109357595443726,8.0,-2181.0,-8.192846298217773,2.313159465789795,0,0,0,40000
876756,-0.26853111386299133,-2.852022171020508,-15.0,-1920.0,-2.4718990325927734,2.3207051753997803,0,0,0,40000
876766,-0.27090176939964294,-3.9858882427215576,-18.0,-1449.0,4.438335418701172,2.3429577350616455,0,0,0,40000
876776,-0.27344971895217896,-4.470626354217529,-2.0,-775.0,7.475452423095703,2.3664674758911133,0,0,0,40000
876786,-0.2820689082145691,-4.664249420166016,-12.0,56.0,8.776691436767578,2.4265494346618652,0,0,0,40000
876796,-0.29836228489875793,-4.39668607711792,-33.0,925.0,7.306903839111328,2.5330517292022705,0,0,0,40000
876806,-0.3091483414173126,-3.4966447353363037,-41.0,1526.0,2.02362060546875,2.6068038940429688,0,0,0,40000
876816,-0.3164026141166687,-2.69486927986145,-28.0,1842.0,-2.696399688720703,2.6597447395324707,0,0,0,40000
876826,-0.32168182730674744,-1.360113263130188,3.0,1978.0,-10.647875785827637,2.701077699661255,0,0,0,40000
876836,-0.3254031538963318,-0.46702271699905396,4.0,1885.0,-15.981781959533691,2.7331297397613525,0,0,0,40000
876846,-0.32059693336486816,0.7135334014892578,6.0,1604.0,-23.073034286499023,2.7139651775360107,0,0,0,40000
876856,-0.31557562947273254,1.3248621225357056,11.0,1148.0,-26.773666381835938,2.6933610439300537,0,0,0,40000
876866,-0.3047458529472351,1.8672770261764526,18.0,567.0,-30.078914642333984,2.6376500129699707,0,0,0,40000
876876,-0.29208308458328247,1.947709083557129,47.0,-65.0,-30.61932945251465,2.570617914199829,0,0,0,40000
876886,-0.26374417543411255,1.6044472455978394,64.0,-812.0,-28.613666534423828,2.4088926315307617,0,0,0,40000
876896,-0.22975361347198486,1.0422865152359009,61.0,-1503.0,-25.27910041809082,2.212172508239746,0,0,0,40000
876906,-0.17096443474292755,-0.1886003166437149,60.0,-1943.0,-17.90375328063965,1.865174412727356,0,0,0,40000
876916,-0.11777157336473465,-1.1352684497833252,76.0,-2095.0,-12.201131820678711,1.550232172012329,0,0,0,40000
876926,-0.054713375866413116,-2.508204698562622,113.0,-1919.0,-3.9043407440185547,1.1744639873504639,0,0,0,40000
876936,-0.028670495375990868,-3.3032991886138916,92.0,-1533.0,0.9560317993164062,1.019415259361267,0,0,0,40000
876946,0.01365582924336195,-4.102147102355957,62.0,-923.0,5.863990783691406,0.7654629945755005,0,0,0,40000
876956,0.05069277063012123,-4.300657749176025,11.0,-122.0,7.18212890625,0.5420619249343872,0,0,0,40000
876966,0.07592031359672546,-3.999028205871582,-4.0,777.0,5.497861862182617,0.38860195875167847,0,0,0,40000
876976,0.09049435704946518,-3.4440219402313232,27.0,1446.0,2.278146743774414,0.29865527153015137,0,0,0,40000
876986,0.09623540192842484,-2.307405948638916,9.0,1788.0,-4.457978248596191,0.2614171504974365,0,0,0,40000
876996,0.09396282583475113,-1.4379328489303589,8.0,1942.0,-9.621142387390137,0.27222341299057007,0,0,0,40000
877006,0.08891572058200836,-0.14614489674568176,-16.0,1842.0,-197.53224182128906,0.29970550537109375,0,30,0,40000
877016,0.0949559211730957,0.6371357440948486,-11.0,1598.0,-203.14178466796875,0.260650098323822,0,30,0,40000
877026,0.08772259950637817,1.5693377256393433,-9.0,1174.0,-209.67185974121094,0.3012963533401489,0,30,0,40000
877036,0.07591737061738968,1.9631328582763672,36.0,638.0,-212.9890594482422,0.3697853684425354,0,30,0,40000
877046,0.07736407220363617,2.138399600982666,6.0,-1.0,-215.00416564941406,0.35876700282096863,0,30,0,40000
877056,0.0737043246626854,1.9465640783309937,-25.0,-728.0,-214.81423950195312,0.37841200828552246,0,30,0,40000
877066,0.07668102532625198,1.1290308237075806,-8.0,-1509.0,-210.8544464111328,0.358318030834198,0,30,0,40000
877076,0.08454931527376175,0.2098042368888855,40.0,-2370.0,-206.25689697265625,0.30872344970703125,0,30,0,40000
877086,0.09662321209907532,-1.798540711402893,68.0,-3304.0,-195.07899475097656,0.23369121551513672,0,30,0,40000
877096,0.09607578068971634,-3.58878493309021,73.0,-4313.0,-185.15188598632812,0.2341178059577942,0,30,0,40000
877106,0.13488253951072693,-6.8816819190979,59.0,-5094.0,-166.12918090820312,-0.0023998618125915527,0,30,0,40000
877116,0.16210709512233734,-9.333830833435059,15.0,-5509.0,-152.06588745117188,-0.1704009771347046,0,30,0,40000
877126,0.20559117197990417,-13.148200988769531,34.0,-5587.0,-129.73114013671875,-0.43702733516693115,0,30,0,40000
877136,0.22873325645923615,-15.662740707397461,75.0,-5379.0,-115.10406494140625,-0.5823858380317688,0,30,0,40000
877146,0.25276845693588257,-19.159626007080078,83.0,-4892.0,-94.48880004882812,-0.733772873878479,0,30,0,40000
877156,0.26351550221443176,-21.20718002319336,41.0,-4207.0,-82.49143981933594,-0.8060535788536072,0,30,0,40000
877166,0.2662842571735382,-23.740234375,-4.0,-3345.0,-67.50938415527344,-0.8308377265930176,0,30,0,40000
877176,0.2706553041934967,-25.000999450683594,4.0,-2346.0,-60.10933303833008,-0.8650982975959778,0,30,0,40000
877186,0.2719694674015045,-26.114011764526367,14.0,-1148.0,-53.55858612060547,-0.881097674369812,0,30,0,40000
877196,0.27724704146385193,-26.298221588134766,0.0,-55.0,-52.543724060058594,-0.9193099737167358,0,30,0,40000
877206,0.26710835099220276,-26.07048225402832,-29.0,977.0,-54.02473831176758,-0.8666477799415588,0,30,0,40000
877216,0.24384081363677979,-25.15934944152832,-16.0,1655.0,-59.62434005737305,-0.7346777319908142,0,30,0,40000
877226,0.23195169866085052,-24.305822372436523,-33.0,2083.0,-64.9058609008789,-0.6704391837120056,0,30,0,40000
877236,0.21999996900558472,-22.791200637817383,8.0,2314.0,-74.19111633300781,-0.6054491996765137,0,30,0,40000
877246,0.20720738172531128,-21.734376907348633,-34.0,2285.0,-80.76739501953125,-0.5350725650787354,0,30,0,40000
877256,0.18732871115207672,-20.222898483276367,-30.0,2107.0,-90.11180114746094,-0.42176592350006104,0,30,0,40000
877266,0.17316648364067078,-19.343196868896484,-76.0,1723.0,-95.69939422607422,-0.3422148823738098,0,30,0,40000
877276,0.14026649296283722,-18.332876205444336,-50.0,1215.0,-102.1003189086914,-0.14935404062271118,0,30,0,40000
877286,0.11263515055179596,-17.915441513061523,-17.0,588.0,-104.96281433105469,0.012757420539855957,0,30,0,40000
877296,0.08404871821403503,-17.75288963317871,-23.0,-124.0,-106.30513000488281,0.18141818046569824,0,30,0,40000
877306,0.06474355608224869,-18.005142211914062,-38.0,-983.0,-105.15494537353516,0.2950816750526428,0,30,0,40000
877316,0.03984641283750534,-18.979658126831055,-26.0,-1885.0,-99.6521224975586,0.4429839253425598,0,30,0,40000
877326,0.028961604461073875,-20.066064834594727,-8.0,-2849.0,-93.44528198242188,0.5073118209838867,0,30,0,40000
877336,0.02212580107152462,-22.264034271240234,-9.0,-3495.0,-80.51734161376953,0.5475459694862366,0,30,0,40000
877346,0.01285012811422348,-23.94778060913086,0.0,-3836.0,-70.61681365966797,0.6027305722236633,0,30,0,40000
877356,-0.004819972440600395,-26.58025360107422,-1.0,-3808.0,-54.95608139038086,0.7087148427963257,0,30,0,40000
877366,-0.018937669694423676,-28.272483825683594,23.0,-3568.0,-44.874725341796875,0.7937759757041931,0,30,0,40000
877376,-0.029745636507868767,-30.55518913269043,-8.0,-3087.0,-31.18814468383789,0.8594293594360352,0,30,0,40000
877386,-0.03682519495487213,-31.811147689819336,8.0,-2373.0,-23.612712860107422,0.9029442071914673,0,30,0,40000
877396,-0.04203025996685028,-33.139949798583984,-5.0,-1468.0,-15.559661865234375,0.9353591203689575,0,30,0,40000
877406,-0.05206356197595596,-33.581790924072266,-14.0,-445.0,-12.805885314941406,0.9970034956932068,0,30,0,40000
877416,-0.07700444012880325,-33.50012969970703,-13.0,657.0,-13.187492370605469,1.1486787796020508,0,30,0,40000
877426,-0.08028599619865417,-32.993568420410156,-28.0,1478.0,-16.13051986694336,1.170680046081543,0,30,0,40000
877436,-0.10524208098649979,-31.79500389099121,-41.0,2010.0,-23.252490997314453,1.3232982158660889,0,30,0,40000
877446,-0.10436296463012695,-30.796247482299805,-19.0,2308.0,-29.20899200439453,1.3212162256240845,0,30,0,40000
877456,-0.11141745001077652,-29.16583251953125,-15.0,2400.0,-38.99671173095703,1.3668992519378662,0,30,0,40000
877466,-0.11929945647716522,-28.085512161254883,0.0,2287.0,-45.52317428588867,1.417700171470642,0,30,0,40000
877476,-0.11648440361022949,-26.59559440612793,19.0,2028.0,-54.54747009277344,1.4043560028076172,0,30,0,40000
