timestamp,stabilizer.roll,stabilizer.pitch,stateEstimateZ.rateRoll,stateEstimateZ.ratePitch,controller.pitchRate,controller.rollRate,roll,pitch,yawdot,thrust
388425,-36.483070373535156,69.17040252685547,5.0,4.0,-417.0975341796875,219.992919921875,0,0,0,40000
388435,-36.507423400878906,69.16912841796875,2.0,0.0,-419.16497802734375,221.23387145996094,0,0,0,40000
388445,-36.52111053466797,69.13551330566406,-14.0,-22.0,-421.03778076171875,222.411376953125,0,0,0,40000
388455,-36.51415252685547,69.09546661376953,-66.0,-94.0,-422.8709411621094,223.46524047851562,0,0,0,40000
388465,-36.43305206298828,68.97899627685547,-14.0,-264.0,-424.2431945800781,224.0733642578125,0,0,0,40000
388475,-36.201480865478516,68.80084228515625,107.0,-518.0,-425.2406005859375,223.7728271484375,0,0,0,40000
388485,-35.562618255615234,68.40830993652344,31.0,-848.0,-424.94293212890625,221.01510620117188,0,0,0,40000
388495,-34.79793167114258,67.99927520751953,79.0,-1314.0,-424.53387451171875,217.48043823242188,0,0,0,40000
388505,-33.25846481323242,67.1502685546875,135.0,-1776.0,-421.4653625488281,209.2615203857422,0,0,0,40000
388515,-31.93936538696289,66.41199493408203,202.0,-2265.0,-419.0372009277344,202.3212127685547,0,0,0,40000
388525,-29.613229751586914,64.9946517944336,299.0,-2765.0,-412.50091552734375,189.2818603515625,0,0,0,40000
388535,-27.892446517944336,63.830753326416016,408.0,-3247.0,-407.44671630859375,179.81463623046875,0,0,0,40000
388545,-25.199914932250977,61.80192184448242,440.0,-3647.0,-397.1529541015625,164.4476776123047,0,0,0,40000
388555,-23.364389419555664,60.26929473876953,536.0,-4042.0,-389.783935546875,154.15731811523438,0,0,0,40000
388565,-20.723764419555664,57.71925735473633,715.0,-4329.0,-376.24658203125,138.9667510986328,0,0,0,40000
388575,-19.01608657836914,55.88175582885742,882.0,-4600.0,-366.92022705078125,129.3117218017578,0,0,0,40000
388585,-16.5391788482666,52.93123245239258,1030.0,-4798.0,-350.8409729003906,114.97589111328125,0,0,0,40000
388595,-14.948185920715332,50.856964111328125,1162.0,-4953.0,-339.9460754394531,105.89724731445312,0,0,0,40000
388605,-12.623688697814941,47.62601852416992,1393.0,-5090.0,-322.0282287597656,92.35687255859375,0,0,0,40000
388615,-11.120986938476562,45.419803619384766,1614.0,-5097.0,-310.18011474609375,83.69239807128906,0,0,0,40000
388625,-8.928343772888184,42.07500457763672,1787.0,-5084.0,-291.4138488769531,70.83052062988281,0,0,0,40000
388635,-7.492919445037842,39.853878021240234,1923.0,-4994.0,-279.309326171875,62.4598388671875,0,0,0,40000
388645,-5.372509956359863,36.554229736328125,2099.0,-4890.0,-260.6474609375,49.923789978027344,0,0,0,40000
388655,-3.9731857776641846,34.41859817504883,2300.0,-4701.0,-248.89178466796875,41.66382598876953,0,0,0,40000
388665,-1.903422474861145,31.313274383544922,2438.0,-4450.0,-231.23599243164062,29.32724380493164,0,0,0,40000
388675,-0.5481059551239014,29.343482971191406,2537.0,-4210.0,-220.3211212158203,21.22797203063965,0,0,0,40000
388685,1.4473778009414673,26.58167266845703,2562.0,-3875.0,-204.58009338378906,9.235361099243164,0,0,0,40000
388695,2.727184772491455,24.878381729125977,2576.0,-3536.0,-195.12698364257812,1.4899864196777344,0,0,0,40000
388705,4.590681076049805,22.561235427856445,2547.0,-3156.0,-181.9279022216797,-9.80665397644043,0,0,0,40000
388715,5.77003812789917,21.20197105407715,2421.0,-2736.0,-174.42446899414062,-17.04183006286621,0,0,0,40000
388725,7.395545482635498,19.455184936523438,2260.0,-2292.0,-164.54739379882812,-26.9976806640625,0,0,0,40000
388735,8.387142181396484,18.49871063232422,2051.0,-1851.0,-159.37474060058594,-33.18710708618164,0,0,0,40000
388745,9.700725555419922,17.378585815429688,1776.0,-1384.0,-153.18768310546875,-41.34455490112305,0,0,0,40000
388755,10.469865798950195,16.840038299560547,1549.0,-915.0,-150.46780395507812,-46.26443099975586,0,0,0,40000
388765,11.425334930419922,16.340198516845703,1236.0,-488.0,-147.9640350341797,-52.32925796508789,0,0,0,40000
388775,11.931257247924805,16.212177276611328,937.0,-78.0,-147.68357849121094,-55.71684265136719,0,0,0,40000
388785,12.463408470153809,16.28556251525879,632.0,306.0,-148.6106719970703,-59.27789306640625,0,0,0,40000
388795,12.668170928955078,16.4926815032959,313.0,655.0,-150.34548950195312,-60.884254455566406,0,0,0,40000
388805,12.769458770751953,17.0304012298584,-41.0,906.0,-154.07574462890625,-61.874671936035156,0,0,0,40000
388815,12.694067001342773,17.520565032958984,-380.0,1177.0,-157.53631591796875,-61.80424118041992,0,0,0,40000
388825,12.377606391906738,18.415876388549805,-616.0,1390.0,-163.4494171142578,-60.281044006347656,0,0,0,40000
388835,12.027331352233887,19.10439682006836,-865.0,1583.0,-168.14532470703125,-58.54447937011719,0,0,0,40000
388845,11.348578453063965,20.241329193115234,-1072.0,1696.0,-175.5602569580078,-54.821022033691406,0,0,0,40000
388855,10.773956298828125,21.061996459960938,-1261.0,1801.0,-181.10623168945312,-51.70353698730469,0,0,0,40000
388865,9.810492515563965,22.357614517211914,-1412.0,1897.0,-189.53489685058594,-46.229103088378906,0,0,0,40000
388875,9.096518516540527,23.25694465637207,-1541.0,1924.0,-195.61782836914062,-42.226844787597656,0,0,0,40000
388885,7.928617477416992,24.613306045532227,-1603.0,1928.0,-204.47805786132812,-35.471641540527344,0,0,0,40000
388895,7.096170425415039,25.51802635192871,-1641.0,1896.0,-210.6610870361328,-30.699832916259766,0,0,0,40000
388905,5.794159412384033,26.833723068237305,-1618.0,1820.0,-219.34471130371094,-23.077251434326172,0,0,0,40000
388915,4.90034818649292,27.681299209594727,-1603.0,1762.0,-225.2504425048828,-17.872150421142578,0,0,0,40000
388925,3.5562965869903564,28.88510513305664,-1568.0,1657.0,-233.31063842773438,-9.93079948425293,0,0,0,40000
388935,2.654033660888672,29.619647979736328,-1505.0,1530.0,-237.7178955078125,-4.607645034790039,0,0,0,40000
388945,1.3390382528305054,30.639076232910156,-1406.0,1406.0,-243.83445739746094,3.226551055908203,0,0,0,40000
388955,0.48765450716018677,31.256362915039062,-1283.0,1297.0,-247.53817749023438,8.31009578704834,0,0,0,40000
388965,-0.7278354167938232,32.089447021484375,-1188.0,1183.0,-252.53668212890625,15.610418319702148,0,0,0,40000
388975,-1.490340232849121,32.59152603149414,-1115.0,1069.0,-255.54916381835938,20.22104263305664,0,0,0,40000
388985,-2.5547990798950195,33.258445739746094,-966.0,978.0,-259.5506591796875,26.672027587890625,0,0,0,40000
388995,-3.1918153762817383,33.658084869384766,-840.0,862.0,-261.9485168457031,30.582345962524414,0,0,0,40000
389005,-4.042447566986084,34.178585052490234,-676.0,795.0,-265.0715026855469,35.79755401611328,0,0,0,40000
389015,-4.528369903564453,34.48837661743164,-581.0,677.0,-266.9302673339844,38.843162536621094,0,0,0,40000
389025,-5.131165027618408,34.89501953125,-453.0,617.0,-269.3701171875,42.60698699951172,0,0,0,40000
389035,-5.453463077545166,35.142242431640625,-303.0,570.0,-270.85345458984375,44.700618743896484,0,0,0,40000
389045,-5.794524669647217,35.48563766479492,-133.0,511.0,-272.913818359375,46.91730880737305,0,0,0,40000
389055,-5.942915439605713,35.686397552490234,-25.0,461.0,-274.1183776855469,47.9842529296875,0,0,0,40000
389065,-6.0282793045043945,35.96653747558594,64.0,413.0,-275.7992248535156,48.67666244506836,0,0,0,40000
389075,-6.003692626953125,36.144561767578125,207.0,407.0,-276.86737060546875,48.70965576171875,0,0,0,40000
389085,-5.833680629730225,36.4224853515625,334.0,394.0,-278.534912109375,47.867042541503906,0,0,0,40000
389095,-5.646542072296143,36.605960845947266,441.0,440.0,-279.6357727050781,46.91594696044922,0,0,0,40000
389105,-5.255932331085205,36.905357360839844,534.0,423.0,-281.43212890625,44.73490524291992,0,0,0,40000
389115,-4.926759243011475,37.110313415527344,615.0,463.0,-282.661865234375,42.91166687011719,0,0,0,40000
389125,-4.364458084106445,37.432647705078125,679.0,466.0,-284.59588623046875,39.6758918762207,0,0,0,40000
389135,-3.936345100402832,37.66358184814453,771.0,503.0,-285.98150634765625,37.23052978515625,0,0,0,40000
389145,-3.2246642112731934,38.02382278442383,849.0,539.0,-288.1429443359375,33.06605529785156,0,0,0,40000
389155,-2.7131104469299316,38.28052520751953,870.0,555.0,-289.68316650390625,30.084312438964844,0,0,0,40000
389165,-1.8933873176574707,38.67284393310547,918.0,580.0,-292.03704833984375,25.232746124267578,0,0,0,40000
389175,-1.3302271366119385,38.94683074951172,898.0,591.0,-293.68096923828125,21.900487899780273,0,0,0,40000
389185,-0.4839538335800171,39.34270477294922,935.0,596.0,-296.05621337890625,16.84746742248535,0,0,0,40000
389195,0.10643386095762253,39.613731384277344,871.0,602.0,-297.682373046875,13.309063911437988,0,0,0,40000
389205,0.9544823169708252,40.00013732910156,921.0,573.0,-300.0008239746094,8.202348709106445,0,0,0,40000
389215,1.5083134174346924,40.24481964111328,862.0,532.0,-301.46893310546875,4.840785980224609,0,0,0,40000
389225,2.312803268432617,40.567623138427734,772.0,470.0,-303.4057312011719,-0.046031951904296875,0,0,0,40000
389235,2.8189990520477295,40.76041793823242,727.0,423.0,-304.5625,-3.16178035736084,0,0,0,40000
389245,3.532026529312134,40.993896484375,674.0,346.0,-305.96337890625,-7.537498474121094,0,0,0,40000
389255,3.95708966255188,41.111907958984375,605.0,264.0,-306.67144775390625,-10.201534271240234,0,0,0,40000
389265,4.540627479553223,41.24639892578125,568.0,200.0,-307.4783935546875,-13.832223892211914,0,0,0,40000
389275,4.880140781402588,41.30205154418945,459.0,110.0,-307.81231689453125,-16.01172637939453,0,0,0,40000
389285,5.305537223815918,41.34758758544922,384.0,63.0,-308.08551025390625,-18.718490600585938,0,0,0,40000
389295,5.547717571258545,41.34385681152344,342.0,-29.0,-308.0631408691406,-20.335124969482422,0,0,0,40000
389305,5.801244258880615,41.307430267333984,244.0,-66.0,-307.8445739746094,-22.027462005615234,0,0,0,40000
389315,5.91616678237915,41.254764556884766,146.0,-143.0,-307.5285949707031,-22.893239974975586,0,0,0,40000
389325,5.982362747192383,41.11918640136719,68.0,-217.0,-306.7151184082031,-23.469436645507812,0,0,0,40000
389335,5.962535381317139,40.9989013671875,12.0,-297.0,-305.993408203125,-23.529674530029297,0,0,0,40000
389345,5.860639572143555,40.75252914428711,-76.0,-414.0,-304.5151672363281,-23.095714569091797,0,0,0,40000
389355,5.727725505828857,40.54609680175781,-165.0,-517.0,-303.2765808105469,-22.471691131591797,0,0,0,40000
389365,5.449665546417236,40.143184661865234,-204.0,-650.0,-300.8591003417969,-20.970367431640625,0,0,0,40000
389375,5.2317352294921875,39.82923126220703,-288.0,-754.0,-298.97540283203125,-19.822362899780273,0,0,0,40000
389385,4.833367347717285,39.28092956542969,-298.0,-843.0,-295.6855773925781,-17.582048416137695,0,0,0,40000
389395,4.542507171630859,38.88264846801758,-376.0,-923.0,-293.2958984375,-15.976713180541992,0,0,0,40000
389405,4.075567245483398,38.243316650390625,-413.0,-972.0,-289.45989990234375,-13.303121566772461,0,0,0,40000
389415,3.739835023880005,37.7913818359375,-445.0,-1022.0,-286.748291015625,-11.404952049255371,0,0,0,40000
389425,3.219460964202881,37.09710693359375,-441.0,-1028.0,-282.5826416015625,-8.385570526123047,0,0,0,40000
389435,2.870514154434204,36.62596130371094,-497.0,-1073.0,-279.7557678222656,-6.382152557373047,0,0,0,40000
389445,2.352505683898926,35.895362854003906,-434.0,-1070.0,-275.3721923828125,-3.350844383239746,0,0,0,40000
389455,2.0250983238220215,35.40665054321289,-473.0,-1083.0,-272.4399108886719,-1.4511232376098633,0,0,0,40000
389465,1.5348109006881714,34.67799758911133,-468.0,-1052.0,-268.0679931640625,1.4385957717895508,0,0,0,40000
389475,1.217943549156189,34.209102630615234,-431.0,-1017.0,-265.2546081542969,3.299510955810547,0,0,0,40000
389485,0.7886937856674194,33.5225944519043,-389.0,-979.0,-261.13555908203125,5.846382141113281,0,0,0,40000
389495,0.5138593912124634,33.08100509643555,-375.0,-959.0,-258.48602294921875,7.476737976074219,0,0,0,40000
389505,0.16573041677474976,32.44633483886719,-350.0,-932.0,-254.67800903320312,9.556509017944336,0,0,0,40000
389515,-0.049786701798439026,32.019351959228516,-289.0,-922.0,-252.11611938476562,10.84853458404541,0,0,0,40000
389525,-0.32700642943382263,31.395936965942383,-249.0,-901.0,-248.37562561035156,12.518573760986328,0,0,0,40000
389535,-0.47817376255989075,30.992849349975586,-163.0,-865.0,-245.95709228515625,13.438141822814941,0,0,0,40000
389545,-0.6588250994682312,30.42206573486328,-173.0,-828.0,-242.5323944091797,14.539704322814941,0,0,0,40000
389555,-0.738370418548584,30.055620193481445,-85.0,-782.0,-240.33372497558594,15.038195610046387,0,0,0,40000
389565,-0.8092536330223083,29.540800094604492,-16.0,-707.0,-237.2447967529297,15.48721694946289,0,0,0,40000
389575,-0.8203273415565491,29.235319137573242,62.0,-644.0,-235.4119110107422,15.57817268371582,0,0,0,40000
389585,-0.7734954357147217,28.825092315673828,104.0,-570.0,-232.9505615234375,15.32109260559082,0,0,0,40000
389595,-0.7205237746238708,28.585020065307617,136.0,-473.0,-231.51011657714844,15.025527954101562,0,0,0,40000
389605,-0.5846661329269409,28.269878387451172,182.0,-432.0,-229.6192626953125,14.229586601257324,0,0,0,40000
389615,-0.4675804376602173,28.088565826416016,267.0,-331.0,-228.53140258789062,13.542601585388184,0,0,0,40000
389625,-0.2362697869539261,27.89976692199707,307.0,-231.0,-227.3986053466797,12.164809226989746,0,0,0,40000
389635,-0.05719975754618645,27.804914474487305,347.0,-180.0,-226.82948303222656,11.094261169433594,0,0,0,40000
389645,0.2389824092388153,27.71011734008789,329.0,-120.0,-226.26071166992188,9.313554763793945,0,0,0,40000
389655,0.45045870542526245,27.662738800048828,377.0,-69.0,-225.9764404296875,8.033726692199707,0,0,0,40000
389665,0.7870103716850281,27.62944984436035,398.0,-10.0,-225.77670288085938,5.994976997375488,0,0,0,40000
389675,1.0201871395111084,27.636526107788086,448.0,-3.0,-225.81915283203125,4.568188190460205,0,0,0,40000
389685,1.397072196006775,27.66327476501465,441.0,79.0,-225.97964477539062,2.2694435119628906,0,0,0,40000
389695,1.646396517753601,27.70246696472168,409.0,119.0,-226.2147979736328,0.727076530456543,0,0,0,40000
389705,2.029995918273926,27.791032791137695,418.0,157.0,-226.74620056152344,-1.6309385299682617,0,0,0,40000
389715,2.288555383682251,27.87470245361328,390.0,204.0,-227.2482147216797,-3.2477970123291016,0,0,0,40000
389725,2.6518685817718506,28.01148223876953,405.0,242.0,-228.0688934326172,-5.502922058105469,0,0,0,40000
389735,2.86795711517334,28.118558883666992,368.0,229.0,-228.7113494873047,-6.88289737701416,0,0,0,40000
389745,3.199390172958374,28.29482650756836,359.0,270.0,-229.76895141601562,-8.963488578796387,0,0,0,40000
389755,3.3990159034729004,28.423419952392578,319.0,324.0,-230.54052734375,-10.260882377624512,0,0,0,40000
389765,3.669546365737915,28.629911422729492,224.0,338.0,-231.7794647216797,-11.991071701049805,0,0,0,40000
389775,3.825915813446045,28.772031784057617,240.0,345.0,-232.63218688964844,-13.042163848876953,0,0,0,40000
389785,4.012217998504639,29.027612686157227,156.0,410.0,-234.16567993164062,-14.278313636779785,0,0,0,40000
389795,4.12152624130249,29.213829040527344,182.0,424.0,-235.28297424316406,-15.05650520324707,0,0,0,40000
389805,4.2535905838012695,29.502328872680664,114.0,442.0,-237.01397705078125,-15.97500228881836,0,0,0,40000
389815,4.319652080535889,29.6962890625,79.0,443.0,-238.177734375,-16.500215530395508,0,0,0,40000
389825,4.375675201416016,30.002349853515625,33.0,448.0,-240.01409912109375,-16.96706771850586,0,0,0,40000
389835,4.386475563049316,30.198898315429688,-6.0,434.0,-241.19338989257812,-17.163366317749023,0,0,0,40000
389845,4.372169017791748,30.501537322998047,-66.0,431.0,-243.00921630859375,-17.209009170532227,0,0,0,40000
389855,4.338250160217285,30.69475746154785,-82.0,431.0,-244.16854858398438,-17.13608169555664,0,0,0,40000
389865,4.249480724334717,30.971420288085938,-133.0,393.0,-245.82852172851562,-16.732093811035156,0,0,0,40000
389875,4.1671833992004395,31.14159393310547,-147.0,351.0,-246.8495635986328,-16.36431884765625,0,0,0,40000
389885,4.0096282958984375,31.359556198120117,-165.0,305.0,-248.15733337402344,-15.541132926940918,0,0,0,40000
389895,3.884141445159912,31.494619369506836,-227.0,250.0,-248.96771240234375,-14.906286239624023,0,0,0,40000
389905,3.673842668533325,31.65117073059082,-235.0,213.0,-249.9070281982422,-13.757308006286621,0,0,0,40000
389915,3.5189099311828613,31.73693084716797,-273.0,172.0,-250.4215850830078,-12.935159683227539,0,0,0,40000
389925,3.251020908355713,31.822240829467773,-295.0,96.0,-250.93344116210938,-11.42867660522461,0,0,0,40000
389935,3.061314582824707,31.85163688659668,-287.0,25.0,-251.1098175048828,-10.38450813293457,0,0,0,40000
389945,2.7684438228607178,31.848913192749023,-302.0,-44.0,-251.09347534179688,-8.714022636413574,0,0,0,40000
389955,2.571890115737915,31.817262649536133,-328.0,-89.0,-250.90357971191406,-7.614236831665039,0,0,0,40000
389965,2.2726128101348877,31.739683151245117,-332.0,-132.0,-250.43809509277344,-5.890303134918213,0,0,0,40000
389975,2.072227716445923,31.672643661499023,-287.0,-159.0,-250.03585815429688,-4.752583026885986,0,0,0,40000
389985,1.7884907722473145,31.57199478149414,-298.0,-166.0,-249.43197631835938,-3.107095718383789,0,0,0,40000
389995,1.5934463739395142,31.495838165283203,-293.0,-149.0,-248.97503662109375,-1.987030029296875,0,0,0,40000
390005,1.4072754383087158,31.416919708251953,-290.0,-191.0,-248.50152587890625,-0.9048905372619629,0,0,0,40000
390015,1.1336559057235718,31.284385681152344,-309.0,-185.0,-247.70631408691406,0.6996383666992188,0,0,0,40000
390025,0.9627065062522888,31.20853042602539,-215.0,-112.0,-247.25119018554688,1.6944499015808105,0,0,0,40000
390035,0.7483311891555786,31.151371002197266,-209.0,-44.0,-246.90823364257812,2.9558629989624023,0,0,0,40000
390045,0.6123050451278687,31.13887596130371,-205.0,-6.0,-246.833251953125,3.751934766769409,0,0,0,40000
390055,0.43912944197654724,31.161237716674805,-188.0,48.0,-246.96742248535156,4.77581787109375,0,0,0,40000
390065,0.3365808129310608,31.19651222229004,-124.0,133.0,-247.1790771484375,5.37980842590332,0,0,0,40000
390075,0.2084946632385254,31.299163818359375,-127.0,175.0,-247.79498291015625,6.140535354614258,0,0,0,40000
390085,0.1348797082901001,31.38749122619629,-75.0,256.0,-248.324951171875,6.577332496643066,0,0,0,40000
390095,0.07021938264369965,31.58201026916504,-74.0,301.0,-249.4920654296875,6.962485313415527,0,0,0,40000
390105,0.04155166447162628,31.726459503173828,-35.0,325.0,-250.3587646484375,7.132857322692871,0,0,0,40000
390115,0.02996417135000229,31.968053817749023,-30.0,384.0,-251.80831909179688,7.201534748077393,0,0,0,40000
390125,0.017094770446419716,32.140113830566406,44.0,413.0,-252.84068298339844,7.278115272521973,0,0,0,40000
390135,0.03561929240822792,32.431766510009766,9.0,443.0,-254.59060668945312,7.166248321533203,0,0,0,40000
390145,0.04326198995113373,32.647701263427734,45.0,503.0,-255.88619995117188,7.119163513183594,0,0,0,40000
390155,0.09032852202653885,33.009483337402344,81.0,550.0,-258.056884765625,6.8346428871154785,0,0,0,40000
390165,0.13968223333358765,33.261817932128906,44.0,574.0,-259.5709228515625,6.534918785095215,0,0,0,40000
390175,0.22256264090538025,33.66338348388672,65.0,616.0,-261.98028564453125,6.032051086425781,0,0,0,40000
390185,0.284881055355072,33.949954986572266,101.0,631.0,-263.6997375488281,5.650452136993408,0,0,0,40000
390195,0.3884128928184509,34.374847412109375,149.0,632.0,-266.24908447265625,5.018914222717285,0,0,0,40000
390205,0.4495086371898651,34.65160369873047,115.0,627.0,-267.90960693359375,4.639519691467285,0,0,0,40000
390215,0.5691066980361938,35.07423400878906,83.0,599.0,-270.4454040527344,3.9061996936798096,0,0,0,40000
390225,0.6555518507957458,35.34141159057617,103.0,562.0,-272.0484619140625,3.3689494132995605,0,0,0,40000
390235,0.7871078848838806,35.71027755737305,166.0,519.0,-274.26165771484375,2.557673931121826,0,0,0,40000
390245,0.8671305179595947,35.93520736694336,128.0,479.0,-275.6112365722656,2.052506446838379,0,0,0,40000
390255,0.9927288889884949,36.250343322753906,139.0,470.0,-277.5020751953125,1.27034330368042,0,0,0,40000
390265,1.091968297958374,36.45226287841797,74.0,394.0,-278.71356201171875,0.643256664276123,0,0,0,40000
390275,1.2127031087875366,36.70654296875,104.0,347.0,-280.2392578125,-0.11617755889892578,0,0,0,40000
390285,1.3099579811096191,36.84600830078125,155.0,262.0,-281.0760498046875,-0.7376947402954102,0,0,0,40000
390295,1.4430617094039917,37.00197219848633,139.0,214.0,-282.0118408203125,-1.577958106994629,0,0,0,40000
390305,1.5264265537261963,37.079933166503906,111.0,134.0,-282.4796142578125,-2.1229710578918457,0,0,0,40000
390315,1.6552953720092773,37.14673614501953,92.0,45.0,-282.88043212890625,-2.944408893585205,0,0,0,40000
390325,1.7281618118286133,37.152103424072266,59.0,-6.0,-282.9126281738281,-3.432558059692383,0,0,0,40000
390335,1.8114500045776367,37.10545349121094,102.0,-73.0,-282.6327209472656,-3.985689640045166,0,0,0,40000
390345,1.862561583518982,37.05623245239258,78.0,-140.0,-282.33740234375,-4.347588062286377,0,0,0,40000
390355,1.9342608451843262,36.93805694580078,57.0,-185.0,-281.62835693359375,-4.835104465484619,0,0,0,40000
390365,1.9702446460723877,36.83241653442383,43.0,-253.0,-280.9945068359375,-5.109708786010742,0,0,0,40000
390375,2.020270824432373,36.64210891723633,17.0,-296.0,-279.8526611328125,-5.4698486328125,0,0,0,40000
390385,2.0301008224487305,36.498023986816406,30.0,-344.0,-278.9881591796875,-5.5896148681640625,0,0,0,40000
390395,2.0387940406799316,36.256690979003906,9.0,-374.0,-277.5401611328125,-5.702898979187012,0,0,0,40000
390405,2.031116008758545,36.0804443359375,-41.0,-403.0,-276.482666015625,-5.717897415161133,0,0,0,40000
390415,1.9949562549591064,35.78483200073242,-30.0,-420.0,-274.708984375,-5.56126594543457,0,0,0,40000
390425,1.9810444116592407,35.58588790893555,-37.0,-439.0,-273.51531982421875,-5.537383556365967,0,0,0,40000
390435,1.9314441680908203,35.282806396484375,-46.0,-430.0,-271.69683837890625,-5.298278331756592,0,0,0,40000
390445,1.8878780603408813,35.082664489746094,-40.0,-435.0,-270.4959716796875,-5.094083786010742,0,0,0,40000
390455,1.8206121921539307,34.78622817993164,-48.0,-428.0,-268.7173767089844,-4.7458882331848145,0,0,0,40000
390465,1.7798478603363037,34.59209442138672,-85.0,-415.0,-267.55255126953125,-4.555273056030273,0,0,0,40000
390475,1.6993484497070312,34.31074523925781,-90.0,-398.0,-265.8644714355469,-4.124323844909668,0,0,0,40000
390485,1.6341898441314697,34.14371109008789,-85.0,-325.0,-264.8622741699219,-3.7830982208251953,0,0,0,40000
390495,1.5548278093338013,33.92826843261719,-1.0,-296.0,-263.5696105957031,-3.354337692260742,0,0,0,40000
390505,1.5023630857467651,33.80919647216797,-95.0,-239.0,-262.85516357421875,-3.085291862487793,0,0,0,40000
390515,1.40511953830719,33.664886474609375,-96.0,-176.0,-261.98931884765625,-2.5452194213867188,0,0,0,40000
390525,1.3563759326934814,33.5992317199707,-99.0,-113.0,-261.59539794921875,-2.294062614440918,0,0,0,40000
390535,1.262605905532837,33.537715911865234,-103.0,-47.0,-261.2262878417969,-1.7703557014465332,0,0,0,40000
390545,1.2128777503967285,33.53361511230469,-54.0,20.0,-261.2016906738281,-1.5089788436889648,0,0,0,40000
390555,1.1339117288589478,33.560672760009766,-59.0,94.0,-261.3640441894531,-1.070124626159668,0,0,0,40000
390565,1.0907397270202637,33.600589752197266,-78.0,105.0,-261.6035461425781,-0.8443880081176758,0,0,0,40000
390575,1.0295652151107788,33.69217300415039,-70.0,141.0,-262.1530456542969,-0.5090427398681641,0,0,0,40000
390585,0.9979207515716553,33.76543426513672,-72.0,189.0,-262.59259033203125,-0.3494381904602051,0,0,0,40000
390595,0.9344772100448608,33.88606643676758,-45.0,173.0,-263.31640625,0.002452850341796875,0,0,0,40000
390605,0.9170752167701721,33.96958541870117,-50.0,189.0,-263.8175048828125,0.07919979095458984,0,0,0,40000
390615,0.8578773736953735,34.09313201904297,-17.0,180.0,-264.55877685546875,0.40790891647338867,0,0,0,40000
390625,0.8399524092674255,34.17414855957031,-24.0,191.0,-265.0448913574219,0.4900040626525879,0,0,0,40000
390635,0.8146485686302185,34.30070495605469,-23.0,214.0,-265.8042297363281,0.6169285774230957,0,0,0,40000
390645,0.813910186290741,34.393924713134766,-55.0,195.0,-266.3635559082031,0.5968847274780273,0,0,0,40000
390655,0.7893326878547668,34.53651809692383,-1.0,241.0,-267.2191162109375,0.7203402519226074,0,0,0,40000
390665,0.7896835207939148,34.64499282836914,-18.0,235.0,-267.8699645996094,0.6945881843566895,0,0,0,40000
390675,0.7712808847427368,34.8171501159668,-7.0,254.0,-268.90289306640625,0.7816781997680664,0,0,0,40000
390685,0.773308515548706,34.93924331665039,-2.0,281.0,-269.6354675292969,0.7463822364807129,0,0,0,40000
390695,0.7716852426528931,35.113441467285156,2.0,273.0,-270.6806640625,0.7327980995178223,0,0,0,40000
390705,0.7756723165512085,35.23185348510742,-14.0,275.0,-271.39111328125,0.6856889724731445,0,0,0,40000
390715,0.7877237200737,35.41963195800781,7.0,269.0,-272.5177917480469,0.5899062156677246,0,0,0,40000
390725,0.7956270575523376,35.53889083862305,19.0,255.0,-273.23333740234375,0.5186810493469238,0,0,0,40000
390735,0.7893065810203552,35.71918487548828,-2.0,272.0,-274.31512451171875,0.5329127311706543,0,0,0,40000
390745,0.7898684740066528,35.83912658691406,18.0,277.0,-275.0347595214844,0.5057573318481445,0,0,0,40000
390755,0.7843492031097412,36.034793853759766,-27.0,278.0,-276.2087707519531,0.5153012275695801,0,0,0,40000
390765,0.7956132888793945,36.17383575439453,-1.0,273.0,-277.04302978515625,0.42399072647094727,0,0,0,40000
390775,0.7974724769592285,36.359718322753906,22.0,271.0,-278.1583251953125,0.38898420333862305,0,0,0,40000
390785,0.8193938136100769,36.467411041259766,16.0,232.0,-278.8044738769531,0.23311710357666016,0,0,0,40000
390795,0.8077480792999268,36.62179946899414,-33.0,252.0,-279.7308044433594,0.27857351303100586,0,0,0,40000
390805,0.8232879638671875,36.732208251953125,6.0,221.0,-280.39324951171875,0.16080379486083984,0,0,0,40000
390815,0.8328894972801208,36.87015914916992,-39.0,183.0,-281.220947265625,0.07853460311889648,0,0,0,40000
390825,0.8089434504508972,36.94104766845703,26.0,176.0,-281.64630126953125,0.1976785659790039,0,0,0,40000
390835,0.8171760439872742,37.062767028808594,11.0,162.0,-282.3765869140625,0.12401676177978516,0,0,0,40000
390845,0.8155475854873657,37.12584686279297,-5.0,152.0,-282.75506591796875,0.10923385620117188,0,0,0,40000
390855,0.8135311603546143,37.201683044433594,-28.0,84.0,-283.2100830078125,0.09685611724853516,0,0,0,40000
390865,0.804080069065094,37.225379943847656,32.0,38.0,-283.352294921875,0.1293807029724121,0,0,0,40000
390875,0.7952677607536316,37.22269821166992,-5.0,-39.0,-283.336181640625,0.15854120254516602,0,0,0,40000
390885,0.7856001257896423,37.19416809082031,42.0,-55.0,-283.1650085449219,0.19275617599487305,0,0,0,40000
390895,0.7943509221076965,37.12594223022461,-19.0,-142.0,-282.7556457519531,0.11654996871948242,0,0,0,40000
390905,0.7957302927970886,37.04308319091797,-6.0,-181.0,-282.25848388671875,0.08437919616699219,0,0,0,40000
390915,0.8189073801040649,36.899776458740234,31.0,-224.0,-281.3986511230469,-0.07900190353393555,0,0,0,40000
390925,0.8269596099853516,36.78163146972656,32.0,-270.0,-280.6897888183594,-0.15197086334228516,0,0,0,40000
390935,0.8599735498428345,36.583457946777344,25.0,-290.0,-279.500732421875,-0.37552547454833984,0,0,0,40000
390945,0.8766963481903076,36.43915557861328,18.0,-338.0,-278.63494873046875,-0.5019774436950684,0,0,0,40000
390955,0.905538022518158,36.18339157104492,49.0,-364.0,-277.100341796875,-0.7018160820007324,0,0,0,40000
390965,0.924878716468811,36.012657165527344,26.0,-383.0,-276.075927734375,-0.845374584197998,0,0,0,40000
390975,0.968658983707428,35.737159729003906,29.0,-419.0,-274.4229736328125,-1.1367483139038086,0,0,0,40000
390985,0.9830614924430847,35.54033660888672,-9.0,-427.0,-273.24200439453125,-1.2524833679199219,0,0,0,40000
390995,1.0266578197479248,35.22773742675781,46.0,-462.0,-271.3664245605469,-1.544313907623291,0,0,0,40000
391005,1.041242241859436,35.00775146484375,81.0,-454.0,-270.0465087890625,-1.6628003120422363,0,0,0,40000
391015,1.0701611042022705,34.66124725341797,37.0,-529.0,-267.96746826171875,-1.8681235313415527,0,0,0,40000
391025,1.0933271646499634,34.42134475708008,22.0,-507.0,-266.528076171875,-2.0396604537963867,0,0,0,40000
391035,1.1328970193862915,34.05747985839844,36.0,-550.0,-264.3448791503906,-2.3106870651245117,0,0,0,40000
391045,1.165714144706726,33.8016357421875,58.0,-554.0,-262.809814453125,-2.5421504974365234,0,0,0,40000
391055,1.2101718187332153,33.41966247558594,30.0,-577.0,-260.5179748535156,-2.8447165489196777,0,0,0,40000
391065,1.2446990013122559,33.160160064697266,33.0,-545.0,-258.9609680175781,-3.0888447761535645,0,0,0,40000
391075,1.2712373733520508,32.77516555786133,25.0,-552.0,-256.6510009765625,-3.2857799530029297,0,0,0,40000
391085,1.3059649467468262,32.52670669555664,61.0,-553.0,-255.16024780273438,-3.5328783988952637,0,0,0,40000
391095,1.333749771118164,32.156494140625,59.0,-527.0,-252.93896484375,-3.7392187118530273,0,0,0,40000
391105,1.3601480722427368,31.9052734375,10.0,-547.0,-251.431640625,-3.938105583190918,0,0,0,40000
391115,1.3833811283111572,31.541431427001953,41.0,-526.0,-249.24859619140625,-4.118791580200195,0,0,0,40000
391125,1.394925594329834,31.30929946899414,26.0,-506.0,-247.85580444335938,-4.229767799377441,0,0,0,40000
391135,1.4063670635223389,30.940906524658203,11.0,-523.0,-245.64544677734375,-4.340545177459717,0,0,0,40000
391145,1.4189090728759766,30.70741081237793,0.0,-505.0,-244.2444610595703,-4.45819616317749,0,0,0,40000
391155,1.4254142045974731,30.362775802612305,9.0,-501.0,-242.17665100097656,-4.539856433868408,0,0,0,40000
391165,1.4247742891311646,30.14046287536621,23.0,-460.0,-240.8427734375,-4.578758239746094,0,0,0,40000
391175,1.4438729286193848,29.834692001342773,28.0,-454.0,-239.00814819335938,-4.736431121826172,0,0,0,40000
391185,1.4514394998550415,29.639698028564453,-7.0,-402.0,-237.83819580078125,-4.825309753417969,0,0,0,40000
391195,1.447741150856018,29.3736515045166,-8.0,-375.0,-236.24191284179688,-4.846612930297852,0,0,0,40000
391205,1.4413366317749023,29.22138023376465,32.0,-287.0,-235.32827758789062,-4.851447105407715,0,0,0,40000
391215,1.4433554410934448,29.045761108398438,6.0,-240.0,-234.27456665039062,-4.906838417053223,0,0,0,40000
391225,1.4360042810440063,28.95176124572754,-15.0,-187.0,-233.7105712890625,-4.905975341796875,0,0,0,40000
391235,1.4281868934631348,28.830726623535156,-2.0,-161.0,-232.98435974121094,-4.902011871337891,0,0,0,40000
391245,1.4198817014694214,28.781930923461914,-19.0,-92.0,-232.69158935546875,-4.8948564529418945,0,0,0,40000
391255,1.394811987876892,28.727588653564453,-24.0,-53.0,-232.36553955078125,-4.786675453186035,0,0,0,40000
391265,1.3720622062683105,28.713788986206055,-33.0,-26.0,-232.28273010253906,-4.69162654876709,0,0,0,40000
391275,1.3444762229919434,28.71706199645996,-30.0,16.0,-232.3023681640625,-4.5668416023254395,0,0,0,40000
391285,1.3324296474456787,28.72635269165039,-31.0,23.0,-232.35812377929688,-4.534686088562012,0,0,0,40000
391295,1.3149555921554565,28.762056350708008,-2.0,85.0,-232.5723419189453,-4.469411373138428,0,0,0,40000
391305,1.3016670942306519,28.81196403503418,-8.0,136.0,-232.8717803955078,-4.428868293762207,0,0,0,40000
391315,1.2864080667495728,28.91874122619629,-36.0,167.0,-233.512451171875,-4.376090049743652,0,0,0,40000
391325,1.2676738500595093,29.003149032592773,-9.0,182.0,-234.01889038085938,-4.301943302154541,0,0,0,40000
391335,1.2366573810577393,29.121267318725586,-45.0,167.0,-234.72760009765625,-4.153356552124023,0,0,0,40000
391345,1.2156418561935425,29.193180084228516,-40.0,156.0,-235.15908813476562,-4.063998222351074,0,0,0,40000
391355,1.1864709854125977,29.285633087158203,-39.0,144.0,-235.71380615234375,-3.92488431930542,0,0,0,40000
391365,1.171926736831665,29.354263305664062,-23.0,159.0,-236.12557983398438,-3.8728995323181152,0,0,0,40000
391375,1.147056221961975,29.45552635192871,-6.0,151.0,-236.733154296875,-3.758410930633545,0,0,0,40000
391385,1.1167244911193848,29.51262092590332,-11.0,122.0,-237.0757293701172,-3.6102898120880127,0,0,0,40000
391395,1.0800288915634155,29.61143684387207,-53.0,163.0,-237.6686248779297,-3.4231107234954834,0,0,0,40000
391405,1.065382480621338,29.690631866455078,-55.0,191.0,-238.143798828125,-3.367434024810791,0,0,0,40000
391415,1.0444495677947998,29.796354293823242,-37.0,156.0,-238.7781219482422,-3.273315906524658,0,0,0,40000
391425,1.0289874076843262,29.868900299072266,21.0,170.0,-239.21340942382812,-3.211477756500244,0,0,0,40000
391435,1.013970971107483,29.99421501159668,0.0,192.0,-239.9652862548828,-3.1519060134887695,0,0,0,40000
391445,0.9946704506874084,30.086349487304688,-28.0,205.0,-240.51809692382812,-3.066242218017578,0,0,0,40000
391455,0.9817674160003662,30.223764419555664,-39.0,197.0,-241.34259033203125,-3.0185861587524414,0,0,0,40000
391465,0.9853125214576721,30.327404022216797,-42.0,244.0,-241.96441650390625,-3.069382905960083,0,0,0,40000
391475,0.9796452522277832,30.499853134155273,2.0,249.0,-242.99911499023438,-3.064777135848999,0,0,0,40000
391485,0.9582329988479614,30.606399536132812,12.0,246.0,-243.63839721679688,-2.9652700424194336,0,0,0,40000
391495,0.9611526131629944,30.76555824279785,47.0,250.0,-244.59335327148438,-3.0113983154296875,0,0,0,40000
391505,0.9655244946479797,30.867774963378906,-32.0,209.0,-245.20664978027344,-3.0666654109954834,0,0,0,40000
391515,0.9548225998878479,31.019472122192383,-27.0,239.0,-246.11683654785156,-3.031187057495117,0,0,0,40000
391525,0.9376251697540283,31.12348747253418,-11.0,213.0,-246.7409210205078,-2.956310510635376,0,0,0,40000
391535,0.9146146774291992,31.26217269897461,-2.0,204.0,-247.57302856445312,-2.8458456993103027,0,0,0,40000
391545,0.8881549835205078,31.35147476196289,-38.0,205.0,-248.10885620117188,-2.714092493057251,0,0,0,40000
391555,0.8466882705688477,31.48104476928711,-45.0,201.0,-248.88626098632812,-2.491245985031128,0,0,0,40000
391565,0.8323846459388733,31.57088851928711,-38.0,190.0,-249.42532348632812,-2.4305386543273926,0,0,0,40000
391575,0.8061444163322449,31.680265426635742,1.0,153.0,-250.0815887451172,-2.2975258827209473,0,0,0,40000
391585,0.7906643748283386,31.74995231628418,-9.0,144.0,-250.4997100830078,-2.2285523414611816,0,0,0,40000
391595,0.7693142890930176,31.83640480041504,-42.0,124.0,-251.0184326171875,-2.123880624771118,0,0,0,40000
391605,0.7593420147895813,31.893054962158203,-48.0,108.0,-251.35833740234375,-2.086977481842041,0,0,0,40000
391615,0.7377734780311584,31.95574188232422,-21.0,69.0,-251.7344512939453,-1.9797043800354004,0,0,0,40000
391625,0.7208532094955444,31.99143409729004,22.0,90.0,-251.9486083984375,-1.8999888896942139,0,0,0,40000
391635,0.7023611664772034,32.044437408447266,-16.0,81.0,-252.26663208007812,-1.810253620147705,0,0,0,40000
391645,0.687622606754303,32.076446533203125,-26.0,84.0,-252.45867919921875,-1.742673397064209,0,0,0,40000
391655,0.6717416644096375,32.13774871826172,-47.0,82.0,-252.8264923095703,-1.667832612991333,0,0,0,40000
391665,0.6661065816879272,32.175941467285156,-26.0,82.0,-253.05564880371094,-1.6540591716766357,0,0,0,40000
391675,0.6353270411491394,32.2362060546875,-3.0,88.0,-253.417236328125,-1.4886114597320557,0,0,0,40000
391685,0.6218042373657227,32.274288177490234,20.0,123.0,-253.64572143554688,-1.4262468814849854,0,0,0,40000
391695,0.6037020087242126,32.35518264770508,-47.0,129.0,-254.131103515625,-1.336024284362793,0,0,0,40000
391705,0.5898371934890747,32.41696548461914,-16.0,146.0,-254.50180053710938,-1.270751714706421,0,0,0,40000
391715,0.5630109906196594,32.5246467590332,-33.0,174.0,-255.14788818359375,-1.1269035339355469,0,0,0,40000
391725,0.5383078455924988,32.60601806640625,0.0,195.0,-255.6361083984375,-0.9951531887054443,0,0,0,40000
391735,0.5144580006599426,32.753177642822266,-44.0,225.0,-256.5190734863281,-0.8677775859832764,0,0,0,40000
391745,0.4885633885860443,32.853309631347656,-31.0,270.0,-257.119873046875,-0.7273774147033691,0,0,0,40000
391755,0.4551520049571991,33.058067321777344,-41.0,312.0,-258.348388671875,-0.5408873558044434,0,0,0,40000
391765,0.43511295318603516,33.20071029663086,-21.0,309.0,-259.2042541503906,-0.43398308753967285,0,0,0,40000
391775,0.39707621932029724,33.41569900512695,-46.0,327.0,-260.49420166015625,-0.21804165840148926,0,0,0,40000
391785,0.36833274364471436,33.55889129638672,-47.0,294.0,-261.35333251953125,-0.05701637268066406,0,0,0,40000
391795,0.32985827326774597,33.69242858886719,-74.0,284.0,-262.5475769042969,0.26861798763275146,0,0,0,40000
391805,0.2765510380268097,33.8835334777832,0.0,267.0,-263.30120849609375,0.47663235664367676,0,0,0,40000
391815,0.23712420463562012,33.99997329711914,-79.0,252.0,-263.9998474121094,0.7055964469909668,0,0,0,40000
391825,0.1680794656276703,34.150428771972656,-72.0,209.0,-264.902587890625,1.1139707565307617,0,0,0,40000
391835,0.12990295886993408,34.23090362548828,-68.0,132.0,-265.38543701171875,1.3387110233306885,0,0,0,40000
391845,0.05941389128565788,34.31218719482422,-58.0,93.0,-265.87310791015625,1.7591270208358765,0,0,0,40000
391855,0.007808125112205744,34.34954833984375,-72.0,72.0,-266.0972900390625,2.0679030418395996,0,0,0,40000
391865,-0.053618159145116806,34.392234802246094,-35.0,57.0,-266.3533935546875,2.4373342990875244,0,0,0,40000
391875,-0.08370374143123627,34.40302276611328,-83.0,14.0,-266.41815185546875,2.619997024536133,0,0,0,40000
391885,-0.1340785026550293,34.38935089111328,-22.0,-34.0,-266.33612060546875,2.9256033897399902,0,0,0,40000
391895,-0.16332313418388367,34.36785125732422,-28.0,-78.0,-266.20709228515625,3.105691909790039,0,0,0,40000
391905,-0.18092745542526245,34.30530548095703,-4.0,-103.0,-265.83184814453125,3.2165541648864746,0,0,0,40000
391915,-0.1851818710565567,34.246131896972656,5.0,-138.0,-265.476806640625,3.247612476348877,0,0,0,40000
391925,-0.16974660754203796,34.11759567260742,-2.0,-206.0,-264.70556640625,3.160353899002075,0,0,0,40000
391935,-0.1639520525932312,34.01734161376953,32.0,-229.0,-264.10406494140625,3.130599021911621,0,0,0,40000
391945,-0.11558187007904053,33.83726119995117,36.0,-289.0,-263.0235595703125,2.84448504447937,0,0,0,40000
391955,-0.10205115377902985,33.68168258666992,48.0,-355.0,-262.090087890625,2.766517162322998,0,0,0,40000
391965,-0.034589704126119614,33.42378234863281,57.0,-391.0,-260.5426940917969,2.3635385036468506,0,0,0,40000
391975,0.0028291060589253902,33.24443435668945,52.0,-418.0,-259.46661376953125,2.139432191848755,0,0,0,40000
391985,0.089676633477211,32.953243255615234,89.0,-445.0,-257.7194519042969,1.616897463798523,0,0,0,40000
391995,0.1398354172706604,32.74512481689453,110.0,-429.0,-256.47076416015625,1.3123825788497925,0,0,0,40000
392005,0.2445671409368515,32.44980239868164,121.0,-431.0,-254.69882202148438,0.6779361963272095,0,0,0,40000
392015,0.30694738030433655,32.245269775390625,111.0,-432.0,-253.47161865234375,0.29516172409057617,0,0,0,40000
392025,0.4139377176761627,31.94148826599121,90.0,-460.0,-251.64892578125,-0.3580498695373535,0,0,0,40000
392035,0.4727378189563751,31.72076988220215,58.0,-496.0,-250.32461547851562,-0.724287748336792,0,0,0,40000
392045,0.5846192240715027,31.38688087463379,120.0,-488.0,-248.3212890625,-1.411590337753296,0,0,0,40000
392055,0.6504715085029602,31.14240837097168,121.0,-546.0,-246.8544464111328,-1.8253469467163086,0,0,0,40000
392065,0.7664414644241333,30.749114990234375,131.0,-567.0,-244.49468994140625,-2.5426244735717773,0,0,0,40000
392075,0.8275207877159119,30.480743408203125,139.0,-581.0,-242.88446044921875,-2.9332592487335205,0,0,0,40000
392085,0.9233782291412354,30.08198356628418,79.0,-582.0,-240.4918975830078,-3.535069227218628,0,0,0,40000
392095,0.9986146092414856,29.81627655029297,76.0,-560.0,-238.8976593017578,-4.015627384185791,0,0,0,40000
392105,1.0892330408096313,29.427640914916992,65.0,-578.0,-236.5658416748047,-4.590798854827881,0,0,0,40000
392115,1.1444731950759888,29.15924072265625,110.0,-555.0,-234.9554443359375,-4.955788612365723,0,0,0,40000
392125,1.2190308570861816,28.78076934814453,132.0,-534.0,-232.6846160888672,-5.438821792602539,0,0,0,40000
392135,1.274024486541748,28.532678604125977,56.0,-520.0,-231.19607543945312,-5.806413650512695,0,0,0,40000
392145,1.331376314163208,28.190540313720703,48.0,-455.0,-229.14324951171875,-6.189992904663086,0,0,0,40000
392155,1.3755180835723877,27.989622116088867,15.0,-426.0,-227.93772888183594,-6.49555778503418,0,0,0,40000
392165,1.4064489603042603,27.6993408203125,36.0,-385.0,-226.196044921875,-6.722901344299316,0,0,0,40000
392175,1.4158965349197388,27.53435516357422,62.0,-362.0,-225.2061309814453,-6.821906089782715,0,0,0,40000
392185,1.437208652496338,27.319456100463867,15.0,-277.0,-223.91673278808594,-6.9927496910095215,0,0,0,40000
392195,1.4334050416946411,27.204750061035156,-21.0,-203.0,-223.22850036621094,-7.0130157470703125,0,0,0,40000
392205,1.4363558292388916,27.07072639465332,-25.0,-167.0,-222.4243621826172,-7.073870658874512,0,0,0,40000
392215,1.4268603324890137,27.011810302734375,-8.0,-81.0,-222.07086181640625,-7.059784889221191,0,0,0,40000
392225,1.3867884874343872,26.985366821289062,-51.0,5.0,-221.91220092773438,-6.861487865447998,0,0,0,40000
392235,1.3655096292495728,27.01129722595215,-32.0,100.0,-222.06777954101562,-6.775035381317139,0,0,0,40000
392245,1.3143681287765503,27.079221725463867,-60.0,134.0,-222.47532653808594,-6.508258819580078,0,0,0,40000
392255,1.276923418045044,27.140522003173828,-54.0,145.0,-222.8431396484375,-6.322384834289551,0,0,0,40000
392265,1.2187209129333496,27.251779556274414,-68.0,181.0,-223.51068115234375,-6.010526657104492,0,0,0,40000
392275,1.1805031299591064,27.35148811340332,-118.0,238.0,-224.1089324951172,-5.81710147857666,0,0,0,40000
392285,1.0978732109069824,27.507083892822266,-86.0,261.0,-225.04251098632812,-5.355323791503906,0,0,0,40000
392295,1.0424140691757202,27.637598037719727,-129.0,282.0,-225.82559204101562,-5.054462432861328,0,0,0,40000
392305,0.9356157779693604,27.839197158813477,-90.0,305.0,-227.03518676757812,-4.443082809448242,0,0,0,40000
392315,0.8603118062019348,27.974224090576172,-147.0,281.0,-227.8453369140625,-4.01801061630249,0,0,0,40000
392325,0.7350341081619263,28.166908264160156,-137.0,290.0,-229.00144958496094,-3.290005683898926,0,0,0,40000
392335,0.6478670835494995,28.31412124633789,-162.0,342.0,-229.88473510742188,-2.7874763011932373,0,0,0,40000
392345,0.5271477103233337,28.53720474243164,-116.0,355.0,-231.22323608398438,-2.0804154872894287,0,0,0,40000
392355,0.435726135969162,28.70400047302246,-167.0,331.0,-232.2239990234375,-1.5460827350616455,0,0,0,40000
392365,0.3014596402645111,28.933942794799805,-161.0,329.0,-233.60365295410156,-0.7511998414993286,0,0,0,40000
392375,0.20331329107284546,29.085121154785156,-165.0,327.0,-234.51072692871094,-0.1695857048034668,0,0,0,40000
392385,0.06289324164390564,29.29793930053711,-141.0,311.0,-235.78762817382812,0.6693968176841736,0,0,0,40000
392395,-0.0276043564081192,29.42763328552246,-131.0,270.0,-236.5657958984375,1.2121459245681763,0,0,0,40000
392405,-0.1536070555448532,29.594938278198242,-153.0,219.0,-237.5696258544922,1.9712765216827393,0,0,0,40000
392415,-0.22699491679668427,29.68769073486328,-119.0,208.0,-238.1261444091797,2.4175233840942383,0,0,0,40000
392425,-0.35835278034210205,29.81786346435547,-117.0,169.0,-238.9071807861328,3.2148079872131348,0,0,0,40000
392435,-0.41472747921943665,29.886333465576172,-111.0,169.0,-239.3179931640625,3.564840078353882,0,0,0,40000
392445,-0.5058637261390686,29.97580337524414,-86.0,121.0,-239.85482788085938,4.12580680847168,0,0,0,40000
392455,-0.5571797490119934,30.0106143951416,-63.0,55.0,-240.06369018554688,4.449820518493652,0,0,0,40000
392465,-0.6228749752044678,30.041561126708984,-49.0,49.0,-240.24935913085938,4.861855983734131,0,0,0,40000
392475,-0.6484575867652893,30.05282974243164,-38.0,-2.0,-240.31698608398438,5.0344696044921875,0,0,0,40000
392485,-0.6757960319519043,30.051666259765625,-56.0,-16.0,-240.30999755859375,5.218587875366211,0,0,0,40000
392495,-0.676285445690155,30.02963638305664,11.0,-65.0,-240.17782592773438,5.241852283477783,0,0,0,40000
392505,-0.6852349638938904,29.96401596069336,18.0,-111.0,-239.78408813476562,5.316219329833984,0,0,0,40000
392515,-0.668389081954956,29.90372085571289,75.0,-120.0,-239.42233276367188,5.235348224639893,0,0,0,40000
392525,-0.6372812390327454,29.80294418334961,11.0,-172.0,-238.81765747070312,5.068104267120361,0,0,0,40000
392535,-0.5877218842506409,29.717594146728516,40.0,-179.0,-238.30557250976562,4.788992404937744,0,0,0,40000
392545,-0.5248022079467773,29.587923049926758,52.0,-211.0,-237.5275421142578,4.428228378295898,0,0,0,40000
392555,-0.473466694355011,29.48480224609375,150.0,-225.0,-236.9088134765625,4.135084629058838,0,0,0,40000
392565,-0.3933440148830414,29.317888259887695,91.0,-240.0,-235.90733337402344,3.6670236587524414,0,0,0,40000
392575,-0.32951033115386963,29.19632911682129,105.0,-238.0,-235.177978515625,3.2945690155029297,0,0,0,40000
392585,-0.22679784893989563,29.00922203063965,69.0,-298.0,-234.05532836914062,2.686424732208252,0,0,0,40000
392595,-0.1426398605108261,28.887714385986328,143.0,-264.0,-233.3262939453125,2.1867504119873047,0,0,0,40000
392605,-0.04626269266009331,28.700395584106445,111.0,-251.0,-232.20237731933594,1.6111509799957275,0,0,0,40000
392615,0.029488563537597656,28.570392608642578,138.0,-292.0,-231.42236328125,1.156650424003601,0,0,0,40000
392625,0.1265052706003189,28.359169006347656,78.0,-342.0,-230.15501403808594,0.5718978643417358,0,0,0,40000
392635,0.19831041991710663,28.195592880249023,117.0,-352.0,-229.17355346679688,0.13596272468566895,0,0,0,40000
392645,0.2821795344352722,27.942441940307617,111.0,-364.0,-227.65464782714844,-0.37464892864227295,0,0,0,40000
392655,0.35920342803001404,27.7747859954834,131.0,-363.0,-226.64871215820312,-0.8466405868530273,0,0,0,40000
392665,0.451323002576828,27.513315200805664,97.0,-382.0,-225.07989501953125,-1.4119162559509277,0,0,0,40000
392675,0.511425793170929,27.342741012573242,100.0,-371.0,-224.0564422607422,-1.787164568901062,0,0,0,40000
392685,0.5938061475753784,27.078205108642578,83.0,-389.0,-222.46923828125,-2.2983479499816895,0,0,0,40000
392695,0.6496503353118896,26.894275665283203,74.0,-404.0,-221.36566162109375,-2.65224552154541,0,0,0,40000
392705,0.7186025381088257,26.6296443939209,95.0,-353.0,-219.77786254882812,-3.0866575241088867,0,0,0,40000
392715,0.761382520198822,26.475276947021484,70.0,-328.0,-218.85165405273438,-3.365668773651123,0,0,0,40000
392725,0.8144611120223999,26.260154724121094,88.0,-294.0,-217.56092834472656,-3.707988739013672,0,0,0,40000
392735,0.8418598771095276,26.13393211364746,10.0,-265.0,-216.8035888671875,-3.897347927093506,0,0,0,40000
392745,0.8809147477149963,25.96752166748047,34.0,-214.0,-215.8051300048828,-4.157764911651611,0,0,0,40000
392755,0.897163450717926,25.878774642944336,7.0,-188.0,-215.27264404296875,-4.281965255737305,0,0,0,40000
392765,0.9113412499427795,25.764869689941406,35.0,-166.0,-214.58921813964844,-4.3942084312438965,0,0,0,40000
392775,0.9059620499610901,25.711034774780273,5.0,-102.0,-214.26620483398438,-4.3891706466674805,0,0,0,40000
392785,0.9111135005950928,25.652708053588867,-18.0,-67.0,-213.91624450683594,-4.447441577911377,0,0,0,40000
392795,0.9031614065170288,25.629413604736328,0.0,-48.0,-213.7764892578125,-4.426924705505371,0,0,0,40000
392805,0.8880559206008911,25.613384246826172,-16.0,-8.0,-213.6802978515625,-4.363064289093018,0,0,0,40000
392815,0.8655162453651428,25.606670379638672,-25.0,12.0,-213.6400146484375,-4.254064083099365,0,0,0,40000
392825,0.8526321649551392,25.608718872070312,-17.0,-2.0,-213.65231323242188,-4.202482223510742,0,0,0,40000
392835,0.8448202610015869,25.613689422607422,-49.0,5.0,-213.68212890625,-4.18110990524292,0,0,0,40000
392845,0.800542414188385,25.629846572875977,-68.0,31.0,-213.77908325195312,-3.940033435821533,0,0,0,40000
392855,0.7711548209190369,25.6508846282959,-53.0,61.0,-213.90530395507812,-3.7871882915496826,0,0,0,40000
392865,0.7168699502944946,25.66861915588379,-49.0,36.0,-214.01171875,-3.4835593700408936,0,0,0,40000
392875,0.6927679777145386,25.70229148864746,-61.0,68.0,-214.2137451171875,-3.3600525856018066,0,0,0,40000
392885,0.6423066258430481,25.777387619018555,-66.0,127.0,-214.66432189941406,-3.07723331451416,0,0,0,40000
392895,0.6064299941062927,25.835636138916016,-87.0,138.0,-215.01382446289062,-2.880584955215454,0,0,0,40000
392905,0.5369072556495667,25.92837142944336,-53.0,154.0,-215.57022094726562,-2.48040771484375,0,0,0,40000
392915,0.49819886684417725,26.002601623535156,-73.0,186.0,-216.01560974121094,-2.2634799480438232,0,0,0,40000
392925,0.4244978725910187,26.10753631591797,-40.0,165.0,-216.6452178955078,-1.834897756576538,0,0,0,40000
392935,0.3877819776535034,26.196956634521484,-86.0,164.0,-217.18173217773438,-1.6266509294509888,0,0,0,40000
392945,0.3256692588329315,26.300264358520508,-63.0,162.0,-217.8015899658203,-1.264543056488037,0,0,0,40000
392955,0.28232327103614807,26.364757537841797,-98.0,157.0,-218.18853759765625,-1.0134556293487549,0,0,0,40000
392965,0.21056118607521057,26.4569091796875,-61.0,140.0,-218.741455078125,-0.5901283621788025,0,0,0,40000
392975,0.16323132812976837,26.527366638183594,-106.0,137.0,-219.16419982910156,-0.31163954734802246,0,0,0,40000
392985,0.11154212057590485,26.624004364013672,-58.0,143.0,-219.7440185546875,-0.0055162906646728516,0,0,0,40000
392995,0.08071883767843246,26.69062042236328,-74.0,154.0,-220.1437225341797,0.17670917510986328,0,0,0,40000
393005,0.03473300114274025,26.778213500976562,-4.0,116.0,-220.66928100585938,0.4510858952999115,0,0,0,40000
393015,0.01652171090245247,26.840431213378906,-27.0,163.0,-221.04258728027344,0.5596798062324524,0,0,0,40000
393025,-0.01481716614216566,26.928260803222656,-32.0,134.0,-221.56956481933594,0.747639536857605,0,0,0,40000
393035,-0.03460976853966713,26.991302490234375,-55.0,128.0,-221.94781494140625,0.867163896560669,0,0,0,40000
393045,-0.0478641614317894,27.072345733642578,-6.0,124.0,-222.43408203125,0.9480781555175781,0,0,0,40000
393055,-0.054508455097675323,27.136960983276367,23.0,152.0,-222.82176208496094,0.9895719289779663,0,0,0,40000
393065,-0.04732465744018555,27.244226455688477,25.0,176.0,-223.46536254882812,0.9480437636375427,0,0,0,40000
393075,-0.04140106588602066,27.312334060668945,32.0,134.0,-223.87400817871094,0.9138691425323486,0,0,0,40000
393085,-0.02303009107708931,27.397714614868164,45.0,117.0,-224.38629150390625,0.8045645952224731,0,0,0,40000
393095,-0.0029912239406257868,27.454166412353516,28.0,135.0,-224.72500610351562,0.6846040487289429,0,0,0,40000
393105,0.04437638819217682,27.538040161132812,27.0,126.0,-225.22824096679688,0.3997085392475128,0,0,0,40000
393115,0.07658602297306061,27.59471893310547,56.0,149.0,-225.5683135986328,0.20455101132392883,0,0,0,40000
393125,0.12113358825445175,27.69268226623535,70.0,154.0,-226.15609741210938,-0.06561839580535889,0,0,0,40000
393135,0.1518729329109192,27.75486946105957,117.0,146.0,-226.5292205810547,-0.25421416759490967,0,0,0,40000
393145,0.21886515617370605,27.852964401245117,47.0,149.0,-227.11778259277344,-0.6621391773223877,0,0,0,40000
393155,0.26670828461647034,27.924531936645508,44.0,170.0,-227.5471954345703,-0.9566540718078613,0,0,0,40000
393165,0.34588509798049927,28.041669845581055,83.0,177.0,-228.25001525878906,-1.4410078525543213,0,0,0,40000
393175,0.3882940709590912,28.116939544677734,144.0,169.0,-228.70162963867188,-1.706502914428711,0,0,0,40000
393185,0.45709019899368286,28.22704315185547,68.0,165.0,-229.3622589111328,-2.132211685180664,0,0,0,40000
393195,0.4945089519023895,28.289737701416016,44.0,184.0,-229.73843383789062,-2.3712093830108643,0,0,0,40000
393205,0.5530543327331543,28.40377426147461,1.0,143.0,-230.42263793945312,-2.7384748458862305,0,0,0,40000
393215,0.5837201476097107,28.46906089782715,35.0,144.0,-230.81436157226562,-2.939640522003174,0,0,0,40000
393225,0.6324805617332458,28.54850196838379,74.0,107.0,-231.291015625,-3.250227928161621,0,0,0,40000
393235,0.6479086875915527,28.59263801574707,64.0,107.0,-231.5558319091797,-3.3620493412017822,0,0,0,40000
393245,0.6818718314170837,28.648391723632812,21.0,88.0,-231.89035034179688,-3.585827589035034,0,0,0,40000
393255,0.6893085241317749,28.680070877075195,41.0,107.0,-232.08042907714844,-3.6511237621307373,0,0,0,40000
393265,0.7041904926300049,28.774765014648438,-32.0,146.0,-232.64859008789062,-3.7613842487335205,0,0,0,40000
393275,0.7001950144767761,28.834550857543945,7.0,158.0,-233.00730895996094,-3.758485794067383,0,0,0,40000
393285,0.691921055316925,28.949256896972656,-39.0,181.0,-233.69554138183594,-3.7295312881469727,0,0,0,40000
393295,0.6745645403862,29.021100997924805,18.0,172.0,-234.12660217285156,-3.645843029022217,0,0,0,40000
393305,0.6413419842720032,29.142967224121094,-31.0,175.0,-234.85780334472656,-3.466125011444092,0,0,0,40000
393315,0.6129891276359558,29.226686477661133,-65.0,193.0,-235.36012268066406,-3.3148000240325928,0,0,0,40000
393325,0.5549406409263611,29.350379943847656,-91.0,177.0,-236.10227966308594,-2.983985424041748,0,0,0,40000
393335,0.523726761341095,29.415096282958984,-55.0,141.0,-236.49057006835938,-2.812776803970337,0,0,0,40000
393345,0.45746946334838867,29.493715286254883,-73.0,98.0,-236.96229553222656,-2.429689884185791,0,0,0,40000
393355,0.4117202162742615,29.527801513671875,-45.0,107.0,-237.16680908203125,-2.168085813522339,0,0,0,40000
393365,0.3499417006969452,29.57358169555664,-90.0,51.0,-237.44149780273438,-1.808809518814087,0,0,0,40000
393375,0.29636460542678833,29.582679748535156,-68.0,15.0,-237.49607849121094,-1.4968867301940918,0,0,0,40000
393385,0.21807047724723816,29.571043014526367,-88.0,-32.0,-237.42625427246094,-1.0346821546554565,0,0,0,40000
393395,0.1675625741481781,29.564586639404297,-101.0,-33.0,-237.38751220703125,-0.7372673749923706,0,0,0,40000
393405,0.10355017334222794,29.53851890563965,-66.0,-49.0,-237.23110961914062,-0.3569369614124298,0,0,0,40000
393415,0.0379934161901474,29.511333465576172,-60.0,-32.0,-237.0679931640625,0.03449356555938721,0,0,0,40000
393425,-0.023803353309631348,29.463964462280273,-53.0,-73.0,-236.78378295898438,0.4053308665752411,0,30,0,40000
393435,-0.06994527578353882,29.43862533569336,-88.0,-68.0,-416.6317443847656,0.6836506128311157,0,30,0,40000
393445,-0.12791754305362701,29.384273529052734,-67.0,-61.0,-416.3056335449219,1.0346410274505615,0,30,0,40000
393455,-0.14585570991039276,29.343271255493164,-50.0,-137.0,-416.05963134765625,1.1464937925338745,0,30,0,40000
393465,-0.18650272488594055,29.22723388671875,-9.0,-197.0,-415.3634033203125,1.3956725597381592,0,30,0,40000
393475,-0.2113233357667923,29.101070404052734,-9.0,-307.0,-414.6064147949219,1.5506887435913086,0,30,0,40000
393485,-0.224297434091568,28.83539390563965,-12.0,-427.0,-413.01239013671875,1.6351438760757446,0,30,0,40000
393495,-0.22966641187667847,28.607881546020508,-17.0,-544.0,-411.64727783203125,1.6741299629211426,0,30,0,40000
393505,-0.2376236617565155,28.190692901611328,-14.0,-653.0,-409.1441650390625,1.7286722660064697,0,30,0,40000
393515,-0.23806019127368927,27.859180450439453,-34.0,-772.0,-407.15509033203125,1.7384583950042725,0,30,0,40000
393525,-0.24322672188282013,27.27217674255371,-3.0,-914.0,-403.633056640625,1.7766907215118408,0,30,0,40000
393535,-0.24149024486541748,26.820077896118164,-6.0,-1044.0,-400.92047119140625,1.773632526397705,0,30,0,40000
393545,-0.23713389039039612,26.039840698242188,32.0,-1177.0,-396.2390441894531,1.7547402381896973,0,30,0,40000
393555,-0.22817283868789673,25.465120315551758,4.0,-1316.0,-392.79071044921875,1.7079206705093384,0,30,0,40000
393565,-0.21046878397464752,24.8332576751709,12.0,-1464.0,-386.9638671875,1.573054313659668,0,30,0,40000
393575,-0.19592922925949097,23.783784866333008,-2.0,-1618.0,-382.70269775390625,1.5268290042877197,0,30,0,40000
393585,-0.17579983174800873,23.021087646484375,28.0,-1726.0,-378.12652587890625,1.4104371070861816,0,30,0,40000
393595,-0.1583661586046219,21.796127319335938,12.0,-1858.0,-370.7767639160156,1.310908317565918,0,30,0,40000
393605,-0.13140331208705902,20.92894172668457,45.0,-1952.0,-365.5736389160156,1.1534278392791748,0,30,0,40000
393615,-0.09068287909030914,19.55385971069336,61.0,-2057.0,-357.3231506347656,0.9123804569244385,0,30,0,40000
393625,-0.05402207374572754,18.59075355529785,73.0,-2147.0,-351.54449462890625,0.6944313645362854,0,30,0,40000
393635,-0.005710030440241098,17.077590942382812,29.0,-2256.0,-342.4655456542969,0.405220627784729,0,30,0,40000
393645,0.040041811764240265,16.04832649230957,67.0,-2256.0,-336.2899475097656,0.1300802379846573,0,30,0,40000
393655,0.11158036440610886,14.489726066589355,118.0,-2285.0,-326.9383544921875,-0.3014809489250183,0,30,0,40000
393665,0.16160619258880615,13.441842079162598,132.0,-2268.0,-320.65106201171875,-0.6058553457260132,0,30,0,40000
393675,0.2473718523979187,11.884291648864746,134.0,-2262.0,-311.3057556152344,-1.1268346309661865,0,30,0,40000
393685,0.2999599874019623,10.85849380493164,127.0,-2210.0,-305.1509704589844,-1.4507462978363037,0,30,0,40000
393695,0.39844441413879395,9.371197700500488,129.0,-2115.0,-296.2271728515625,-2.0523855686187744,0,30,0,40000
393705,0.46032097935676575,8.424806594848633,138.0,-2014.0,-290.548828125,-2.4367287158966064,0,30,0,40000
393715,0.5464226007461548,7.076545715332031,136.0,-1912.0,-282.45928955078125,-2.968729257583618,0,30,0,40000
393725,0.6024377942085266,6.22771692276001,97.0,-1792.0,-277.3663024902344,-3.3222756385803223,0,30,0,40000
393735,0.6833600997924805,5.031229496002197,90.0,-1676.0,-270.1873779296875,-3.8274548053741455,0,30,0,40000
393745,0.7442642450332642,4.303100109100342,91.0,-1555.0,-265.818603515625,-4.214433670043945,0,30,0,40000
393755,0.8063024282455444,3.2890541553497314,92.0,-1410.0,-259.73431396484375,-4.6100754737854,0,30,0,40000
393765,0.838141918182373,2.666038990020752,92.0,-1312.0,-255.99623107910156,-4.8258538246154785,0,30,0,40000
393775,0.8995912671089172,1.824458122253418,84.0,-1181.0,-250.94674682617188,-5.220839977264404,0,30,0,40000
393785,0.9324161410331726,1.2960166931152344,67.0,-1111.0,-247.77609252929688,-5.44541597366333,0,30,0,40000
393795,0.9865524768829346,0.5700082778930664,57.0,-1003.0,-243.4200439453125,-5.799209117889404,0,30,0,40000
393805,1.0301982164382935,0.1300484836101532,87.0,-904.0,-240.78028869628906,-6.0914201736450195,0,30,0,40000
393815,1.0791733264923096,-0.4500897526741028,76.0,-797.0,-237.29945373535156,-6.416965961456299,0,30,0,40000
393825,1.102189064025879,-0.7913849353790283,64.0,-718.0,-235.25167846679688,-6.587859153747559,0,30,0,40000
393835,1.1382179260253906,-1.2576500177383423,56.0,-649.0,-232.4541015625,-6.837800979614258,0,30,0,40000
393845,1.161332368850708,-1.539156198501587,44.0,-575.0,-230.7650604248047,-7.01108980178833,0,30,0,40000
393855,1.1902952194213867,-1.9041827917099,20.0,-537.0,-228.5749053955078,-7.220311164855957,0,30,0,40000
393865,1.2025508880615234,-2.1333117485046387,21.0,-464.0,-227.20013427734375,-7.329751968383789,0,30,0,40000
393875,1.2126681804656982,-2.449481725692749,12.0,-419.0,-225.3031005859375,-7.426717281341553,0,30,0,40000
393885,1.213428020477295,-2.634000778198242,31.0,-366.0,-224.1959991455078,-7.467657089233398,0,30,0,40000
393895,1.222845196723938,-2.865105628967285,8.0,-308.0,-222.8093719482422,-7.560806751251221,0,30,0,40000
393905,1.231298565864563,-3.000401496887207,-23.0,-263.0,-221.99758911132812,-7.648394584655762,0,30,0,40000
393915,1.2269370555877686,-3.143231153488159,-8.0,-161.0,-221.140625,-7.6590375900268555,0,30,0,40000
393925,1.2209898233413696,-3.2065532207489014,-24.0,-117.0,-220.76068115234375,-7.660052299499512,0,30,0,40000
393935,1.2034271955490112,-3.2722485065460205,-29.0,-67.0,-220.3665008544922,-7.590970039367676,0,30,0,40000
393945,1.1873360872268677,-3.2948460578918457,-14.0,-28.0,-220.23092651367188,-7.5302300453186035,0,30,0,40000
393955,1.1710253953933716,-3.308466672897339,-34.0,9.0,-220.14920043945312,-7.467704772949219,0,30,0,40000
393965,1.1569640636444092,-3.2986135482788086,-53.0,36.0,-220.20831298828125,-7.418231964111328,0,30,0,40000
393975,1.1233848333358765,-3.279578447341919,-47.0,36.0,-220.32252502441406,-7.250851154327393,0,30,0,40000
393985,1.1032745838165283,-3.263465166091919,-55.0,41.0,-220.41920471191406,-7.163531303405762,0,30,0,40000
