timestamp,stabilizer.roll,stabilizer.pitch,stateEstimateZ.rateRoll,stateEstimateZ.ratePitch,controller.pitchRate,controller.rollRate,roll,pitch,yawdot,thrust
483975,-34.0396614074707,69.03812408447266,2.0,8.0,-416.714111328125,205.46331787109375,0,0,0,40000
483985,-34.04441452026367,69.04206848144531,3.0,24.0,-418.8089294433594,206.512939453125,0,0,0,40000
483995,-34.031463623046875,69.03894805908203,-12.0,-42.0,-420.8614501953125,207.45643615722656,0,0,0,40000
484005,-33.99274444580078,69.0283432006836,33.0,-28.0,-422.8687744140625,208.2445068359375,0,0,0,40000
484015,-33.94200897216797,69.01061248779297,151.0,-46.0,-424.83294677734375,208.95921325683594,0,0,0,40000
484025,-33.79341506958008,68.959716796875,57.0,-127.0,-426.59716796875,209.0835418701172,0,0,0,40000
484035,-33.55571365356445,68.90486145019531,27.0,-203.0,-428.3358154296875,208.66683959960938,0,0,0,40000
484045,-33.076927185058594,68.81468200683594,100.0,-230.0,-429.8602600097656,206.79266357421875,0,0,0,40000
484055,-32.70240020751953,68.76258850097656,187.0,-273.0,-431.6112060546875,205.5311279296875,0,0,0,40000
484065,-32.026458740234375,68.67872619628906,174.0,-262.0,-433.1693420410156,202.44468688964844,0,0,0,40000
484075,-31.544513702392578,68.62593841552734,191.0,-283.0,-434.9120788574219,200.50509643554688,0,0,0,40000
484085,-30.681209564208984,68.50435638427734,232.0,-393.0,-436.2392883300781,196.25665283203125,0,0,0,40000
484095,-30.05902671813965,68.42082214355469,304.0,-332.0,-437.79168701171875,193.43296813964844,0,0,0,40000
484105,-29.09575080871582,68.35264587402344,348.0,-259.0,-439.4339294433594,188.5376434326172,0,0,0,40000
484115,-28.39728546142578,68.30461883544922,358.0,-334.0,-441.195556640625,185.2071533203125,0,0,0,40000
484125,-27.218849182128906,68.18244934082031,429.0,-390.0,-442.509521484375,178.96743774414062,0,0,0,40000
484135,-26.40869903564453,68.1327133178711,495.0,-305.0,-444.2555847167969,174.90858459472656,0,0,0,40000
484145,-25.11746597290039,68.0386962890625,545.0,-382.0,-445.7339782714844,167.9304656982422,0,0,0,40000
484155,-24.152790069580078,67.95201110839844,596.0,-456.0,-447.25347900390625,162.87881469726562,0,0,0,40000
484165,-22.64261245727539,67.82469940185547,601.0,-380.0,-448.5256652832031,154.5151824951172,0,0,0,40000
484175,-21.60851287841797,67.73577117919922,679.0,-449.0,-450.0253601074219,148.97116088867188,0,0,0,40000
484185,-19.866897583007812,67.54395294189453,724.0,-567.0,-450.9033203125,139.13876342773438,0,0,0,40000
484195,-18.693994522094727,67.43023681640625,811.0,-450.0,-452.2452087402344,132.67630004882812,0,0,0,40000
484205,-16.899240493774414,67.30023193359375,909.0,-403.0,-453.48583984375,122.43643188476562,0,0,0,40000
484215,-15.653218269348145,67.18360900878906,1018.0,-484.0,-454.80303955078125,115.44497680664062,0,0,0,40000
484225,-13.687261581420898,66.94053649902344,1101.0,-536.0,-455.3558349609375,104.08363342285156,0,0,0,40000
484235,-12.34325122833252,66.78675842285156,1184.0,-466.0,-456.4385986328125,96.406005859375,0,0,0,40000
484245,-10.295914649963379,66.56735229492188,1264.0,-484.0,-457.1219787597656,84.45571899414062,0,0,0,40000
484255,-8.878718376159668,66.35725402832031,1351.0,-595.0,-457.8547058105469,76.23583984375,0,0,0,40000
484265,-6.750441551208496,66.04718017578125,1427.0,-498.0,-456.2830810546875,63.69407653808594,0,0,0,40000
484275,-5.301925182342529,65.87315368652344,1458.0,-453.0,-455.2389221191406,55.179420471191406,0,0,0,40000
484285,-3.172893524169922,65.57697296142578,1515.0,-530.0,-453.46185302734375,42.52595520019531,0,0,0,40000
484295,-1.769126296043396,65.35247802734375,1550.0,-486.0,-452.1148681640625,34.17329406738281,0,0,0,40000
484305,0.2611258029937744,65.08551025390625,1542.0,-348.0,-450.5130615234375,22.00840950012207,0,0,0,40000
484315,1.5622974634170532,64.9215316772461,1534.0,-363.0,-449.5291748046875,14.170166015625,0,0,0,40000
484325,3.4815738201141357,64.5872802734375,1521.0,-474.0,-447.523681640625,2.5725936889648438,0,0,0,40000
484335,4.716909885406494,64.36402130126953,1465.0,-379.0,-446.18414306640625,-4.966278076171875,0,0,0,40000
484345,6.469336032867432,64.10881805419922,1464.0,-313.0,-444.65289306640625,-15.654449462890625,0,0,0,40000
484355,7.582862854003906,63.925697326660156,1429.0,-396.0,-443.55419921875,-22.54975700378418,0,0,0,40000
484365,9.117623329162598,63.647457122802734,1398.0,-280.0,-441.8847351074219,-32.01348876953125,0,0,0,40000
484375,10.09102725982666,63.511253356933594,1308.0,-224.0,-441.0675048828125,-38.14502716064453,0,0,0,40000
484385,11.385287284851074,63.27073287963867,1209.0,-334.0,-439.6243896484375,-46.23729705810547,0,0,0,40000
484395,12.145678520202637,63.10466003417969,1133.0,-272.0,-438.6279602050781,-51.155029296875,0,0,0,40000
484405,13.150300979614258,62.930931091308594,1035.0,-165.0,-437.5855712890625,-57.56591796875,0,0,0,40000
484415,13.702548027038574,62.83340072631836,917.0,-228.0,-437.0003967285156,-61.283790588378906,0,0,0,40000
484425,14.305333137512207,62.62104415893555,831.0,-318.0,-435.72625732421875,-65.3232650756836,0,0,0,40000
484435,14.613421440124512,62.513404846191406,686.0,-155.0,-435.0804443359375,-67.60662841796875,0,0,0,40000
484445,14.917683601379395,62.42787551879883,530.0,-116.0,-434.5672607421875,-69.87675476074219,0,0,0,40000
484455,15.023608207702637,62.37476348876953,403.0,-187.0,-434.24859619140625,-70.96183013916016,0,0,0,40000
484465,14.94927978515625,62.28321838378906,285.0,-153.0,-433.6993103027344,-70.96541595458984,0,0,0,40000
484475,14.776159286499023,62.27367401123047,140.0,-39.0,-433.64202880859375,-70.37213134765625,0,0,0,40000
484485,14.36923885345459,62.284507751464844,12.0,-129.0,-433.70703125,-68.36719512939453,0,0,0,40000
484495,13.96761703491211,62.222251892089844,-104.0,-265.0,-433.33349609375,-66.38152313232422,0,0,0,40000
484505,13.2085542678833,62.176795959472656,-203.0,-86.0,-433.060791015625,-62.232662200927734,0,0,0,40000
484515,12.606985092163086,62.2419319152832,-342.0,41.0,-433.45159912109375,-59.008819580078125,0,0,0,40000
484525,11.554386138916016,62.28402328491211,-408.0,-104.0,-433.7041320800781,-53.0534782409668,0,0,0,40000
484535,10.768491744995117,62.27150344848633,-536.0,-139.0,-433.6290283203125,-48.67052459716797,0,0,0,40000
484545,9.449989318847656,62.346046447753906,-525.0,77.0,-434.0762939453125,-41.05950927734375,0,0,0,40000
484555,8.540783882141113,62.44371795654297,-618.0,96.0,-434.66229248046875,-35.8713493347168,0,0,0,40000
484565,7.005816459655762,62.517913818359375,-668.0,-42.0,-435.10748291015625,-26.890663146972656,0,0,0,40000
484575,5.929337024688721,62.53147506713867,-755.0,-26.0,-435.1888427734375,-20.622739791870117,0,0,0,40000
484585,4.230165004730225,62.65202713012695,-728.0,181.0,-435.91217041015625,-10.575003623962402,0,0,0,40000
484595,3.0932328701019287,62.748382568359375,-843.0,103.0,-436.49029541015625,-3.859973907470703,0,0,0,40000
484605,1.2774956226348877,62.81014633178711,-817.0,80.0,-436.8608703613281,6.974081516265869,0,0,0,40000
484615,0.03245579078793526,62.858768463134766,-866.0,112.0,-437.1526184082031,14.428489685058594,0,0,0,40000
484625,-1.8510644435882568,62.894832611083984,-831.0,65.0,-437.3689880371094,25.762420654296875,0,0,0,40000
484635,-3.106069326400757,62.86965560913086,-829.0,-24.0,-437.2179260253906,33.37065124511719,0,0,0,40000
484645,-4.985532283782959,62.85258483886719,-781.0,121.0,-437.1155090332031,44.77439498901367,0,0,0,40000
484655,-6.232180118560791,62.8770866394043,-770.0,182.0,-437.26251220703125,52.426368713378906,0,0,0,40000
484665,-8.04647159576416,62.877315521240234,-689.0,72.0,-437.2638854980469,63.531734466552734,0,0,0,40000
484675,-9.233372688293457,62.83078384399414,-647.0,14.0,-436.9847106933594,70.91598510742188,0,0,0,40000
484685,-10.890007019042969,62.78721618652344,-597.0,163.0,-436.7232971191406,81.16258239746094,0,0,0,40000
484695,-11.973649024963379,62.78716278076172,-516.0,204.0,-436.72296142578125,88.01065063476562,0,0,0,40000
484705,-13.488167762756348,62.757911682128906,-448.0,131.0,-436.5474853515625,97.48467254638672,0,0,0,40000
484715,-14.446836471557617,62.717506408691406,-365.0,132.0,-436.3050537109375,103.65867614746094,0,0,0,40000
484725,-15.787846565246582,62.69854736328125,-275.0,235.0,-436.1912841796875,112.16273498535156,0,0,0,40000
484735,-16.608375549316406,62.70661544799805,-258.0,208.0,-436.23968505859375,117.5743408203125,0,0,0,40000
484745,-17.375320434570312,62.6717643737793,-130.0,108.0,-436.03057861328125,122.58853912353516,0,0,0,40000
484755,-18.429624557495117,62.61937713623047,-77.0,188.0,-435.71624755859375,129.4545440673828,0,0,0,40000
484765,-19.049598693847656,62.61758041381836,-70.0,223.0,-435.7054748535156,133.73854064941406,0,0,0,40000
484775,-19.86933135986328,62.608272552490234,46.0,197.0,-435.6496276855469,139.24380493164062,0,0,0,40000
484785,-20.348472595214844,62.60449981689453,163.0,178.0,-435.62701416015625,142.72340393066406,0,0,0,40000
484795,-20.969289779663086,62.605316162109375,152.0,213.0,-435.63189697265625,147.0701141357422,0,0,0,40000
484805,-21.304853439331055,62.61907196044922,198.0,182.0,-435.71441650390625,149.71853637695312,0,0,0,40000
484815,-21.668996810913086,62.61925506591797,259.0,116.0,-435.71551513671875,152.5497283935547,0,0,0,40000
484825,-21.830076217651367,62.62629699707031,346.0,204.0,-435.7577819824219,154.16915893554688,0,0,0,40000
484835,-22.011478424072266,62.7197265625,362.0,274.0,-436.318359375,155.9159393310547,0,0,0,40000
484845,-22.05978775024414,62.779537200927734,427.0,184.0,-436.6772155761719,156.86717224121094,0,0,0,40000
484855,-21.961318969726562,62.82952117919922,509.0,119.0,-436.97711181640625,156.9368896484375,0,0,0,40000
484865,-21.845312118530273,62.89083480834961,565.0,235.0,-437.3450012207031,156.89768981933594,0,0,0,40000
484875,-21.588077545166016,63.03519058227539,585.0,207.0,-438.2111511230469,156.00526428222656,0,0,0,40000
484885,-21.334171295166016,63.101131439208984,637.0,115.0,-438.6067810058594,155.12496948242188,0,0,0,40000
484895,-20.843671798706055,63.230064392089844,714.0,226.0,-439.38037109375,152.81353759765625,0,0,0,40000
484905,-20.51447105407715,63.36253356933594,802.0,281.0,-440.1752014160156,151.45777893066406,0,0,0,40000
484915,-19.894851684570312,63.55915832519531,830.0,214.0,-441.3549499511719,148.3447265625,0,0,0,40000
484925,-19.391395568847656,63.65452575683594,880.0,196.0,-441.9271545410156,145.9118194580078,0,0,0,40000
484935,-18.58946418762207,63.83171081542969,955.0,246.0,-442.9902648925781,141.66763305664062,0,0,0,40000
484945,-17.97356414794922,63.97269058227539,1053.0,226.0,-443.8361511230469,138.5188751220703,0,0,0,40000
484955,-16.956340789794922,64.13097381591797,1082.0,128.0,-444.78582763671875,132.93692016601562,0,0,0,40000
484965,-16.20661735534668,64.21873474121094,1119.0,135.0,-445.3124084472656,128.9338836669922,0,0,0,40000
484975,-15.014778137207031,64.3668212890625,1211.0,158.0,-446.200927734375,122.24809265136719,0,0,0,40000
484985,-14.157134056091309,64.45866394042969,1282.0,74.0,-446.7519836425781,117.53729248046875,0,0,0,40000
484995,-12.75161075592041,64.5513916015625,1291.0,51.0,-447.308349609375,109.50383758544922,0,0,0,40000
485005,-11.750319480895996,64.62699127197266,1356.0,126.0,-447.761962890625,103.86060333251953,0,0,0,40000
485015,-10.236013412475586,64.78044891357422,1406.0,133.0,-448.68267822265625,95.10038757324219,0,0,0,40000
485025,-9.150076866149902,64.85954284667969,1460.0,54.0,-449.1572570800781,88.8724136352539,0,0,0,40000
485035,-7.479780197143555,64.96095275878906,1472.0,126.0,-449.7657165527344,79.09532165527344,0,0,0,40000
485045,-6.347255229949951,65.06836700439453,1506.0,185.0,-450.41021728515625,72.50407409667969,0,0,0,40000
485055,-4.617114543914795,65.20085906982422,1543.0,124.0,-451.20513916015625,62.28279495239258,0,0,0,40000
485065,-3.4671998023986816,65.27288055419922,1529.0,132.0,-451.63726806640625,55.50104904174805,0,0,0,40000
485075,-1.6843491792678833,65.36808013916016,1525.0,120.0,-452.20849609375,44.8760871887207,0,0,0,40000
485085,-0.528730034828186,65.39701080322266,1536.0,49.0,-452.382080078125,37.972103118896484,0,0,0,40000
485095,1.2160749435424805,65.43219757080078,1505.0,94.0,-452.59320068359375,27.487165451049805,0,0,0,40000
485105,2.345939874649048,65.4714584350586,1449.0,70.0,-452.8287353515625,20.65107536315918,0,0,0,40000
485115,3.9520955085754395,65.45843505859375,1358.0,-40.0,-452.7506103515625,10.914196014404297,0,0,0,40000
485125,5.012020111083984,65.43157958984375,1370.0,44.0,-452.5894775390625,4.417198181152344,0,0,0,40000
485135,6.548190593719482,65.4783706665039,1308.0,127.0,-452.8702392578125,-4.978115081787109,0,0,0,40000
485145,7.467752933502197,65.48486328125,1294.0,-19.0,-452.9091796875,-10.708587646484375,0,0,0,40000
485155,8.741191864013672,65.42012786865234,1169.0,-20.0,-452.520751953125,-18.596553802490234,0,0,0,40000
485165,9.53472900390625,65.44564056396484,1118.0,160.0,-452.673828125,-23.63442611694336,0,0,0,40000
485175,10.606505393981934,65.53565216064453,1078.0,159.0,-453.21392822265625,-30.370471954345703,0,0,0,40000
485185,11.250021934509277,65.55093383789062,945.0,-8.0,-453.30560302734375,-34.56161117553711,0,0,0,40000
485195,12.028522491455078,65.50335693359375,826.0,-13.0,-453.0201416015625,-39.58449935913086,0,0,0,40000
485205,12.47451400756836,65.54622650146484,723.0,211.0,-453.27734375,-42.629371643066406,0,0,0,40000
485215,13.033419609069824,65.67445373535156,647.0,174.0,-454.0467224121094,-46.36771011352539,0,0,0,40000
485225,13.268884658813477,65.73149108886719,580.0,88.0,-454.3889465332031,-48.17584991455078,0,0,0,40000
485235,13.486023902893066,65.81067657470703,436.0,141.0,-454.86407470703125,-49.88154602050781,0,0,0,40000
485245,13.539728164672852,65.93415069580078,356.0,310.0,-455.60491943359375,-50.609161376953125,0,0,0,40000
485255,13.399213790893555,66.15132141113281,330.0,225.0,-456.9079284667969,-50.170249938964844,0,0,0,40000
485265,13.232162475585938,66.27239227294922,229.0,224.0,-457.63433837890625,-49.56707763671875,0,0,0,40000
485275,12.798272132873535,66.49516296386719,82.0,292.0,-458.9709777832031,-47.35336685180664,0,0,0,40000
485285,12.407238960266113,66.64940643310547,14.0,151.0,-459.89642333984375,-45.38441848754883,0,0,0,40000
485295,11.586360931396484,66.79495239257812,-92.0,113.0,-460.76971435546875,-40.817203521728516,0,0,0,40000
485305,10.963852882385254,66.91417694091797,-200.0,206.0,-461.48504638671875,-37.418338775634766,0,0,0,40000
485315,9.868781089782715,67.09383392333984,-244.0,121.0,-462.56298828125,-31.157730102539062,0,0,0,40000
485325,9.043632507324219,67.16117095947266,-299.0,58.0,-462.967041015625,-26.487964630126953,0,0,0,40000
485335,7.685490131378174,67.29010009765625,-350.0,147.0,-463.7406005859375,-18.58631134033203,0,0,0,40000
485345,6.734434604644775,67.38525390625,-423.0,29.0,-464.3115234375,-13.093673706054688,0,0,0,40000
485355,5.195307731628418,67.41146850585938,-452.0,-68.0,-464.46881103515625,-4.03392219543457,0,0,0,40000
485365,4.129454612731934,67.43556213378906,-489.0,54.0,-464.6133728027344,2.224607467651367,0,0,0,40000
485375,2.4079713821411133,67.50456237792969,-469.0,70.0,-465.0273742675781,12.460500717163086,0,0,0,40000
485385,1.276293158531189,67.51602935791016,-480.0,-60.0,-465.09619140625,19.198740005493164,0,0,0,40000
485395,-0.47701460123062134,67.45946502685547,-470.0,-48.0,-464.75677490234375,29.7120361328125,0,0,0,40000
485405,-1.6872189044952393,67.45588684082031,-494.0,48.0,-464.7353210449219,37.00910949707031,0,0,0,40000
485415,-3.481386423110962,67.45217895507812,-432.0,-6.0,-464.71307373046875,47.8568115234375,0,0,0,40000
485425,-4.6506476402282715,67.38070678710938,-441.0,-152.0,-464.28424072265625,54.99784851074219,0,0,0,40000
485435,-6.399036407470703,67.23320007324219,-365.0,-96.0,-463.3992004394531,65.65886688232422,0,0,0,40000
485445,-7.509601593017578,67.16641998291016,-350.0,-51.0,-462.99853515625,72.53439331054688,0,0,0,40000
485455,-9.13288402557373,67.0244369506836,-278.0,-89.0,-462.1466064453125,82.52892303466797,0,0,0,40000
485465,-10.14310359954834,66.9254150390625,-254.0,-44.0,-461.552490234375,88.88250732421875,0,0,0,40000
485475,-11.598058700561523,66.7812271118164,-185.0,-39.0,-460.6873779296875,97.94302368164062,0,0,0,40000
485485,-12.48945426940918,66.67251586914062,-160.0,-116.0,-460.03509521484375,103.65554809570312,0,0,0,40000
485495,-13.735771179199219,66.50414276123047,-63.0,0.0,-459.02484130859375,111.53083801269531,0,0,0,40000
485505,-14.539587020874023,66.45304107666016,-13.0,85.0,-458.71826171875,116.7802963256836,0,0,0,40000
485515,-15.628118515014648,66.36409759521484,10.0,21.0,-458.1845703125,123.76754760742188,0,0,0,40000
485525,-16.249624252319336,66.27416229248047,66.0,-9.0,-457.64495849609375,127.97675323486328,0,0,0,40000
485535,-17.07415771484375,66.1894302368164,161.0,119.0,-457.1365966796875,133.42657470703125,0,0,0,40000
485545,-17.602087020874023,66.17023468017578,177.0,133.0,-457.02142333984375,137.11587524414062,0,0,0,40000
485555,-18.267200469970703,66.12079620361328,174.0,53.0,-456.72479248046875,141.64703369140625,0,0,0,40000
485565,-18.614971160888672,66.06715393066406,235.0,60.0,-456.4029235839844,144.28802490234375,0,0,0,40000
485575,-19.071475982666016,66.02801513671875,303.0,116.0,-456.1680908203125,147.59410095214844,0,0,0,40000
485585,-19.337425231933594,66.01934814453125,403.0,84.0,-456.1160888671875,149.76681518554688,0,0,0,40000
485595,-19.577438354492188,65.96946716308594,433.0,19.0,-455.8168029785156,151.79180908203125,0,0,0,40000
485605,-19.66717529296875,65.93634796142578,481.0,87.0,-455.61810302734375,152.91915893554688,0,0,0,40000
485615,-19.7344970703125,65.95079040527344,533.0,132.0,-455.7047424316406,153.91433715820312,0,0,0,40000
485625,-19.702028274536133,65.96151733398438,607.0,100.0,-455.76910400390625,154.3110809326172,0,0,0,40000
485635,-19.547203063964844,65.94552612304688,652.0,19.0,-455.67315673828125,153.97071838378906,0,0,0,40000
485645,-19.366697311401367,65.9556884765625,688.0,133.0,-455.734130859375,153.47088623046875,0,0,0,40000
485655,-19.069673538208008,66.02520751953125,748.0,160.0,-456.1512451171875,152.26467895507812,0,0,0,40000
485665,-18.794395446777344,66.05361938476562,850.0,46.0,-456.32171630859375,151.18026733398438,0,0,0,40000
485675,-18.237957000732422,66.05423736572266,903.0,46.0,-456.325439453125,148.3956298828125,0,0,0,40000
485685,-17.828201293945312,66.10188293457031,937.0,190.0,-456.6112976074219,146.47677612304688,0,0,0,40000
485695,-17.195619583129883,66.22687530517578,974.0,192.0,-457.36126708984375,143.20494079589844,0,0,0,40000
485705,-16.687768936157227,66.28272247314453,992.0,84.0,-457.69635009765625,140.66481018066406,0,0,0,40000
485715,-15.83580207824707,66.35493469238281,1046.0,126.0,-458.1296081542969,136.03854370117188,0,0,0,40000
485725,-15.248860359191895,66.44564056396484,1086.0,186.0,-458.673828125,132.9814453125,0,0,0,40000
485735,-14.243603706359863,66.56908416748047,1153.0,116.0,-459.41448974609375,127.38943481445312,0,0,0,40000
485745,-13.50512409210205,66.60176849365234,1231.0,27.0,-459.610595703125,123.37268829345703,0,0,0,40000
485755,-12.289981842041016,66.67292785644531,1314.0,98.0,-460.0375671386719,116.46538543701172,0,0,0,40000
485765,-11.455708503723145,66.73565673828125,1413.0,109.0,-460.4139404296875,111.81364440917969,0,0,0,40000
485775,-10.103410720825195,66.77545166015625,1482.0,-1.0,-460.6527099609375,104.01947784423828,0,0,0,40000
485785,-9.138970375061035,66.7894287109375,1504.0,17.0,-460.736572265625,98.5185546875,0,0,0,40000
485795,-7.690843105316162,66.87725830078125,1515.0,126.0,-461.2635498046875,90.07806396484375,0,0,0,40000
485805,-6.694516658782959,66.94297790527344,1570.0,54.0,-461.6578674316406,84.31295013427734,0,0,0,40000
485815,-5.1588616371154785,66.94961547851562,1627.0,-52.0,-461.69769287109375,75.27262878417969,0,0,0,40000
485825,-4.114475250244141,66.95787048339844,1633.0,74.0,-461.7472229003906,69.14219665527344,0,0,0,40000
485835,-2.576082229614258,67.08190155029297,1619.0,217.0,-462.49139404296875,60.00749206542969,0,0,0,40000
485845,-1.5592069625854492,67.1490249633789,1623.0,80.0,-462.8941650390625,53.96520233154297,0,0,0,40000
485855,-0.060446713119745255,67.15303802490234,1645.0,38.0,-462.918212890625,44.99260711669922,0,0,0,40000
485865,0.9086836576461792,67.21133422851562,1668.0,213.0,-463.26800537109375,39.16220474243164,0,0,0,40000
485875,2.3570430278778076,67.35765838623047,1603.0,218.0,-464.14593505859375,30.41790008544922,0,0,0,40000
485885,3.2838783264160156,67.40586853027344,1538.0,52.0,-464.4352111816406,24.76941680908203,0,0,0,40000
485895,4.611053466796875,67.45228576660156,1529.0,113.0,-464.7137145996094,16.683589935302734,0,0,0,40000
485905,5.480328559875488,67.50967407226562,1497.0,149.0,-465.05804443359375,11.314041137695312,0,0,0,40000
485915,6.626922130584717,67.56047821044922,1453.0,60.0,-465.36285400390625,4.249301910400391,0,0,0,40000
485925,7.327880859375,67.55756378173828,1332.0,42.0,-465.34539794921875,-0.16799163818359375,0,0,0,40000
485935,8.277088165283203,67.65076446533203,1266.0,246.0,-465.90460205078125,-6.100315093994141,0,0,0,40000
485945,8.841303825378418,67.75269317626953,1200.0,199.0,-466.51617431640625,-9.744255065917969,0,0,0,40000
485955,9.530599594116211,67.82978057861328,1114.0,67.0,-466.97869873046875,-14.158012390136719,0,0,0,40000
485965,9.912312507629395,67.8866195678711,1002.0,186.0,-467.3197021484375,-16.74111557006836,0,0,0,40000
485975,10.397634506225586,68.05514526367188,941.0,241.0,-468.33087158203125,-19.9595947265625,0,0,0,40000
485985,10.608835220336914,68.14269256591797,845.0,102.0,-468.85614013671875,-21.542625427246094,0,0,0,40000
485995,10.758252143859863,68.22268676757812,761.0,98.0,-469.33612060546875,-22.760711669921875,0,0,0,40000
486005,10.792423248291016,68.33770751953125,663.0,253.0,-470.0262451171875,-23.289165496826172,0,0,0,40000
486015,10.679707527160645,68.52307891845703,592.0,186.0,-471.13848876953125,-22.935352325439453,0,0,0,40000
486025,10.486894607543945,68.59417724609375,501.0,73.0,-471.5650634765625,-22.095481872558594,0,0,0,40000
486035,10.067748069763184,68.73966217041016,415.0,212.0,-472.43798828125,-19.887805938720703,0,0,0,40000
486045,9.771958351135254,68.88980102539062,321.0,260.0,-473.33880615234375,-18.409839630126953,0,0,0,40000
486055,9.11258602142334,69.0261001586914,219.0,35.0,-474.1566162109375,-14.735603332519531,0,0,0,40000
486065,8.573967933654785,69.07022094726562,159.0,79.0,-474.42132568359375,-11.767753601074219,0,0,0,40000
486075,7.614630222320557,69.19081115722656,36.0,112.0,-475.1448669433594,-6.251899719238281,0,0,0,40000
486085,6.899634838104248,69.25013732910156,-4.0,30.0,-475.5008239746094,-2.1775245666503906,0,0,0,40000
486095,5.699561595916748,69.26691436767578,-87.0,-61.0,-475.60150146484375,4.837337493896484,0,0,0,40000
486105,4.8103556632995605,69.28327941894531,-174.0,46.0,-475.6996765136719,10.017593383789062,0,0,0,40000
486115,3.4678103923797607,69.35060119628906,-225.0,30.0,-476.1036071777344,17.95208740234375,0,0,0,40000
486125,2.4983296394348145,69.3367691040039,-267.0,-62.0,-476.0206298828125,23.682415008544922,0,0,0,40000
486135,1.0101641416549683,69.30975341796875,-280.0,-21.0,-475.8585205078125,32.56328582763672,0,0,0,40000
486145,-0.00013663472782354802,69.29478454589844,-315.0,-36.0,-475.7687072753906,38.61283493041992,0,0,0,40000
486155,-1.5290379524230957,69.22400665283203,-333.0,-131.0,-475.34405517578125,47.81392288208008,0,0,0,40000
486165,-2.5479931831359863,69.15319061279297,-300.0,-66.0,-474.91912841796875,53.99197769165039,0,0,0,40000
486175,-4.083059787750244,69.08882141113281,-255.0,-4.0,-474.5329284667969,63.305946350097656,0,0,0,40000
486185,-5.061679840087891,69.04044342041016,-269.0,-91.0,-474.24267578125,69.31791687011719,0,0,0,40000
486195,-6.4986419677734375,68.90455627441406,-227.0,-121.0,-473.4273376464844,78.11753845214844,0,0,0,40000
486205,-7.401383876800537,68.84017181396484,-200.0,-24.0,-473.041015625,83.7451171875,0,0,0,40000
486215,-8.738436698913574,68.7750015258789,-205.0,-8.0,-472.6500244140625,92.0141372680664,0,0,0,40000
486225,-9.554524421691895,68.68829345703125,-181.0,-100.0,-472.1297607421875,97.18756103515625,0,0,0,40000
486235,-10.697369575500488,68.56159973144531,-131.0,-21.0,-471.3695983886719,104.35194396972656,0,0,0,40000
486245,-11.463033676147461,68.51776885986328,-116.0,29.0,-471.10662841796875,109.28076171875,0,0,0,40000
486255,-12.498618125915527,68.41781616210938,-112.0,-109.0,-470.50689697265625,115.85682678222656,0,0,0,40000
486265,-13.094507217407227,68.30847930908203,-99.0,-121.0,-469.85089111328125,119.81787872314453,0,0,0,40000
486275,-13.956106185913086,68.1943130493164,-61.0,-20.0,-469.1658935546875,125.39599609375,0,0,0,40000
486285,-14.452470779418945,68.13685607910156,9.0,-59.0,-468.8211364746094,128.80197143554688,0,0,0,40000
486295,-15.101207733154297,67.99803161621094,-8.0,-121.0,-467.9881896972656,133.13983154296875,0,0,0,40000
486305,-15.476761817932129,67.92092895507812,29.0,-29.0,-467.52557373046875,135.852783203125,0,0,0,40000
486315,-16.00120735168457,67.87431335449219,52.0,21.0,-467.2458801269531,139.473388671875,0,0,0,40000
486325,-16.271108627319336,67.8236312866211,138.0,-99.0,-466.9417724609375,141.57785034179688,0,0,0,40000
486335,-16.527572631835938,67.69933319091797,173.0,-87.0,-466.19598388671875,143.60971069335938,0,0,0,40000
486345,-16.641157150268555,67.67153930664062,177.0,44.0,-466.02923583984375,144.78912353515625,0,0,0,40000
486355,-16.79153060913086,67.66969299316406,202.0,35.0,-466.0181579589844,146.19351196289062,0,0,0,40000
486365,-16.789628982543945,67.65306091308594,259.0,-14.0,-465.9183654785156,146.68582153320312,0,0,0,40000
486375,-16.687196731567383,67.62554168701172,301.0,-12.0,-465.75323486328125,146.57376098632812,0,0,0,40000
486385,-16.588258743286133,67.61137390136719,353.0,0.0,-465.6682434082031,146.4790496826172,0,0,0,40000
486395,-16.276323318481445,67.5866470336914,371.0,-65.0,-465.5198974609375,145.09970092773438,0,0,0,40000
486405,-15.99924373626709,67.5558090209961,400.0,-81.0,-465.3348388671875,143.9205780029297,0,0,0,40000
486415,-15.488442420959473,67.52369689941406,483.0,-50.0,-465.1421813964844,141.32672119140625,0,0,0,40000
486425,-15.078876495361328,67.52224731445312,546.0,-57.0,-465.13348388671875,139.32681274414062,0,0,0,40000
486435,-14.648715019226074,67.51371002197266,563.0,-75.0,-465.0140075683594,135.68667602539062,0,0,0,40000
486445,-13.872395515441895,67.47856903076172,580.0,-87.0,-464.87139892578125,132.86770629882812,0,0,0,40000
486455,-13.278579711914062,67.4547119140625,655.0,-77.0,-464.728271484375,129.71038818359375,0,0,0,40000
486465,-12.348341941833496,67.43898010253906,730.0,-66.0,-464.6338806152344,124.51072692871094,0,0,0,40000
486475,-11.66699504852295,67.41824340820312,761.0,-145.0,-464.50946044921875,120.78092956542969,0,0,0,40000
486485,-10.545211791992188,67.34886169433594,796.0,-125.0,-464.0931701660156,114.38027954101562,0,0,0,40000
486495,-9.735318183898926,67.33443450927734,835.0,-44.0,-464.006591796875,109.82273864746094,0,0,0,40000
486505,-8.459930419921875,67.32097625732422,924.0,-99.0,-463.92584228515625,102.43997192382812,0,0,0,40000
486515,-7.556807994842529,67.29971313476562,979.0,-99.0,-463.79827880859375,97.25883483886719,0,0,0,40000
486525,-6.1126298904418945,67.29312133789062,996.0,-40.0,-463.75872802734375,88.79464721679688,0,0,0,40000
486535,-5.107600688934326,67.2766342163086,1059.0,-140.0,-463.6597900390625,82.92979431152344,0,0,0,40000
486545,-3.5041534900665283,67.1596450805664,1083.0,-243.0,-462.9578857421875,73.43372344970703,0,0,0,40000
486555,-2.417375087738037,67.08002471923828,1109.0,-114.0,-462.48016357421875,66.99874877929688,0,0,0,40000
486565,-0.7414979338645935,67.00816345214844,1129.0,-110.0,-462.0489807128906,56.98581314086914,0,0,0,40000
486575,0.3920205533504486,66.93628692626953,1122.0,-177.0,-461.61773681640625,50.1865348815918,0,0,0,40000
486585,2.0802624225616455,66.81658172607422,1088.0,-123.0,-460.89947509765625,40.01493835449219,0,0,0,40000
486595,3.216078758239746,66.75390625,1143.0,-91.0,-460.5234375,33.117149353027344,0,0,0,40000
486605,4.896464824676514,66.60929870605469,1150.0,-205.0,-459.6557922363281,22.908111572265625,0,0,0,40000
486615,5.973514080047607,66.48003387451172,1149.0,-231.0,-458.88018798828125,16.279373168945312,0,0,0,40000
486625,7.580591201782227,66.31922912597656,1148.0,-98.0,-457.9153747558594,6.428401947021484,0,0,0,40000
486635,8.630982398986816,66.2389144897461,1096.0,-146.0,-457.4334716796875,-0.120330810546875,0,0,0,40000
486645,10.0709228515625,66.04190063476562,1115.0,-262.0,-456.25140380859375,-9.045181274414062,0,0,0,40000
486655,10.98500919342041,65.90237426757812,1078.0,-123.0,-455.41424560546875,-14.848224639892578,0,0,0,40000
486665,12.338726043701172,65.79934692382812,1003.0,-50.0,-454.79608154296875,-23.324615478515625,0,0,0,40000
486675,13.128446578979492,65.7344970703125,962.0,-99.0,-454.406982421875,-28.447467803955078,0,0,0,40000
486685,14.202149391174316,65.58507537841797,888.0,-126.0,-453.51043701171875,-35.303428649902344,0,0,0,40000
486695,14.853659629821777,65.53813934326172,812.0,53.0,-453.22882080078125,-39.650325775146484,0,0,0,40000
486705,15.755309104919434,65.5416030883789,722.0,43.0,-453.2496337890625,-45.52251434326172,0,0,0,40000
486715,16.242706298828125,65.50743865966797,620.0,-69.0,-453.04461669921875,-48.92851638793945,0,0,0,40000
486725,16.768770217895508,65.46295166015625,499.0,30.0,-452.7777099609375,-52.58209991455078,0,0,0,40000
486735,17.086688995361328,65.4738998413086,382.0,42.0,-452.8433837890625,-54.99858474731445,0,0,0,40000
486745,17.336326599121094,65.44766235351562,284.0,-72.0,-452.68597412109375,-57.01435852050781,0,0,0,40000
486755,17.37779998779297,65.42766571044922,169.0,-18.0,-452.56597900390625,-57.78404235839844,0,0,0,40000
486765,17.383785247802734,65.43667602539062,89.0,-20.0,-452.62005615234375,-58.34185791015625,0,0,0,40000
486775,17.24017906188965,65.41683197021484,-52.0,-89.0,-452.5009765625,-57.99917221069336,0,0,0,40000
486785,16.879608154296875,65.38388061523438,-141.0,-98.0,-452.30328369140625,-56.34730911254883,0,0,0,40000
486795,16.55948257446289,65.3963623046875,-218.0,8.0,-452.378173828125,-54.92721939086914,0,0,0,40000
486805,15.946730613708496,65.428466796875,-284.0,-80.0,-452.57080078125,-51.73654556274414,0,0,0,40000
486815,15.430173873901367,65.40325927734375,-310.0,-157.0,-452.4195556640625,-49.106441497802734,0,0,0,40000
486825,14.587224006652832,65.39385223388672,-362.0,-43.0,-452.36309814453125,-44.496681213378906,0,0,0,40000
486835,13.95052433013916,65.42533111572266,-362.0,-71.0,-452.552001953125,-41.102752685546875,0,0,0,40000
486845,12.948956489562988,65.3826904296875,-396.0,-257.0,-452.296142578125,-35.4944953918457,0,0,0,40000
486855,12.188602447509766,65.32811737060547,-382.0,-184.0,-451.96868896484375,-31.307044982910156,0,0,0,40000
486865,11.009391784667969,65.33220672607422,-348.0,-79.0,-451.99322509765625,-24.576248168945312,0,0,0,40000
486875,10.184965133666992,65.32623291015625,-376.0,-229.0,-451.9573974609375,-19.945362091064453,0,0,0,40000
486885,8.896178245544434,65.18323516845703,-363.0,-321.0,-451.09942626953125,-12.495140075683594,0,0,0,40000
486895,8.023451805114746,65.10884094238281,-348.0,-176.0,-450.6530456542969,-7.5099639892578125,0,0,0,40000
486905,6.678160667419434,65.03858184814453,-306.0,-242.0,-450.23150634765625,0.34540557861328125,0,0,0,40000
486915,5.736062526702881,64.91984558105469,-329.0,-379.0,-449.5190734863281,5.814533233642578,0,0,0,40000
486925,4.3167572021484375,64.74932098388672,-344.0,-231.0,-448.49591064453125,14.183727264404297,0,0,0,40000
486935,3.4071767330169678,64.6961669921875,-344.0,-155.0,-448.177001953125,19.528013229370117,0,0,0,40000
486945,2.0391478538513184,64.59642028808594,-316.0,-224.0,-447.5785217285156,27.65874481201172,0,0,0,40000
486955,1.1398659944534302,64.47456359863281,-326.0,-282.0,-446.8473815917969,33.009525299072266,0,0,0,40000
486965,-0.18909786641597748,64.31104278564453,-333.0,-162.0,-445.86627197265625,40.973575592041016,0,0,0,40000
486975,-1.061579942703247,64.23347473144531,-337.0,-142.0,-445.4008483886719,46.22980880737305,0,0,0,40000
486985,-2.3284761905670166,64.08635711669922,-316.0,-243.0,-444.51812744140625,53.88581085205078,0,0,0,40000
486995,-3.1345911026000977,63.9516716003418,-364.0,-246.0,-443.71002197265625,58.80693817138672,0,0,0,40000
487005,-4.297502040863037,63.821441650390625,-326.0,-60.0,-442.92864990234375,65.89970397949219,0,0,0,40000
487015,-5.038613319396973,63.78253173828125,-266.0,-24.0,-442.6951904296875,70.48869323730469,0,0,0,40000
487025,-6.0830979347229,63.686866760253906,-258.0,-116.0,-442.1212158203125,76.92588806152344,0,0,0,40000
487035,-6.705200672149658,63.593936920166016,-251.0,-82.0,-441.5636291503906,80.85221099853516,0,0,0,40000
487045,-7.593839168548584,63.543113708496094,-235.0,63.0,-441.2586669921875,86.40120697021484,0,0,0,40000
487055,-8.117814064025879,63.55121994018555,-199.0,70.0,-441.30731201171875,89.78242492675781,0,0,0,40000
487065,-8.863286972045898,63.521995544433594,-150.0,-3.0,-441.1319580078125,94.51258850097656,0,0,0,40000
487075,-9.281667709350586,63.492950439453125,-132.0,22.0,-440.95770263671875,97.29631042480469,0,0,0,40000
487085,-9.854870796203613,63.48148727416992,-145.0,62.0,-440.888916015625,101.02471160888672,0,0,0,40000
487095,-10.164886474609375,63.474037170410156,-92.0,-10.0,-440.84423828125,103.18614959716797,0,0,0,40000
487105,-10.522114753723145,63.40003967285156,-38.0,-70.0,-440.4002380371094,105.64128112792969,0,0,0,40000
487115,-10.68129825592041,63.37308883666992,-46.0,50.0,-440.238525390625,106.91499328613281,0,0,0,40000
487125,-10.883674621582031,63.41007995605469,1.0,100.0,-440.4604797363281,108.4537582397461,0,0,0,40000
487135,-10.957913398742676,63.43686294555664,47.0,34.0,-440.6211853027344,109.22715759277344,0,0,0,40000
487145,-10.965904235839844,63.43921661376953,79.0,-2.0,-440.63531494140625,109.60432434082031,0,0,0,40000
487155,-10.912040710449219,63.441707611083984,85.0,32.0,-440.6502380371094,109.60919189453125,0,0,0,40000
487165,-10.73038387298584,63.48469543457031,125.0,62.0,-440.9081726074219,108.84321594238281,0,0,0,40000
487175,-10.544055938720703,63.48346710205078,164.0,-75.0,-440.90081787109375,108.04402160644531,0,0,0,40000
487185,-10.138284683227539,63.4414176940918,200.0,-39.0,-440.64849853515625,105.91868591308594,0,0,0,40000
487195,-9.840485572814941,63.46030044555664,219.0,74.0,-440.7618103027344,104.43067932128906,0,0,0,40000
487205,-9.311548233032227,63.521934509277344,230.0,20.0,-441.131591796875,101.54322814941406,0,0,0,40000
487215,-8.907447814941406,63.52703094482422,273.0,-36.0,-441.16217041015625,99.39071655273438,0,0,0,40000
487225,-8.239895820617676,63.55356216430664,307.0,47.0,-441.3213806152344,95.64080810546875,0,0,0,40000
487235,-7.7381062507629395,63.60863494873047,319.0,64.0,-441.65179443359375,92.86830139160156,0,0,0,40000
487245,-6.927267074584961,63.64130783081055,331.0,-35.0,-441.84783935546875,88.22105407714844,0,0,0,40000
487255,-6.319159030914307,63.6299934387207,385.0,-3.0,-441.77996826171875,84.76936340332031,0,0,0,40000
487265,-5.34172248840332,63.665889739990234,433.0,22.0,-441.9953308105469,79.07669067382812,0,0,0,40000
487275,-4.641077518463135,63.68619155883789,458.0,-51.0,-442.1171569824219,75.02046203613281,0,0,0,40000
487285,-3.513246536254883,63.65290069580078,439.0,-119.0,-441.91741943359375,68.37250518798828,0,0,0,40000
487295,-2.7131733894348145,63.639122009277344,519.0,21.0,-441.834716796875,63.6633186340332,0,0,0,40000
487305,-1.4965893030166626,63.70488739013672,573.0,83.0,-442.22930908203125,56.423362731933594,0,0,0,40000
487315,-0.6523414850234985,63.736106872558594,546.0,-24.0,-442.4166259765625,51.38762283325195,0,0,0,40000
487325,0.6513364315032959,63.68941879272461,554.0,-68.0,-442.1365051269531,43.56171417236328,0,0,0,40000
487335,1.5618150234222412,63.6786994934082,599.0,69.0,-442.07220458984375,38.06291961669922,0,0,0,40000
487345,2.912153959274292,63.71181869506836,593.0,89.0,-442.2709045410156,29.889862060546875,0,0,0,40000
487355,3.82572340965271,63.69473648071289,569.0,-41.0,-442.1684265136719,24.30461311340332,0,0,0,40000
487365,5.181431770324707,63.61621856689453,570.0,-41.0,-441.69732666015625,16.031476974487305,0,0,0,40000
487375,6.107581615447998,63.6085205078125,588.0,80.0,-441.651123046875,10.302406311035156,0,0,0,40000
487385,7.472031116485596,63.59183120727539,554.0,14.0,-441.5509948730469,1.9078826904296875,0,0,0,40000
487395,8.33333969116211,63.52011489868164,529.0,-72.0,-441.1206970214844,-3.499767303466797,0,0,0,40000
487405,9.626877784729004,63.45360565185547,515.0,70.0,-440.72161865234375,-11.53463363647461,0,0,0,40000
487415,10.475846290588379,63.431671142578125,487.0,29.0,-440.59002685546875,-16.932540893554688,0,0,0,40000
487425,11.629720687866211,63.33183288574219,500.0,-50.0,-439.9909973144531,-24.191177368164062,0,0,0,40000
487435,12.402270317077637,63.26923751831055,429.0,84.0,-439.61541748046875,-29.189266204833984,0,0,0,40000
487445,13.481393814086914,63.281612396240234,380.0,167.0,-439.6896667480469,-36.055694580078125,0,0,0,40000
487455,14.14863395690918,63.26974105834961,354.0,35.0,-439.6184387207031,-40.47578430175781,0,0,0,40000
487465,15.003637313842773,63.177825927734375,300.0,14.0,-439.06695556640625,-46.04598617553711,0,0,0,40000
487475,15.527597427368164,63.17011260986328,230.0,159.0,-439.02069091796875,-49.649288177490234,0,0,0,40000
487485,16.252981185913086,63.20013427734375,203.0,135.0,-439.2008056640625,-54.4809684753418,0,0,0,40000
487495,16.60894775390625,63.166866302490234,137.0,5.0,-439.0011901855469,-57.11083984375,0,0,0,40000
487505,17.049522399902344,63.1459846496582,81.0,118.0,-438.87591552734375,-60.26068115234375,0,0,0,40000
487515,17.304332733154297,63.18941116333008,28.0,171.0,-439.136474609375,-62.305728912353516,0,0,0,40000
487525,17.527359008789062,63.19330978393555,-16.0,-36.0,-439.15985107421875,-64.16764831542969,0,0,0,40000
487535,17.53195571899414,63.16667556762695,-64.0,13.0,-439.00006103515625,-64.72127532958984,0,0,0,40000
487545,17.529611587524414,63.220802307128906,-45.0,109.0,-439.3248291015625,-65.23321533203125,0,0,0,40000
487555,17.456884384155273,63.26664733886719,-119.0,34.0,-439.5998840332031,-65.3216552734375,0,0,0,40000
487565,17.17718505859375,63.244285583496094,-148.0,-91.0,-439.4656982421875,-64.16252899169922,0,0,0,40000
487575,16.896028518676758,63.250003814697266,-137.0,6.0,-439.5000305175781,-62.98588943481445,0,0,0,40000
487585,16.433879852294922,63.337852478027344,-146.0,46.0,-440.027099609375,-60.71172332763672,0,0,0,40000
487595,16.016246795654297,63.35791015625,-219.0,-99.0,-440.1474609375,-58.69158935546875,0,0,0,40000
487605,15.28677749633789,63.39008331298828,-232.0,-21.0,-440.34051513671875,-54.78252410888672,0,0,0,40000
487615,14.775010108947754,63.47223663330078,-218.0,94.0,-440.83343505859375,-52.16130065917969,0,0,0,40000
487625,13.850790023803711,63.57529830932617,-283.0,-25.0,-441.4517822265625,-47.04281234741211,0,0,0,40000
487635,13.162215232849121,63.604522705078125,-293.0,-47.0,-441.62713623046875,-43.31460189819336,0,0,0,40000
487645,12.099020957946777,63.73256301879883,-343.0,95.0,-442.3953857421875,-37.31165313720703,0,0,0,40000
487655,11.346739768981934,63.82654571533203,-340.0,36.0,-442.95928955078125,-33.14739990234375,0,0,0,40000
487665,10.094697952270508,63.879337310791016,-348.0,-111.0,-443.2760314941406,-25.953533172607422,0,0,0,40000
487675,9.207915306091309,63.90660858154297,-387.0,23.0,-443.43963623046875,-20.919593811035156,0,0,0,40000
487685,7.842409610748291,64.06584930419922,-400.0,144.0,-444.39508056640625,-12.978523254394531,0,0,0,40000
487695,6.924907207489014,64.16118621826172,-421.0,74.0,-444.96710205078125,-7.692375183105469,0,0,0,40000
487705,5.433481693267822,64.24528503417969,-419.0,27.0,-445.4717102050781,1.0751914978027344,0,0,0,40000
487715,4.438682556152344,64.31926727294922,-417.0,120.0,-445.91558837890625,6.898906707763672,0,0,0,40000
487725,2.896379232406616,64.45811462402344,-392.0,162.0,-446.7486877441406,16.047563552856445,0,0,0,40000
487735,1.8561164140701294,64.5024185180664,-387.0,-3.0,-447.0145263671875,22.220909118652344,0,0,0,40000
487745,0.28366678953170776,64.4988784790039,-432.0,4.0,-446.9932861328125,31.628084182739258,0,0,0,40000
487755,-0.7627982497215271,64.55951690673828,-389.0,200.0,-447.35711669921875,37.91731262207031,0,0,0,40000
487765,-2.3497588634490967,64.68199157714844,-395.0,172.0,-448.0919494628906,47.49033737182617,0,0,0,40000
487775,-3.391815423965454,64.70637512207031,-395.0,86.0,-448.2382507324219,53.83202362060547,0,0,0,40000
487785,-4.943425178527832,64.7409896850586,-403.0,172.0,-448.4459228515625,63.27125549316406,0,0,0,40000
487795,-5.955890655517578,64.80752563476562,-356.0,271.0,-448.84515380859375,69.51268768310547,0,0,0,40000
487805,-7.4293437004089355,64.87611389160156,-338.0,160.0,-449.2566833496094,78.55876159667969,0,0,0,40000
487815,-8.374282836914062,64.88622283935547,-304.0,145.0,-449.31732177734375,84.46826171875,0,0,0,40000
487825,-9.758110046386719,64.94104766845703,-315.0,256.0,-449.64630126953125,93.04727172851562,0,0,0,40000
487835,-10.622481346130371,64.99928283691406,-314.0,243.0,-449.9956970214844,98.54166412353516,0,0,0,40000
487845,-11.85484504699707,65.02639770507812,-258.0,159.0,-450.15838623046875,106.27740478515625,0,0,0,40000
487855,-12.627060890197754,65.047119140625,-177.0,217.0,-450.28271484375,111.28038024902344,0,0,0,40000
487865,-13.708075523376465,65.10185241699219,-169.0,234.0,-450.6111145019531,118.16482543945312,0,0,0,40000
487875,-14.376997947692871,65.11951446533203,-194.0,121.0,-450.71710205078125,122.6015625,0,0,0,40000
487885,-15.22754955291748,65.10382843017578,-161.0,116.0,-450.62298583984375,128.15176391601562,0,0,0,40000
487895,-15.757633209228516,65.12474060058594,-69.0,197.0,-450.7484436035156,131.79888916015625,0,0,0,40000
487905,-16.485122680664062,65.19163513183594,1.0,212.0,-451.1498107910156,136.6502227783203,0,0,0,40000
487915,-16.919395446777344,65.223388671875,-12.0,157.0,-451.34033203125,139.75830078125,0,0,0,40000
487925,-17.422733306884766,65.26847839355469,-5.0,173.0,-451.6108703613281,143.29513549804688,0,0,0,40000
487935,-17.706153869628906,65.30565643310547,81.0,169.0,-451.83392333984375,145.5234375,0,0,0,40000
487945,-18.020206451416016,65.32390594482422,117.0,78.0,-451.94342041015625,147.94491577148438,0,0,0,40000
487955,-18.155868530273438,65.34326171875,135.0,149.0,-452.0595703125,149.30198669433594,0,0,0,40000
487965,-18.31734848022461,65.43659210205078,153.0,205.0,-452.61956787109375,150.8187255859375,0,0,0,40000
487975,-18.354326248168945,65.4861068725586,214.0,93.0,-452.9166259765625,151.59091186523438,0,0,0,40000
487985,-18.27836799621582,65.53721618652344,256.0,90.0,-453.2232971191406,151.68466186523438,0,0,0,40000
487995,-18.19550895690918,65.58414459228516,290.0,127.0,-453.5048828125,151.73439025878906,0,0,0,40000
488005,-17.9946346282959,65.68936157226562,309.0,153.0,-454.13616943359375,151.07159423828125,0,0,0,40000
488015,-17.792911529541016,65.7435073852539,353.0,86.0,-454.4610595703125,150.39756774902344,0,0,0,40000
488025,-17.375070571899414,65.80989837646484,400.0,88.0,-454.859375,148.41702270507812,0,0,0,40000
488035,-17.05308723449707,65.89656829833984,441.0,193.0,-455.37939453125,147.00057983398438,0,0,0,40000
488045,-16.49205207824707,66.0284652709961,485.0,125.0,-456.1707763671875,144.13612365722656,0,0,0,40000
488055,-16.047311782836914,66.08895111083984,549.0,56.0,-456.53369140625,141.95449829101562,0,0,0,40000
488065,-15.306504249572754,66.21055603027344,585.0,178.0,-457.2633361816406,137.97769165039062,0,0,0,40000
488075,-14.814449310302734,66.31575012207031,627.0,174.0,-457.8945007324219,135.475830078125,0,0,0,40000
488085,-13.915009498596191,66.44393157958984,695.0,92.0,-458.66357421875,130.50784301757812,0,0,0,40000
488095,-13.264723777770996,66.51030731201172,722.0,101.0,-459.06182861328125,127.01203918457031,0,0,0,40000
488105,-12.225481986999512,66.64312744140625,760.0,140.0,-459.8587646484375,121.15585327148438,0,0,0,40000
488115,-11.463275909423828,66.71478271484375,806.0,22.0,-460.2886962890625,116.9358139038086,0,0,0,40000
488125,-10.232918739318848,66.7574691772461,848.0,-36.0,-460.5447998046875,109.8757553100586,0,0,0,40000
488135,-9.355720520019531,66.78050231933594,863.0,16.0,-460.6830139160156,104.90380859375,0,0,0,40000
488145,-7.998439788818359,66.83771514892578,877.0,4.0,-461.02630615234375,97.01644897460938,0,0,0,40000
488155,-7.0262980461120605,66.83793640136719,930.0,-117.0,-461.0276184082031,91.4061279296875,0,0,0,40000
488165,-5.513804912567139,66.78966522216797,1021.0,-128.0,-460.73797607421875,82.51528930664062,0,0,0,40000
488175,-4.476287364959717,66.75151824951172,1018.0,-107.0,-460.50909423828125,76.43698120117188,0,0,0,40000
488185,-2.8674705028533936,66.67121887207031,1035.0,-149.0,-460.0273132324219,66.88984680175781,0,0,0,40000
488195,-1.766174554824829,66.61553955078125,1077.0,-102.0,-459.6932373046875,60.34825134277344,0,0,0,40000
488205,-0.13374577462673187,66.58665466308594,1117.0,-26.0,-459.5199279785156,50.577423095703125,0,0,0,40000
488215,0.9455188512802124,66.53853607177734,1115.0,-138.0,-459.231201171875,44.08641052246094,0,0,0,40000
488225,2.565998077392578,66.4204330444336,1112.0,-101.0,-458.5225830078125,34.305965423583984,0,0,0,40000
488235,3.6403746604919434,66.3985366821289,1141.0,30.0,-458.3912353515625,27.785160064697266,0,0,0,40000
488245,4.720871925354004,66.38903045654297,1144.0,-31.0,-458.33416748046875,21.17356300354004,0,0,0,40000
488255,6.29608154296875,66.2761001586914,1148.0,-182.0,-457.6566162109375,11.552223205566406,0,0,0,40000
488265,7.30926513671875,66.18167877197266,1136.0,-39.0,-457.090087890625,5.265899658203125,0,0,0,40000
488275,8.798050880432129,66.18115997314453,1076.0,121.0,-457.08697509765625,-3.9128799438476562,0,0,0,40000
488285,9.717533111572266,66.19456481933594,1085.0,20.0,-457.1673889160156,-9.710433959960938,0,0,0,40000
488295,11.077820777893066,66.1092529296875,1018.0,-59.0,-456.655517578125,-18.188133239746094,0,0,0,40000
488305,11.868456840515137,66.07357788085938,1019.0,69.0,-456.44146728515625,-23.27863311767578,0,0,0,40000
488315,13.040349960327148,66.07461547851562,946.0,46.0,-456.44769287109375,-30.68771743774414,0,0,0,40000
488325,13.706832885742188,66.03631591796875,896.0,-55.0,-456.2178955078125,-35.08992004394531,0,0,0,40000
488335,14.56601333618164,65.98566436767578,808.0,30.0,-455.91400146484375,-40.672054290771484,0,0,0,40000
488345,15.102336883544922,66.03186798095703,772.0,190.0,-456.19122314453125,-44.33659744262695,0,0,0,40000
488355,15.771334648132324,66.08901977539062,648.0,48.0,-456.53411865234375,-48.8162841796875,0,0,0,40000
488365,16.08792495727539,66.10614013671875,607.0,139.0,-456.6368408203125,-51.19486999511719,0,0,0,40000
488375,16.517728805541992,66.24574279785156,448.0,246.0,-457.4744567871094,-54.264366149902344,0,0,0,40000
488385,16.68292236328125,66.35091400146484,429.0,137.0,-458.10546875,-55.75411605834961,0,0,0,40000
488395,16.723106384277344,66.39508819580078,336.0,-46.0,-458.37054443359375,-56.49711990356445,0,0,0,40000
488405,16.637815475463867,66.41341400146484,271.0,41.0,-458.48046875,-56.485504150390625,0,0,0,40000
488415,16.404176712036133,66.55400085449219,107.0,185.0,-459.3240051269531,-55.579132080078125,0,0,0,40000
488425,16.138151168823242,66.65692901611328,21.0,82.0,-459.94158935546875,-54.47051239013672,0,0,0,40000
488435,15.512800216674805,66.71562194824219,-71.0,-53.0,-460.2937316894531,-51.19187545776367,0,0,0,40000
488445,15.002739906311035,66.76688385009766,-153.0,81.0,-460.601318359375,-48.58797073364258,0,0,0,40000
488455,14.164027214050293,66.90962219238281,-258.0,97.0,-461.4577331542969,-43.99113845825195,0,0,0,40000
488465,13.496817588806152,66.95711517333984,-340.0,-115.0,-461.74267578125,-40.400848388671875,0,0,0,40000
488475,12.308703422546387,66.96356964111328,-367.0,-53.0,-461.78143310546875,-33.65582275390625,0,0,0,40000
488485,11.50311279296875,67.00765228271484,-418.0,44.0,-462.0458984375,-29.17730712890625,0,0,0,40000
488495,10.138104438781738,67.06803131103516,-504.0,-123.0,-462.408203125,-21.30792999267578,0,0,0,40000
488505,9.174552917480469,67.03305053710938,-480.0,-198.0,-462.19830322265625,-15.81341552734375,0,0,0,40000
488515,7.654346466064453,67.01981353759766,-458.0,5.0,-462.118896484375,-6.939239501953125,0,0,0,40000
488525,6.571001052856445,67.06421661376953,-433.0,60.0,-462.38531494140625,-0.6493873596191406,0,0,0,40000
488535,5.002914905548096,67.13116455078125,-486.0,-17.0,-462.7869873046875,8.58968734741211,0,0,0,40000
488545,3.9059410095214844,67.11621856689453,-480.0,-80.0,-462.69732666015625,15.041141510009766,0,0,0,40000
488555,2.267265558242798,67.12986755371094,-401.0,35.0,-462.7792053222656,24.785402297973633,0,0,0,40000
488565,1.1401262283325195,67.15718841552734,-381.0,13.0,-462.943115234375,31.500429153442383,0,0,0,40000
488575,-0.5175380110740662,67.13282012939453,-393.0,-73.0,-462.79693603515625,41.4420280456543,0,0,0,40000
488585,-1.6120765209197998,67.09284210205078,-346.0,-22.0,-462.55706787109375,48.04450988769531,0,0,0,40000
488595,-3.2574498653411865,67.05158233642578,-263.0,-16.0,-462.30950927734375,57.99476623535156,0,0,0,40000
488605,-4.307159900665283,66.99457550048828,-249.0,-134.0,-461.96746826171875,64.40975952148438,0,0,0,40000
488615,-5.827576160430908,66.87046813964844,-220.0,-66.0,-461.2228088378906,73.68894958496094,0,0,0,40000
488625,-6.774905204772949,66.82746124267578,-213.0,30.0,-460.96478271484375,79.5646743774414,0,0,0,40000
488635,-8.17176628112793,66.76325988769531,-156.0,-25.0,-460.5795593261719,88.17481231689453,0,0,0,40000
488645,-9.037240028381348,66.67333984375,-117.0,-95.0,-460.0400390625,93.62837219238281,0,0,0,40000
488655,-10.229764938354492,66.56192779541016,-116.0,-5.0,-459.37158203125,101.07638549804688,0,0,0,40000
488665,-10.993058204650879,66.5204086303711,-92.0,48.0,-459.1224365234375,105.97698211669922,0,0,0,40000
488675,-12.030885696411133,66.43354034423828,-21.0,-53.0,-458.60125732421875,112.5528335571289,0,0,0,40000
488685,-12.61626148223877,66.33358001708984,-20.0,-80.0,-458.00146484375,116.43663787841797,0,0,0,40000
488695,-13.426465034484863,66.25689697265625,-12.0,90.0,-457.5413818359375,121.6910400390625,0,0,0,40000
488705,-13.923367500305176,66.2551040649414,37.0,66.0,-457.5306396484375,125.08428955078125,0,0,0,40000
488715,-14.569865226745605,66.21977996826172,84.0,27.0,-457.31866455078125,129.39300537109375,0,0,0,40000
488725,-14.947509765625,66.1964111328125,103.0,107.0,-457.178466796875,132.1026611328125,0,0,0,40000
488735,-15.382267951965332,66.2139892578125,88.0,102.0,-457.283935546875,135.16749572753906,0,0,0,40000
488745,-15.602130889892578,66.21170043945312,124.0,-4.0,-457.27020263671875,136.95233154296875,0,0,0,40000
488755,-15.780447006225586,66.15531921386719,204.0,-8.0,-456.9319152832031,138.49407958984375,0,0,0,40000
488765,-15.867698669433594,66.1595230102539,245.0,110.0,-456.9571533203125,139.49270629882812,0,0,0,40000
488775,-15.906947135925293,66.18917083740234,252.0,31.0,-457.135009765625,140.20516967773438,0,0,0,40000
488785,-15.846443176269531,66.1745834350586,270.0,-7.0,-457.0474853515625,140.3182373046875,0,0,0,40000
488795,-15.674145698547363,66.20378875732422,323.0,141.0,-457.22271728515625,139.7568817138672,0,0,0,40000
488805,-15.538511276245117,66.2761459350586,369.0,197.0,-457.6568603515625,139.4109344482422,0,0,0,40000
488815,-15.227156639099121,66.3656005859375,433.0,45.0,-458.193603515625,138.00372314453125,0,0,0,40000
488825,-14.915661811828613,66.36767578125,470.0,0.0,-458.2060546875,136.5861053466797,0,0,0,40000
488835,-14.381709098815918,66.42586517333984,551.0,148.0,-458.55517578125,133.82032775878906,0,0,0,40000
488845,-13.986023902893066,66.51683044433594,570.0,122.0,-459.1009826660156,131.87059020996094,0,0,0,40000
488855,-13.30931568145752,66.6083984375,574.0,49.0,-459.650390625,128.21829223632812,0,0,0,40000
488865,-12.759775161743164,66.63428497314453,638.0,7.0,-459.80572509765625,125.31045532226562,0,0,0,40000
488875,-11.87908935546875,66.71326446533203,706.0,129.0,-460.27960205078125,120.39341735839844,0,0,0,40000
488885,-11.246421813964844,66.78631591796875,751.0,88.0,-460.7178955078125,116.9425048828125,0,0,0,40000
488895,-10.220178604125977,66.839111328125,814.0,-12.0,-461.03466796875,111.10430908203125,0,0,0,40000
488905,-9.44921875,66.8646011352539,846.0,46.0,-461.1876220703125,106.77125549316406,0,0,0,40000
488915,-8.292877197265625,66.96211242675781,868.0,123.0,-461.7726745605469,100.09574890136719,0,0,0,40000
488925,-7.476102828979492,67.0252685546875,906.0,8.0,-462.151611328125,95.42924499511719,0,0,0,40000
488935,-6.153160572052002,67.04087829589844,939.0,-26.0,-462.2452697753906,87.6923599243164,0,0,0,40000
488945,-5.229404449462891,67.07085418701172,966.0,118.0,-462.42510986328125,82.31794738769531,0,0,0,40000
488955,-3.8201541900634766,67.1834716796875,993.0,116.0,-463.100830078125,73.99407958984375,0,0,0,40000
488965,-2.8208394050598145,67.22200012207031,1033.0,12.0,-463.3320007324219,68.0948486328125,0,0,0,40000
488975,-1.3219552040100098,67.24517822265625,1070.0,82.0,-463.4710693359375,59.159263610839844,0,30,0,40000
488985,-0.28183791041374207,67.32315063476562,1111.0,204.0,-643.9389038085938,52.9393196105957,0,30,0,40000
488995,1.2758978605270386,67.43023681640625,1116.0,105.0,-644.5814208984375,43.5736198425293,0,30,0,40000
489005,2.322113037109375,67.43607330322266,1136.0,-17.0,-644.616455078125,37.23952102661133,0,30,0,40000
489015,3.9170053005218506,67.45062255859375,1194.0,133.0,-644.7037353515625,27.571775436401367,0,30,0,40000
489025,4.979093074798584,67.5307388305664,1172.0,254.0,-645.1844482421875,21.062728881835938,0,30,0,40000
489035,6.531778812408447,67.61717224121094,1092.0,102.0,-645.7030029296875,11.56866455078125,0,30,0,40000
489045,7.552370548248291,67.6192855834961,1107.0,90.0,-645.7156982421875,5.230655670166016,0,30,0,40000
489055,9.024250984191895,67.67893981933594,1074.0,250.0,-646.0736083984375,-3.8534469604492188,0,30,0,40000
489065,9.963701248168945,67.74789428710938,1002.0,130.0,-646.4873657226562,-9.777923583984375,0,30,0,40000
489075,11.301010131835938,67.75452423095703,956.0,76.0,-646.5271606445312,-18.124671936035156,0,30,0,40000
489085,12.149715423583984,67.77274322509766,925.0,141.0,-646.636474609375,-23.57131576538086,0,30,0,40000
489095,13.321212768554688,67.7926254272461,864.0,27.0,-646.7557373046875,-30.986480712890625,0,30,0,40000
489105,13.997235298156738,67.74227142333984,807.0,-82.0,-646.45361328125,-35.45465087890625,0,30,0,40000
489115,14.921391487121582,67.68910217285156,732.0,43.0,-646.1346435546875,-41.43666076660156,0,30,0,40000
489125,15.474404335021973,67.71096801757812,674.0,114.0,-646.2658081054688,-45.2122802734375,0,30,0,40000
489135,16.105039596557617,67.70636749267578,614.0,-22.0,-646.2382202148438,-49.47223663330078,0,30,0,40000
489145,16.403484344482422,67.64583587646484,517.0,-59.0,-645.875,-51.75154495239258,0,30,0,40000
489155,16.773624420166016,67.66093444824219,466.0,115.0,-645.965576171875,-54.47115707397461,0,30,0,40000
489165,16.96439552307129,67.73619842529297,341.0,141.0,-646.4171752929688,-56.12269592285156,0,30,0,40000
489175,17.02385711669922,67.7895736694336,257.0,-29.0,-646.7374267578125,-56.99024200439453,0,30,0,40000
489185,16.954103469848633,67.7877197265625,140.0,-8.0,-646.726318359375,-57.08123779296875,0,30,0,40000
489195,16.708724975585938,67.8729248046875,40.0,113.0,-647.237548828125,-56.113006591796875,0,30,0,40000
489205,16.460298538208008,67.92205810546875,-27.0,-17.0,-647.5323486328125,-55.11940002441406,0,30,0,40000
489215,15.910598754882812,67.93023681640625,-171.0,-51.0,-647.5814208984375,-52.30552673339844,0,30,0,40000
489225,15.490721702575684,67.96605682373047,-242.0,61.0,-647.7963256835938,-50.25611114501953,0,30,0,40000
489235,14.669367790222168,68.00962829589844,-315.0,-89.0,-648.0577392578125,-45.778594970703125,0,30,0,40000
489245,13.993467330932617,68.00213623046875,-337.0,-85.0,-648.0128173828125,-42.15118408203125,0,30,0,40000
489255,12.926595687866211,68.08047485351562,-354.0,74.0,-648.4828491210938,-36.150333404541016,0,30,0,40000
489265,12.158416748046875,68.17256164550781,-400.0,83.0,-649.035400390625,-31.915542602539062,0,30,0,40000
489275,10.871423721313477,68.21922302246094,-409.0,-95.0,-649.3153076171875,-24.535327911376953,0,30,0,40000
489285,9.922480583190918,68.2232894897461,-389.0,-38.0,-649.3397216796875,-19.150680541992188,0,30,0,40000
489295,8.516554832458496,68.32015228271484,-398.0,76.0,-649.9208984375,-10.987747192382812,0,30,0,40000
489305,7.512240886688232,68.36747741699219,-395.0,-45.0,-650.204833984375,-5.199459075927734,0,30,0,40000
489315,5.934066295623779,68.37572479248047,-394.0,-78.0,-650.2543334960938,4.072723388671875,0,30,0,40000
489325,4.886907577514648,68.422607421875,-297.0,145.0,-650.53564453125,10.196319580078125,0,30,0,40000
489335,3.26655912399292,68.58102416992188,-329.0,153.0,-651.4861450195312,19.80124282836914,0,30,0,40000
489345,2.1655588150024414,68.6376953125,-288.0,53.0,-651.826171875,26.32906150817871,0,30,0,40000
489355,0.5165099501609802,68.6649169921875,-249.0,49.0,-651.989501953125,36.18842315673828,0,30,0,40000
489365,-0.6028189659118652,68.73169708251953,-193.0,211.0,-652.3901977539062,42.909019470214844,0,30,0,40000
489375,-2.2739288806915283,68.85486602783203,-253.0,170.0,-653.1292114257812,52.98368835449219,0,30,0,40000
489385,-3.3798179626464844,68.86447143554688,-221.0,16.0,-653.1868286132812,59.70714569091797,0,30,0,40000
489395,-5.0397210121154785,68.83946228027344,-210.0,70.0,-653.0367431640625,69.798095703125,0,30,0,40000
489405,-6.117978096008301,68.85122680664062,-184.0,152.0,-653.1073608398438,76.43830108642578,0,30,0,40000
489415,-7.67735481262207,68.84306335449219,-210.0,40.0,-653.058349609375,86.00637817382812,0,30,0,40000
489425,-8.638437271118164,68.77290344238281,-193.0,-42.0,-652.637451171875,92.02052307128906,0,30,0,40000
489435,-10.00598430633545,68.69613647460938,-164.0,33.0,-652.1768188476562,100.5097885131836,0,30,0,40000
489445,-10.897608757019043,68.65141296386719,-102.0,30.0,-651.908447265625,106.17581939697266,0,30,0,40000
489455,-12.117223739624023,68.5450210571289,-151.0,-85.0,-651.2701416015625,113.84266662597656,0,30,0,40000
489465,-12.82651424407959,68.44763946533203,-137.0,-59.0,-650.6858520507812,118.474853515625,0,30,0,40000
489475,-13.861886024475098,68.37089538574219,-103.0,34.0,-650.225341796875,125.09095764160156,0,30,0,40000
489485,-14.501148223876953,68.31481170654297,-37.0,-26.0,-649.8888549804688,129.35411071777344,0,30,0,40000
489495,-15.301276206970215,68.18923950195312,-101.0,-78.0,-649.1354370117188,134.60446166992188,0,30,0,40000
489505,-15.76721477508545,68.11511993408203,-73.0,0.0,-648.6907348632812,137.86749267578125,0,30,0,40000
489515,-16.433349609375,68.0366439819336,-28.0,-26.0,-648.2198486328125,142.3499298095703,0,30,0,40000
489525,-16.766597747802734,67.96642303466797,37.0,-45.0,-647.7985229492188,144.8486785888672,0,30,0,40000
489535,-17.217941284179688,67.91049194335938,28.0,38.0,-647.4629516601562,148.0682373046875,0,30,0,40000
489545,-17.479219436645508,67.89008331298828,53.0,3.0,-647.3405151367188,150.15708923339844,0,30,0,40000
489555,-17.6721248626709,67.80216217041016,40.0,-125.0,-646.81298828125,151.8427276611328,0,30,0,40000
489565,-17.747509002685547,67.74069213867188,103.0,-37.0,-646.4441528320312,152.82656860351562,0,30,0,40000
489575,-17.823829650878906,67.730712890625,142.0,54.0,-646.38427734375,153.81837463378906,0,30,0,40000
489585,-17.827882766723633,67.72290802001953,140.0,-49.0,-646.3374633789062,154.37770080566406,0,30,0,40000
489595,-17.674463272094727,67.6489028930664,155.0,-120.0,-645.8934326171875,153.98928833007812,0,30,0,40000
489605,-17.525365829467773,67.62774658203125,191.0,4.0,-645.7664794921875,153.62216186523438,0,30,0,40000
