timestamp,stabilizer.roll,stabilizer.pitch,stateEstimateZ.rateRoll,stateEstimateZ.ratePitch,controller.pitchRate,controller.rollRate,roll,pitch,yawdot,thrust
1157544,-38.492408752441406,64.24344635009766,0.0,7.0,-387.38800048828125,232.10922241210938,0,0,0,40000
1157554,-38.515289306640625,64.2418441772461,-8.0,-19.0,-389.3056640625,233.40171813964844,0,0,0,40000
1157564,-38.54120635986328,64.20712280273438,12.0,-23.0,-391.0240173339844,234.71310424804688,0,0,0,40000
1157574,-38.52936935424805,64.1581802368164,-48.0,-96.0,-392.65576171875,235.7981414794922,0,0,0,40000
1157584,-38.46294403076172,64.03297424316406,-50.0,-266.0,-393.82733154296875,236.5546875,0,0,0,40000
1157594,-38.25565719604492,63.84624099731445,57.0,-564.0,-394.6247253417969,236.4612579345703,0,0,0,40000
1157604,-37.68015670776367,63.4279899597168,35.0,-919.0,-394.023681640625,234.14663696289062,0,0,0,40000
1157614,-37.01787567138672,62.97067642211914,12.0,-1463.0,-393.17462158203125,231.29177856445312,0,0,0,40000
1157624,-35.617332458496094,62.02268600463867,56.0,-2032.0,-389.35968017578125,223.975341796875,0,0,0,40000
1157634,-34.416500091552734,61.18387985229492,82.0,-2562.0,-386.17266845703125,217.81752014160156,0,0,0,40000
1157644,-32.29380416870117,59.6281623840332,137.0,-3082.0,-378.6468811035156,206.0765380859375,0,0,0,40000
1157654,-30.72997283935547,58.42586135864258,196.0,-3450.0,-373.20050048828125,197.63429260253906,0,0,0,40000
1157664,-28.314189910888672,56.398868560791016,312.0,-3703.0,-362.7554016113281,184.0179901123047,0,0,0,40000
1157674,-26.712247848510742,54.949737548828125,403.0,-3938.0,-355.7265625,175.22686767578125,0,0,0,40000
1157684,-24.41179084777832,52.63624572753906,419.0,-4045.0,-343.45269775390625,162.18380737304688,0,0,0,40000
1157694,-22.917041778564453,51.04664993286133,493.0,-4134.0,-335.4657287597656,153.92062377929688,0,0,0,40000
1157704,-20.74178123474121,48.57386016845703,645.0,-4193.0,-322.1160888671875,141.51727294921875,0,0,0,40000
1157714,-19.328044891357422,46.902801513671875,819.0,-4262.0,-313.51690673828125,133.6316680908203,0,0,0,40000
1157724,-17.263057708740234,44.35315704345703,896.0,-4225.0,-299.58026123046875,121.78421020507812,0,0,0,40000
1157734,-15.890058517456055,42.6375732421875,1016.0,-4153.0,-290.58642578125,114.03934478759766,0,0,0,40000
1157744,-13.850926399230957,40.11927795410156,1311.0,-4033.0,-276.71038818359375,102.24467468261719,0,0,0,40000
1157754,-12.502779006958008,38.460113525390625,1501.0,-3987.0,-267.9291076660156,94.54718017578125,0,0,0,40000
1157764,-10.439352035522461,35.99562454223633,1645.0,-3840.0,-254.25135803222656,82.50457000732422,0,0,0,40000
1157774,-9.054409980773926,34.378684997558594,1800.0,-3756.0,-245.6004638671875,74.48319244384766,0,0,0,40000
1157784,-6.948729038238525,31.977558135986328,2037.0,-3687.0,-232.18185424804688,62.08287811279297,0,0,0,40000
1157794,-5.523104667663574,30.401535034179688,2196.0,-3579.0,-223.6566162109375,53.711997985839844,0,0,0,40000
1157804,-3.365058660507202,28.0749454498291,2333.0,-3455.0,-210.5670623779297,40.89064025878906,0,0,0,40000
1157814,-1.924338459968567,26.569250106811523,2437.0,-3297.0,-202.34796142578125,32.32140350341797,0,0,0,40000
1157824,0.22908493876457214,24.374536514282227,2575.0,-3147.0,-189.93710327148438,19.41983413696289,0,0,0,40000
1157834,1.6335605382919312,22.943132400512695,2621.0,-3047.0,-182.0540771484375,10.960752487182617,0,0,0,40000
1157844,3.7117018699645996,20.881656646728516,2580.0,-2915.0,-170.33621215820312,-1.5947914123535156,0,0,0,40000
1157854,5.046689987182617,19.546215057373047,2584.0,-2765.0,-162.92587280273438,-9.74020004272461,0,0,0,40000
1157864,6.955342769622803,17.635456085205078,2505.0,-2639.0,-152.01309204101562,-21.37820053100586,0,0,0,40000
1157874,8.142409324645996,16.419357299804688,2379.0,-2520.0,-145.22360229492188,-28.730743408203125,0,0,0,40000
1157884,9.7874174118042,14.692543983459473,2212.0,-2354.0,-135.3238525390625,-38.875099182128906,0,0,0,40000
1157894,10.781858444213867,13.606287956237793,2040.0,-2259.0,-129.2274627685547,-45.15337371826172,0,0,0,40000
1157904,12.114850997924805,12.046905517578125,1811.0,-2170.0,-120.25103759765625,-53.49928665161133,0,0,0,40000
1157914,12.87578010559082,11.045659065246582,1553.0,-2117.0,-114.5869140625,-58.442161560058594,0,0,0,40000
1157924,13.815671920776367,9.62656021118164,1254.0,-2015.0,-106.37792205810547,-64.48533630371094,0,0,0,40000
1157934,14.288263320922852,8.713959693908691,933.0,-2019.0,-101.17466735839844,-67.74408721923828,0,0,0,40000
1157944,14.776792526245117,7.381743907928467,584.0,-1934.0,-93.41862487792969,-71.11347961425781,0,0,0,40000
1157954,14.951019287109375,6.534257411956787,272.0,-1863.0,-88.53986358642578,-72.60546875,0,0,0,40000
1157964,14.992768287658691,5.3166961669921875,-68.0,-1799.0,-81.40846252441406,-73.30597686767578,0,0,0,40000
1157974,14.867091178894043,4.523416042327881,-366.0,-1764.0,-76.7939682006836,-72.99958801269531,0,0,0,40000
1157984,14.475987434387207,3.3685426712036133,-685.0,-1727.0,-69.97960662841797,-71.09263610839844,0,0,0,40000
1157994,14.076839447021484,2.6334853172302246,-979.0,-1629.0,-65.65699768066406,-69.12500762939453,0,0,0,40000
1158004,13.298734664916992,1.5888164043426514,-1228.0,-1530.0,-59.448974609375,-64.86519622802734,0,0,0,40000
1158014,12.675247192382812,0.9135104417800903,-1458.0,-1519.0,-55.432655334472656,-61.51213836669922,0,0,0,40000
1158024,11.619772911071777,-0.10098747164011002,-1620.0,-1507.0,-49.35480499267578,-55.54087448120117,0,0,0,40000
1158034,10.847209930419922,-0.7598902583122253,-1773.0,-1423.0,-45.38646697998047,-51.24024963378906,0,0,0,40000
1158044,9.586620330810547,-1.6918381452560425,-1895.0,-1307.0,-39.75497817993164,-43.97971725463867,0,0,0,40000
1158054,8.704859733581543,-2.2713887691497803,-1937.0,-1218.0,-36.21642303466797,-38.960899353027344,0,0,0,40000
1158064,7.3650898933410645,-3.1023924350738525,-1962.0,-1204.0,-31.147279739379883,-31.159351348876953,0,0,0,40000
1158074,6.46615743637085,-3.645061492919922,-1943.0,-1129.0,-27.788375854492188,-25.970516204833984,0,0,0,40000
1158084,5.140557289123535,-4.401043891906738,-1897.0,-1056.0,-23.12933921813965,-18.18694496154785,0,0,0,40000
1158094,4.300459861755371,-4.856692314147949,-1797.0,-938.0,-20.255125045776367,-13.285419464111328,0,0,0,40000
1158104,3.0933618545532227,-5.490766525268555,-1678.0,-900.0,-16.293514251708984,-6.149883270263672,0,0,0,40000
1158114,2.3517024517059326,-5.904874324798584,-1533.0,-877.0,-13.636665344238281,-1.7793235778808594,0,0,0,40000
1158124,1.3426295518875122,-6.4991888999938965,-1369.0,-823.0,-9.8828125,4.223031997680664,0,0,0,40000
1158134,0.7576775550842285,-6.857115268707275,-1173.0,-729.0,-7.533775329589844,7.703099250793457,0,0,0,40000
1158144,0.015121945179998875,-7.330346584320068,-966.0,-665.0,-4.4799957275390625,12.149608612060547,0,0,0,40000
1158154,-0.3902168869972229,-7.631269931793213,-775.0,-648.0,-2.449127197265625,14.588598251342773,0,0,0,40000
1158164,-0.8523411750793457,-8.05429744720459,-589.0,-601.0,0.32570648193359375,17.381755828857422,0,0,0,40000
1158174,-1.0585254430770874,-8.308545112609863,-367.0,-530.0,2.097431182861328,18.64826011657715,0,0,0,40000
1158184,-1.2203463315963745,-8.651483535766602,-134.0,-479.0,4.410625457763672,19.654346466064453,0,0,0,40000
1158194,-1.2275846004486084,-8.867588996887207,83.0,-438.0,5.970714569091797,19.734663009643555,0,0,0,40000
1158204,-1.0985571146011353,-9.160863876342773,286.0,-415.0,8.001716613769531,18.995447158813477,0,0,0,40000
1158214,-0.9297696948051453,-9.332801818847656,434.0,-382.0,9.311286926269531,18.01274871826172,0,0,0,40000
1158224,-0.5591034293174744,-9.56088924407959,565.0,-324.0,10.9639892578125,15.810264587402344,0,0,0,40000
1158234,-0.24315811693668365,-9.701044082641602,711.0,-298.0,12.094291687011719,13.92575740814209,0,0,0,40000
1158244,0.3047255873680115,-9.893131256103516,824.0,-289.0,13.541305541992188,10.636148452758789,0,0,0,40000
1158254,0.7147988080978394,-9.999139785766602,890.0,-185.0,14.476119995117188,8.159222602844238,0,0,0,40000
1158264,1.3726632595062256,-10.119308471679688,946.0,-174.0,15.499290466308594,4.178834915161133,0,0,0,40000
1158274,1.8435695171356201,-10.20860481262207,998.0,-177.0,16.34024429321289,1.3037834167480469,0,0,0,40000
1158284,2.560391664505005,-10.305157661437988,1003.0,-114.0,17.22772979736328,-3.0654077529907227,0,0,0,40000
1158294,3.029599905014038,-10.347661972045898,974.0,-106.0,17.79266357421875,-5.965936660766602,0,0,0,40000
1158304,3.71136736869812,-10.421886444091797,942.0,-132.0,18.549747467041016,-10.159805297851562,0,0,0,40000
1158314,4.138936996459961,-10.464756965637207,884.0,-78.0,19.120437622070312,-12.844289779663086,0,0,0,40000
1158324,4.727527618408203,-10.488842964172363,795.0,-41.0,19.579421997070312,-16.510822296142578,0,0,0,40000
1158334,5.0748515129089355,-10.497541427612305,708.0,-21.0,19.946449279785156,-18.742862701416016,0,0,0,40000
1158344,5.5324811935424805,-10.514050483703613,600.0,-27.0,20.36074447631836,-21.649377822875977,0,0,0,40000
1158354,5.784417152404785,-10.51612663269043,467.0,19.0,20.688705444335938,-23.331579208374023,0,0,0,40000
1158364,6.078409194946289,-10.47800064086914,372.0,41.0,20.774730682373047,-25.274627685546875,0,0,0,40000
1158374,6.222806453704834,-10.454620361328125,267.0,26.0,20.948345184326172,-26.326021194458008,0,0,0,40000
1158384,6.346088886260986,-10.419025421142578,129.0,57.0,21.047809600830078,-27.25495719909668,0,0,0,40000
1158394,6.381139755249023,-10.3884916305542,-4.0,69.0,21.176651000976562,-27.6563720703125,0,0,0,40000
1158404,6.319684028625488,-10.36207389831543,-121.0,30.0,21.329212188720703,-27.478225708007812,0,0,0,40000
1158414,6.228287696838379,-10.333274841308594,-225.0,86.0,21.466785430908203,-27.117828369140625,0,0,0,40000
1158424,6.019820213317871,-10.277679443359375,-326.0,75.0,21.442150115966797,-26.05034828186035,0,0,0,40000
1158434,5.831060409545898,-10.264163970947266,-428.0,36.0,21.66912841796875,-25.095056533813477,0,0,0,40000
1158444,5.488747596740723,-10.230899810791016,-504.0,69.0,21.776954650878906,-23.210124969482422,0,0,0,40000
1158454,5.228126525878906,-10.18870735168457,-562.0,79.0,21.829952239990234,-21.806396484375,0,0,0,40000
1158464,4.806955814361572,-10.138653755187988,-611.0,71.0,21.83432388305664,-19.42876434326172,0,0,0,40000
1158474,4.506791114807129,-10.117737770080566,-650.0,81.0,22.012611389160156,-17.76661491394043,0,0,0,40000
1158484,4.062143325805664,-10.060802459716797,-630.0,111.0,21.973541259765625,-15.225892066955566,0,0,0,40000
1158494,3.7482903003692627,-10.023193359375,-667.0,86.0,22.049030303955078,-13.459024429321289,0,0,0,40000
1158504,3.281508445739746,-9.971935272216797,-661.0,85.0,22.041263580322266,-10.762426376342773,0,0,0,40000
1158514,2.9791951179504395,-9.933226585388184,-635.0,105.0,22.10747528076172,-9.04153823852539,0,0,0,40000
1158524,2.5452358722686768,-9.85335636138916,-587.0,128.0,21.92489242553711,-6.519198417663574,0,0,0,40000
1158534,2.2741153240203857,-9.80380916595459,-558.0,92.0,21.92226791381836,-4.963926315307617,0,0,0,40000
1158544,1.9041621685028076,-9.749529838562012,-493.0,95.0,21.889755249023438,-2.805630683898926,0,0,0,40000
1158554,1.6829555034637451,-9.714483261108398,-447.0,74.0,21.971324920654297,-1.5314865112304688,0,0,0,40000
1158564,1.3922888040542603,-9.652231216430664,-367.0,110.0,21.888206481933594,0.16746997833251953,0,0,0,40000
1158574,1.2430566549301147,-9.5985746383667,-303.0,117.0,21.85485076904297,1.0238065719604492,0,0,0,40000
1158584,1.0581053495407104,-9.52004337310791,-233.0,114.0,21.670196533203125,2.099684715270996,0,0,0,40000
1158594,0.966028094291687,-9.460025787353516,-142.0,147.0,21.594642639160156,2.622136116027832,0,0,0,40000
1158604,0.8894970417022705,-9.361310958862305,-72.0,150.0,21.284400939941406,3.053894519805908,0,0,0,40000
1158614,0.8753393888473511,-9.284651756286621,-7.0,155.0,21.103897094726562,3.1124706268310547,0,0,0,40000
1158624,0.8888646960258484,-9.203912734985352,45.0,102.0,20.896438598632812,3.0049753189086914,0,0,0,40000
1158634,0.9237802028656006,-9.156901359558105,103.0,113.0,20.88965606689453,2.768232822418213,0,0,0,40000
1158644,1.0254651308059692,-9.068136215209961,173.0,134.0,20.630229949951172,2.1287012100219727,0,0,0,40000
1158654,1.1182985305786133,-8.991740226745605,222.0,174.0,20.442520141601562,1.539290428161621,0,0,0,40000
1158664,1.2753788232803345,-8.871825218200684,239.0,161.0,19.990615844726562,0.5604896545410156,0,0,0,40000
1158674,1.4051223993301392,-8.806084632873535,281.0,144.0,19.861122131347656,-0.2585630416870117,0,0,0,40000
1158684,1.6252614259719849,-8.706422805786133,322.0,153.0,19.525543212890625,-1.6254653930664062,0,0,0,40000
1158694,1.7725073099136353,-8.639604568481445,331.0,170.0,19.384658813476562,-2.5603275299072266,0,0,0,40000
1158704,2.0081684589385986,-8.529812812805176,339.0,149.0,18.983062744140625,-4.031721115112305,0,0,0,40000
1158714,2.158010721206665,-8.46727180480957,318.0,154.0,18.86258316040039,-4.993727207183838,0,0,0,40000
1158724,2.379636526107788,-8.360705375671387,314.0,153.0,18.47531509399414,-6.3922271728515625,0,0,0,40000
1158734,2.516619920730591,-8.28766918182373,287.0,150.0,18.28659439086914,-7.2879815101623535,0,0,0,40000
1158744,2.703228235244751,-8.184355735778809,251.0,116.0,17.91336441040039,-8.486583709716797,0,0,0,40000
1158754,2.80987286567688,-8.12199592590332,228.0,154.0,17.78362274169922,-9.209451675415039,0,0,0,40000
1158764,2.9413185119628906,-7.99517822265625,167.0,191.0,17.264144897460938,-10.084922790527344,0,0,0,40000
1158774,3.0130207538604736,-7.9054083824157715,136.0,191.0,16.963760375976562,-10.604700088500977,0,0,0,40000
1158784,3.086951494216919,-7.797236442565918,77.0,143.0,16.549869537353516,-11.140189170837402,0,0,0,40000
1158794,3.1118106842041016,-7.7268452644348145,49.0,147.0,16.360164642333984,-11.382421493530273,0,0,0,40000
1158804,3.124976634979248,-7.618102550506592,20.0,160.0,15.937583923339844,-11.555042266845703,0,0,0,40000
1158814,3.1107473373413086,-7.533545017242432,-44.0,197.0,15.657241821289062,-11.563207626342773,0,0,0,40000
1158824,3.0692899227142334,-7.408609390258789,-88.0,167.0,15.131326675415039,-11.407160758972168,0,0,0,40000
1158834,3.0266642570495605,-7.347609996795654,-109.0,127.0,14.986461639404297,-11.242725372314453,0,0,0,40000
1158844,2.9342310428619385,-7.261693000793457,-158.0,137.0,14.689884185791016,-10.777368545532227,0,0,0,40000
1158854,2.8568270206451416,-7.195034027099609,-169.0,131.0,14.506549835205078,-10.399600982666016,0,0,0,40000
1158864,2.723935127258301,-7.10010290145874,-201.0,160.0,14.151195526123047,-9.685578346252441,0,0,0,40000
1158874,2.6270902156829834,-7.032761573791504,-222.0,141.0,13.958942413330078,-9.184524536132812,0,0,0,40000
1158884,2.4589462280273438,-6.946383476257324,-251.0,125.0,13.650054931640625,-8.251503944396973,0,0,0,40000
1158894,2.3351144790649414,-6.8852362632751465,-262.0,119.0,13.490467071533203,-7.580061435699463,0,0,0,40000
1158904,2.1534183025360107,-6.804393291473389,-259.0,112.0,13.210456848144531,-6.556620121002197,0,0,0,40000
1158914,2.0333735942840576,-6.756660461425781,-258.0,99.0,13.127342224121094,-5.898795127868652,0,0,0,40000
1158924,1.8633959293365479,-6.692373752593994,-255.0,99.0,12.943117141723633,-4.9369354248046875,0,0,0,40000
1158934,1.7507436275482178,-6.639038562774658,-223.0,139.0,12.822929382324219,-4.3148884773254395,0,0,0,40000
1158944,1.5993990898132324,-6.557860374450684,-216.0,117.0,12.533504486083984,-3.4565696716308594,0,0,0,40000
1158954,1.494205117225647,-6.518123626708984,-200.0,81.0,12.491107940673828,-2.8714566230773926,0,0,0,40000
1158964,1.3746041059494019,-6.458949565887451,-156.0,101.0,12.330581665039062,-2.1964731216430664,0,0,0,40000
1158974,1.305331826210022,-6.402287483215332,-156.0,136.0,12.183391571044922,-1.8208446502685547,0,0,0,40000
1158984,1.2225817441940308,-6.301689624786377,-109.0,143.0,11.770015716552734,-1.3619537353515625,0,0,0,40000
1158994,1.180355429649353,-6.246941089630127,-53.0,101.0,11.629573822021484,-1.1444416046142578,0,0,0,40000
1159004,1.1456489562988281,-6.183953762054443,-27.0,84.0,11.437873840332031,-0.9708843231201172,0,0,0,40000
1159014,1.1355700492858887,-6.135682106018066,0.0,118.0,11.332927703857422,-0.9445829391479492,0,0,0,40000
1159024,1.1418074369430542,-6.091212272644043,33.0,88.0,11.212543487548828,-1.0093574523925781,0,0,0,40000
1159034,1.1781723499298096,-6.015289306640625,47.0,117.0,10.938451766967773,-1.2624220848083496,0,0,0,40000
1159044,1.1998997926712036,-5.967704772949219,72.0,93.0,10.832523345947266,-1.4284982681274414,0,0,0,40000
1159054,1.2539646625518799,-5.894321441650391,93.0,97.0,10.569940567016602,-1.7898297309875488,0,0,0,40000
1159064,1.289282202720642,-5.860628128051758,87.0,76.0,10.543975830078125,-2.040024757385254,0,0,0,40000
1159074,1.358931064605713,-5.800004005432129,103.0,121.0,10.355073928833008,-2.497816562652588,0,0,0,40000
1159084,1.4147816896438599,-5.7384867668151855,122.0,128.0,10.158878326416016,-2.8746795654296875,0,0,0,40000
1159094,1.5054216384887695,-5.666792869567871,120.0,74.0,9.899444580078125,-3.462580680847168,0,0,0,40000
1159104,1.5545083284378052,-5.64133882522583,122.0,43.0,9.916234970092773,-3.803152084350586,0,0,0,40000
1159114,1.6260632276535034,-5.603231430053711,104.0,69.0,9.856185913085938,-4.280462265014648,0,0,0,40000
1159124,1.6745585203170776,-5.552329063415527,97.0,128.0,9.717964172363281,-4.621115684509277,0,0,0,40000
1159134,1.7434526681900024,-5.460159778594971,100.0,141.0,9.329879760742188,-5.085938453674316,0,0,0,40000
1159144,1.7804597616195679,-5.402450084686279,74.0,120.0,9.146369934082031,-5.360970497131348,0,0,0,40000
1159154,1.8336199522018433,-5.3238091468811035,56.0,113.0,8.835155487060547,-5.734324932098389,0,0,0,40000
1159164,1.8599908351898193,-5.280705451965332,72.0,103.0,8.735452651977539,-5.948010444641113,0,0,0,40000
1159174,1.9064186811447144,-5.194849967956543,46.0,146.0,8.377283096313477,-6.283270359039307,0,0,0,40000
1159184,1.9221159219741821,-5.1353373527526855,12.0,105.0,8.174957275390625,-6.434932231903076,0,0,0,40000
1159194,1.9240312576293945,-5.073234558105469,3.0,81.0,7.955238342285156,-6.504145622253418,0,0,0,40000
1159204,1.923850417137146,-5.0235066413879395,-1.0,111.0,7.808221817016602,-6.560781002044678,0,0,0,40000
1159214,1.9154987335205078,-4.949967861175537,-27.0,95.0,7.516319274902344,-6.56826114654541,0,0,0,40000
1159224,1.9000049829483032,-4.910679817199707,-48.0,72.0,7.428354263305664,-6.532487392425537,0,0,0,40000
1159234,1.8622251749038696,-4.851360321044922,-49.0,92.0,7.218757629394531,-6.362181186676025,0,0,0,40000
1159244,1.824511170387268,-4.803786754608154,-86.0,121.0,7.078022003173828,-6.191127300262451,0,0,0,40000
1159254,1.765559434890747,-4.727614402770996,-110.0,78.0,6.763662338256836,-5.8911566734313965,0,0,0,40000
1159264,1.7131140232086182,-4.6990766525268555,-101.0,33.0,6.733692169189453,-5.628474235534668,0,0,0,40000
1159274,1.638056755065918,-4.692929267883301,-88.0,13.0,6.837650299072266,-5.228091239929199,0,0,0,40000
1159284,1.5806152820587158,-4.679785251617432,-99.0,78.0,6.899389266967773,-4.931552886962891,0,0,0,40000
1159294,1.4946324825286865,-4.619462490081787,-93.0,104.0,6.676824569702148,-4.461569786071777,0,0,0,40000
1159304,1.4463410377502441,-4.5811052322387695,-129.0,85.0,6.584598541259766,-4.215845108032227,0,0,0,40000
1159314,1.3790135383605957,-4.549856185913086,-120.0,13.0,6.533823013305664,-3.854065418243408,0,0,0,40000
1159324,1.3325045108795166,-4.542899131774902,-84.0,41.0,6.628473281860352,-3.615501880645752,0,0,0,40000
1159334,1.2655490636825562,-4.502261638641357,-92.0,66.0,6.520252227783203,-3.2525558471679688,0,0,0,40000
1159344,1.2142174243927002,-4.467867851257324,-85.0,63.0,6.448331832885742,-2.981600284576416,0,0,0,40000
1159354,1.1588284969329834,-4.432109832763672,-94.0,8.0,6.367023468017578,-2.6847667694091797,0,0,0,40000
1159364,1.1222292184829712,-4.4295172691345215,-91.0,22.0,6.484397888183594,-2.4992804527282715,0,0,0,40000
1159374,1.0706074237823486,-4.4062113761901855,-72.0,56.0,6.477104187011719,-2.2222280502319336,0,0,0,40000
1159384,1.0379432439804077,-4.377948760986328,-65.0,59.0,6.439229965209961,-2.057776927947998,0,0,0,40000
1159394,0.9916957020759583,-4.338741302490234,-51.0,58.0,6.33465576171875,-1.8105888366699219,0,0,0,40000
1159404,0.9745951890945435,-4.305200576782227,-33.0,65.0,6.262968063354492,-1.737424373626709,0,0,0,40000
1159414,0.9512874484062195,-4.259482383728027,-34.0,74.0,6.117010116577148,-1.6264076232910156,0,0,0,40000
1159424,0.9473543167114258,-4.2214741706848145,-3.0,88.0,6.016077041625977,-1.6312532424926758,0,0,0,40000
1159434,0.9500897526741028,-4.161083698272705,13.0,57.0,5.779214859008789,-1.676121711730957,0,0,0,40000
1159444,0.9521761536598206,-4.139706134796143,12.0,57.0,5.775363922119141,-1.7171814441680908,0,0,0,40000
1159454,0.9616767168045044,-4.095366954803467,13.0,80.0,5.632776260375977,-1.8029382228851318,0,0,0,40000
1159464,0.9674932956695557,-4.076058387756348,28.0,57.0,5.639432907104492,-1.8667895793914795,0,0,0,40000
1159474,0.9925463199615479,-4.035312175750732,27.0,49.0,5.5164642333984375,-2.046598434448242,0,0,0,40000
1159484,1.0130259990692139,-4.005448818206787,59.0,63.0,5.457836151123047,-2.19958233833313,0,0,0,40000
1159494,1.050675868988037,-3.9528262615203857,56.0,80.0,5.261346817016602,-2.4565210342407227,0,0,0,40000
1159504,1.0731103420257568,-3.9251489639282227,49.0,43.0,5.213335037231445,-2.623063802719116,0,0,0,40000
1159514,1.1104607582092285,-3.8939571380615234,60.0,45.0,5.143367767333984,-2.879971504211426,0,0,0,40000
1159524,1.1323063373565674,-3.872253894805908,76.0,37.0,5.129585266113281,-3.044767141342163,0,0,0,40000
1159534,1.1692883968353271,-3.8365743160247803,51.0,60.0,5.031110763549805,-3.3013367652893066,0,0,0,40000
1159544,1.1978775262832642,-3.8040831089019775,60.0,60.0,4.950687408447266,-3.5084798336029053,0,0,0,40000
1159554,1.246532917022705,-3.7746381759643555,64.0,34.0,4.8875885009765625,-3.8371987342834473,0,0,0,40000
1159564,1.2798415422439575,-3.7485852241516113,62.0,40.0,4.844043731689453,-4.075040817260742,0,0,0,40000
1159574,1.322610855102539,-3.730769634246826,42.0,7.0,4.849189758300781,-4.37087345123291,0,0,0,40000
1159584,1.3330992460250854,-3.7212655544281006,54.0,28.0,4.903928756713867,-4.473656177520752,0,0,0,40000
1159594,1.3539512157440186,-3.7159409523010254,42.0,1.0,4.983486175537109,-4.6391825675964355,0,0,0,40000
1159604,1.3722307682037354,-3.7050137519836426,38.0,57.0,5.0292510986328125,-4.789821624755859,0,0,0,40000
1159614,1.3930933475494385,-3.655014991760254,25.0,94.0,4.839609146118164,-4.956550598144531,0,0,0,40000
1159624,1.403691053390503,-3.6119930744171143,22.0,62.0,4.690338134765625,-5.062113285064697,0,0,0,40000
1159634,1.4189375638961792,-3.578249216079712,13.0,15.0,4.595510482788086,-5.195956230163574,0,0,0,40000
1159644,1.413649082183838,-3.57403826713562,-23.0,5.0,4.677524566650391,-5.206713676452637,0,0,0,40000
1159654,1.3903672695159912,-3.5507822036743164,-43.0,52.0,4.6448516845703125,-5.10906982421875,0,0,0,40000
1159664,1.3641788959503174,-3.5142109394073486,-32.0,89.0,4.531312942504883,-4.993178367614746,0,0,0,40000
1159674,1.3406226634979248,-3.4827661514282227,-41.0,8.0,4.447305679321289,-4.892321586608887,0,0,0,40000
1159684,1.3215242624282837,-3.4887452125549316,-44.0,-7.0,4.587787628173828,-4.817594528198242,0,0,0,40000
1159694,1.2862508296966553,-3.4450278282165527,-59.0,94.0,4.429618835449219,-4.6449666023254395,0,0,0,40000
1159704,1.2613751888275146,-3.40083646774292,-65.0,77.0,4.2670135498046875,-4.533870220184326,0,0,0,40000
1159714,1.2162123918533325,-3.3451976776123047,-67.0,66.0,4.034189224243164,-4.299929141998291,0,0,0,40000
1159724,1.1871721744537354,-3.325979709625244,-75.0,46.0,4.018874168395996,-4.161663055419922,0,0,0,40000
1159734,1.1343977451324463,-3.319535255432129,-62.0,24.0,4.0797882080078125,-3.879634380340576,0,0,0,40000
1159744,1.1057446002960205,-3.2990243434906006,-79.0,80.0,4.0559844970703125,-3.7412333488464355,0,0,0,40000
1159754,1.0530719757080078,-3.2460696697235107,-60.0,61.0,3.8362159729003906,-3.45733904838562,0,0,0,40000
1159764,1.0278972387313843,-3.222663164138794,-54.0,62.0,3.7927169799804688,-3.3374295234680176,0,0,0,40000
1159774,0.989023745059967,-3.1803276538848877,-79.0,51.0,3.634592056274414,-3.1344032287597656,0,0,0,40000
1159784,0.9569158554077148,-3.149925947189331,-73.0,66.0,3.5470571517944336,-2.9708166122436523,0,0,0,40000
1159794,0.900399386882782,-3.113527774810791,-92.0,14.0,3.422391891479492,-2.6594910621643066,0,0,0,40000
1159804,0.8584586977958679,-3.1033496856689453,-97.0,32.0,3.4545536041259766,-2.434117317199707,0,0,0,40000
1159814,0.7977690100669861,-3.086737632751465,-86.0,28.0,3.447690963745117,-2.094597816467285,0,0,0,40000
1159824,0.7610942721366882,-3.0717194080352783,-71.0,41.0,3.4499378204345703,-1.897808313369751,0,0,0,40000
1159834,0.7094662189483643,-3.048938751220703,-63.0,29.0,3.4050064086914062,-1.609950065612793,0,0,0,40000
1159844,0.6722583174705505,-3.0462849140167236,-83.0,-6.0,3.480496406555176,-1.4073443412780762,0,0,0,40000
1159854,0.6238301992416382,-3.016754150390625,-69.0,62.0,3.3943843841552734,-1.1360507011413574,0,0,0,40000
1159864,0.6036227941513062,-2.9784579277038574,-52.0,77.0,3.2544326782226562,-1.0331361293792725,0,0,0,40000
1159874,0.5635827779769897,-2.95439076423645,-50.0,15.0,3.1988115310668945,-0.8102579116821289,0,0,0,40000
1159884,0.5368673205375671,-2.9511258602142334,-42.0,35.0,3.2677955627441406,-0.6663994789123535,0,0,0,40000
1159894,0.5077022314071655,-2.9196910858154297,-32.0,58.0,3.1671981811523438,-0.5069582462310791,0,0,0,40000
1159904,0.5096448063850403,-2.8912532329559326,-9.0,85.0,3.0836715698242188,-0.533905029296875,0,0,0,40000
1159914,0.4973764419555664,-2.863706588745117,-25.0,6.0,3.004487991333008,-0.47538065910339355,0,0,0,40000
1159924,0.48566028475761414,-2.865734815597534,-23.0,-2.0,3.1026058197021484,-0.4198033809661865,0,0,0,40000
1159934,0.4782502353191376,-2.845562696456909,-6.0,35.0,3.0672855377197266,-0.38976383209228516,0,0,0,40000
1159944,0.4727267026901245,-2.82072114944458,0.0,56.0,3.0031566619873047,-0.3708343505859375,0,0,0,40000
1159954,0.4765666723251343,-2.7786571979522705,2.0,65.0,2.8346385955810547,-0.4081432819366455,0,0,0,40000
1159964,0.4774251878261566,-2.754563093185425,-14.0,33.0,2.772970199584961,-0.4276313781738281,0,0,0,40000
1159974,0.4723401367664337,-2.7513816356658936,-6.0,16.0,2.8365135192871094,-0.4113321304321289,0,0,0,40000
1159984,0.47027137875556946,-2.7360167503356934,5.0,26.0,2.8265838623046875,-0.4130439758300781,0,0,0,40000
1159994,0.46692126989364624,-2.7021243572235107,-17.0,56.0,2.704774856567383,-0.40703606605529785,0,0,0,40000
1160004,0.4655454456806183,-2.678006887435913,-20.0,37.0,2.6406850814819336,-0.41277241706848145,0,0,0,40000
1160014,0.448216050863266,-2.6936004161834717,-29.0,-45.0,2.814692497253418,-0.32247114181518555,0,0,0,40000
1160024,0.4384291470050812,-2.6925339698791504,-18.0,39.0,2.8891305923461914,-0.2770349979400635,0,0,0,40000
1160034,0.40804144740104675,-2.64357328414917,-28.0,71.0,2.6752424240112305,-0.10731315612792969,0,0,0,40000
1160044,0.3886183500289917,-2.62934947013855,-37.0,18.0,2.668914794921875,-0.0026824474334716797,0,0,0,40000
1160054,0.36210528016090393,-2.6136419773101807,-51.0,36.0,2.653348922729492,0.14514541625976562,0,0,0,40000
1160064,0.34258365631103516,-2.5846152305603027,-32.0,78.0,2.557119369506836,0.251786470413208,0,0,0,40000
1160074,0.3267998695373535,-2.5517184734344482,-26.0,18.0,2.436534881591797,0.3364877700805664,0,0,0,40000
1160084,0.31064343452453613,-2.5641279220581055,-38.0,-31.0,2.5877552032470703,0.4239020347595215,0,0,0,40000
1160094,0.2877090275287628,-2.581345796585083,-17.0,-17.0,2.7683658599853516,0.5526711940765381,0,0,0,40000
1160104,0.2714955508708954,-2.5679032802581787,-12.0,82.0,2.7649335861206055,0.641615629196167,0,0,0,40000
1160114,0.2598157227039337,-2.5113308429718018,-32.0,79.0,2.5014877319335938,0.7036435604095459,0,0,0,40000
1160124,0.2394036203622818,-2.4943888187408447,-51.0,18.0,2.4748640060424805,0.8186789751052856,0,0,0,40000
1160134,0.21911124885082245,-2.496487617492676,-21.0,11.0,2.5623931884765625,0.933711051940918,0,0,0,40000
1160144,0.2042338103055954,-2.4526078701019287,-13.0,125.0,2.3732681274414062,1.0166735649108887,0,0,0,40000
1160154,0.18704402446746826,-2.381056785583496,-27.0,88.0,2.016195297241211,1.1139671802520752,0,0,0,40000
1160164,0.17435622215270996,-2.360269069671631,-35.0,16.0,1.9624929428100586,1.1846787929534912,0,0,0,40000
1160174,0.14466479420661926,-2.3542933464050293,-54.0,13.0,1.9973478317260742,1.3580949306488037,0,0,0,40000
1160184,0.13301622867584229,-2.3181252479553223,-24.0,104.0,1.8503608703613281,1.423886775970459,0,0,0,40000
1160194,0.09964407980442047,-2.2551193237304688,-29.0,100.0,1.540761947631836,1.62075936794281,0,0,0,40000
1160204,0.08460943400859833,-2.2145817279815674,-38.0,79.0,1.3644351959228516,1.7082505226135254,0,0,0,40000
1160214,0.06613454967737198,-2.168489456176758,-29.0,78.0,1.1535396575927734,1.8169010877609253,0,0,0,40000
1160224,0.053590916097164154,-2.1254942417144775,-12.0,70.0,0.9598503112792969,1.8904305696487427,0,0,0,40000
1160234,0.044120341539382935,-2.077514886856079,-10.0,57.0,0.7348003387451172,1.9458365440368652,0,0,0,40000
1160244,0.03567735105752945,-2.0682148933410645,0.0,3.0,0.741124153137207,1.9953086376190186,0,0,0,40000
1160254,0.03965597227215767,-2.0552711486816406,8.0,42.0,0.7253484725952148,1.9703173637390137,0,0,0,40000
1160264,0.042703449726104736,-2.0205307006835938,24.0,95.0,0.5779705047607422,1.9508153200149536,0,0,0,40000
1160274,0.04767933487892151,-1.97039794921875,6.0,30.0,0.33667469024658203,1.9195845127105713,0,0,0,40000
1160284,0.04821202903985977,-1.9673455953598022,22.0,-16.0,0.37738513946533203,1.9149593114852905,0,0,0,40000
1160294,0.05131835117936134,-1.9646750688552856,-5.0,17.0,0.42041587829589844,1.8947466611862183,0,0,0,40000
1160304,0.05151810497045517,-1.9514579772949219,20.0,10.0,0.39978981018066406,1.8920172452926636,0,0,0,40000
1160314,0.06251092255115509,-1.9397785663604736,11.0,26.0,0.38804054260253906,1.8243091106414795,0,0,0,40000
1160324,0.07244834303855896,-1.925126075744629,12.0,21.0,0.3580312728881836,1.7626385688781738,0,0,0,40000
1160334,0.07983937114477158,-1.9232189655303955,16.0,-2.0,0.4042062759399414,1.7159723043441772,0,0,0,40000
1160344,0.08329681307077408,-1.9206548929214478,36.0,0.0,0.44649219512939453,1.6927988529205322,0,0,0,40000
1160354,0.09886502474546432,-1.90058434009552,20.0,21.0,0.38335323333740234,1.5966355800628662,0,0,0,40000
1160364,0.10993782430887222,-1.8983484506607056,26.0,8.0,0.42691707611083984,1.5270204544067383,0,0,0,40000
1160374,0.11559057235717773,-1.9146933555603027,0.0,-44.0,0.5821151733398438,1.4896275997161865,0,0,0,40000
1160384,0.12345316261053085,-1.9181697368621826,11.0,16.0,0.6605138778686523,1.4388459920883179,0,0,0,40000
1160394,0.13015101850032806,-1.901065468788147,26.0,36.0,0.6151084899902344,1.394917368888855,0,0,0,40000
1160404,0.14040620625019073,-1.897441029548645,42.0,15.0,0.6503200531005859,1.3293170928955078,0,0,0,40000
1160414,0.17181187868118286,-1.8985823392868042,50.0,-7.0,0.7140417098999023,1.136102318763733,0,0,0,40000
1160424,0.18156959116458893,-1.902522325515747,50.0,3.0,0.79473876953125,1.0722318887710571,0,0,0,40000
1160434,0.21223774552345276,-1.8782709836959839,31.0,41.0,0.7059478759765625,0.8821444511413574,0,0,0,40000
1160444,0.22944238781929016,-1.8568707704544067,9.0,22.0,0.6334800720214844,0.7721946239471436,0,0,0,40000
1160454,0.2510700523853302,-1.8485337495803833,34.0,14.0,0.6390256881713867,0.6352138519287109,0,0,0,40000
1160464,0.2664605379104614,-1.8472304344177246,38.0,4.0,0.6866235733032227,0.5350744724273682,0,0,0,40000
1160474,0.29558709263801575,-1.8279399871826172,45.0,47.0,0.6259899139404297,0.35185909271240234,0,0,0,40000
1160484,0.32107579708099365,-1.806786060333252,49.0,37.0,0.5535116195678711,0.18960833549499512,0,0,0,40000
1160494,0.34996724128723145,-1.7935893535614014,22.0,34.0,0.5282764434814453,0.006013393402099609,0,0,0,40000
1160504,0.37625783681869507,-1.7619960308074951,46.0,79.0,0.3920011520385742,-0.16269946098327637,0,0,0,40000
1160514,0.4095647633075714,-1.7171345949172974,43.0,36.0,0.17474079132080078,-0.3744499683380127,0,0,0,40000
1160524,0.42722463607788086,-1.7119107246398926,49.0,6.0,0.19478988647460938,-0.4929993152618408,0,0,0,40000
1160534,0.45707517862319946,-1.7123925685882568,50.0,2.0,0.24906063079833984,-0.6854166984558105,0,0,0,40000
1160544,0.46731746196746826,-1.703902244567871,30.0,20.0,0.2493457794189453,-0.760779619216919,0,0,0,40000
1160554,0.4805866777896881,-1.7129842042922974,22.0,-28.0,0.35500049591064453,-0.8546543121337891,0,0,0,40000
1160564,0.48542851209640503,-1.7159333229064941,5.0,11.0,0.4241952896118164,-0.8982143402099609,0,0,0,40000
1160574,0.4868154525756836,-1.719246745109558,-13.0,-29.0,0.49550724029541016,-0.9211139678955078,0,0,0,40000
1160584,0.47960364818573,-1.732093095779419,-32.0,-26.0,0.6244010925292969,-0.8923301696777344,0,0,0,40000
1160594,0.4503742456436157,-1.7369533777236938,-29.0,9.0,0.7056961059570312,-0.7307825088500977,0,0,0,40000
1160604,0.4302486777305603,-1.7117239236831665,-37.0,50.0,0.6059837341308594,-0.6231943368911743,0,0,0,40000
1160614,0.4013817012310028,-1.6703664064407349,-52.0,52.0,0.40839099884033203,-0.46245014667510986,0,0,0,40000
1160624,0.37848129868507385,-1.6570640802383423,-70.0,2.0,0.37841796875,-0.33669614791870117,0,0,0,40000
1160634,0.32724642753601074,-1.6722731590270996,-67.0,-20.0,0.5196304321289062,-0.03971433639526367,0,0,0,40000
1160644,0.2877631187438965,-1.6648645401000977,-66.0,49.0,0.5252752304077148,0.18807828426361084,0,0,0,40000
1160654,0.24123503267765045,-1.6152039766311646,-72.0,64.0,0.2763233184814453,0.45941054821014404,0,0,0,40000
1160664,0.1999569833278656,-1.6070815324783325,-84.0,-16.0,0.2758626937866211,0.7005853652954102,0,0,0,40000
1160674,0.13512858748435974,-1.6334424018859863,-101.0,-55.0,0.48261547088623047,1.0846662521362305,0,0,0,40000
1160684,0.09128022938966751,-1.6467934846878052,-85.0,-17.0,0.6119985580444336,1.34450364112854,0,0,0,40000
1160694,0.021506067365407944,-1.6282867193222046,-87.0,31.0,0.5500555038452148,1.7616848945617676,0,0,0,40000
1160704,-0.016858186572790146,-1.6153243780136108,-77.0,34.0,0.5209007263183594,1.9919219017028809,0,0,0,40000
1160714,-0.07153245061635971,-1.602170467376709,-81.0,-1.0,0.49007511138916016,2.321465015411377,0,0,0,40000
1160724,-0.10680902749300003,-1.6231908798217773,-59.0,-51.0,0.6646614074707031,2.5359506607055664,0,0,0,40000
1160734,-0.13343018293380737,-1.621743083000183,-57.0,32.0,0.6949434280395508,2.698720693588257,0,0,0,40000
1160744,-0.17819592356681824,-1.6028790473937988,-64.0,-4.0,0.6299753189086914,2.972090721130371,0,0,0,40000
1160754,-0.20108065009117126,-1.614174723625183,-53.0,-61.0,0.7460107803344727,3.1151604652404785,0,0,0,40000
1160764,-0.2296237051486969,-1.6458234786987305,-27.0,-25.0,0.9849786758422852,3.2930188179016113,0,0,0,40000
1160774,-0.24538788199424744,-1.6472609043121338,-40.0,17.0,1.0430374145507812,3.394774913787842,0,0,0,40000
1160784,-0.2635573446750641,-1.6210366487503052,-9.0,27.0,0.9346208572387695,3.511542558670044,0,0,0,40000
1160794,-0.27346283197402954,-1.6275779008865356,-2.0,-41.0,1.0225963592529297,3.579069137573242,0,0,0,40000
1160804,-0.2814498245716095,-1.6526094675064087,-21.0,-36.0,1.2220802307128906,3.635280132293701,0,0,0,40000
1160814,-0.27527952194213867,-1.6547291278839111,-6.0,-22.0,1.2844314575195312,3.606597423553467,0,0,0,40000
1160824,-0.2708544135093689,-1.6735769510269165,10.0,-35.0,1.4474477767944336,3.5882601737976074,0,0,0,40000
1160834,-0.2581144869327545,-1.670403003692627,46.0,56.0,1.4785947799682617,3.5197396278381348,0,0,0,40000
1160844,-0.24268986284732819,-1.6350276470184326,25.0,39.0,1.3157501220703125,3.434609889984131,0,0,0,40000
1160854,-0.23006366193294525,-1.6237601041793823,41.0,0.0,1.296926498413086,3.3659167289733887,0,0,0,40000
1160864,-0.20471669733524323,-1.6253248453140259,37.0,1.0,1.3550844192504883,3.2202529907226562,0,0,0,40000
1160874,-0.18492825329303741,-1.617264747619629,40.0,28.0,1.3553438186645508,3.1073124408721924,0,0,0,40000
1160884,-0.14828014373779297,-1.5931309461593628,55.0,14.0,1.2585783004760742,2.8923444747924805,0,0,0,40000
1160894,-0.12875467538833618,-1.5921950340270996,36.0,26.0,1.3007469177246094,2.7792611122131348,0,0,0,40000
1160904,-0.0900818258523941,-1.543526530265808,57.0,119.0,1.055842399597168,2.5504703521728516,0,0,0,40000
1160914,-0.059169620275497437,-1.4964309930801392,57.0,71.0,0.8187046051025391,2.3671414852142334,0,0,0,40000
1160924,-0.016823293641209602,-1.471338152885437,62.0,19.0,0.7124538421630859,2.114103317260742,0,0,0,40000
1160934,0.008016443811357021,-1.456058144569397,80.0,47.0,0.6646862030029297,1.965168833732605,0,0,0,40000
1160944,0.05055876076221466,-1.4078075885772705,66.0,107.0,0.41818904876708984,1.7088725566864014,0,0,0,40000
1160954,0.07783335447311401,-1.3671362400054932,58.0,39.0,0.21561288833618164,1.5431910753250122,0,0,0,40000
1160964,0.11971648782491684,-1.3533027172088623,32.0,-2.0,0.1732931137084961,1.2887685298919678,0,0,0,40000
1160974,0.1389916092157364,-1.3511868715286255,20.0,5.0,0.2011251449584961,1.1691676378250122,0,0,0,40000
1160984,0.14368337392807007,-1.3338128328323364,11.0,57.0,0.13723373413085938,1.1367267370224,0,0,0,40000
1160994,0.14665941894054413,-1.2928887605667114,0.0,88.0,-0.06902122497558594,1.1145044565200806,0,0,0,40000
1161004,0.15007728338241577,-1.2356022596359253,20.0,81.0,-0.3749275207519531,1.0896252393722534,0,0,0,40000
1161014,0.15317098796367645,-1.219247817993164,-1.0,-17.0,-0.4363374710083008,1.0664972066879272,0,0,0,40000
1161024,0.14916138350963593,-1.2239512205123901,-25.0,11.0,-0.3713655471801758,1.0859644412994385,0,0,0,40000
1161034,0.13626016676425934,-1.2126094102859497,-62.0,25.0,-0.40288400650024414,1.1591229438781738,0,0,0,40000
1161044,0.09963077306747437,-1.1928486824035645,-49.0,12.0,-0.48551130294799805,1.3755167722702026,0,0,0,40000
1161054,0.07451678067445755,-1.1844942569732666,-80.0,-6.0,-0.5000224113464355,1.523653507232666,0,0,0,40000
1161064,0.013693546876311302,-1.1937123537063599,-66.0,-23.0,-0.4090709686279297,1.8874887228012085,0,0,0,40000
1161074,-0.020644575357437134,-1.2071539163589478,-69.0,6.0,-0.29233694076538086,2.093693494796753,0,0,0,40000
1161084,-0.06509366631507874,-1.1892074346542358,-85.0,41.0,-0.3640432357788086,2.36177921295166,0,0,0,40000
1161094,-0.09908521175384521,-1.1789039373397827,-83.0,11.0,-0.39040470123291016,2.568298101425171,0,0,0,40000
1161104,-0.14856448769569397,-1.17434561252594,-57.0,-11.0,-0.3825225830078125,2.869123935699463,0,0,0,40000
1161114,-0.1810922771692276,-1.1771124601364136,-58.0,-7.0,-0.3306121826171875,3.069334030151367,0,0,0,40000
1161124,-0.21689680218696594,-1.172256588935852,-37.0,27.0,-0.3244032859802246,3.2903008460998535,0,0,0,40000
1161134,-0.23918882012367249,-1.1637171506881714,-21.0,44.0,-0.34061717987060547,3.430952548980713,0,0,0,40000
1161144,-0.2461300790309906,-1.148384690284729,-11.0,-3.0,-0.39806652069091797,3.479912519454956,0,0,0,40000
1161154,-0.2500997483730316,-1.1607218980789185,-1.0,-18.0,-0.2893714904785156,3.5111989974975586,0,0,0,40000
1161164,-0.2438710629940033,-1.1658058166503906,5.0,-3.0,-0.2238759994506836,3.481261968612671,0,0,0,40000
1161174,-0.24048511683940887,-1.1640739440917969,1.0,-7.0,-0.19933176040649414,3.468212127685547,0,0,0,40000
1161184,-0.2396426796913147,-1.1552389860153198,19.0,21.0,-0.21748924255371094,3.4704179763793945,0,0,0,40000
1161194,-0.22785089910030365,-1.1539337635040283,44.0,20.0,-0.19071722030639648,3.4066476821899414,0,0,0,40000
1161204,-0.19621038436889648,-1.134114384651184,41.0,22.0,-0.2753725051879883,3.223043203353882,0,0,0,40000
1161214,-0.17755088210105896,-1.1255146265029907,29.0,6.0,-0.2931194305419922,3.1166300773620605,0,0,0,40000
1161224,-0.14479687809944153,-1.1211943626403809,51.0,19.0,-0.2852621078491211,2.924942970275879,0,0,0,40000
1161234,-0.12442333996295929,-1.1246616840362549,53.0,-21.0,-0.2307887077331543,2.8066718578338623,0,0,0,40000
1161244,-0.08524943888187408,-1.1182647943496704,39.0,5.0,-0.23540306091308594,2.5746207237243652,0,0,0,40000
1161254,-0.06337246298789978,-1.1181633472442627,50.0,-8.0,-0.20247745513916016,2.4455418586730957,0,0,0,40000
1161264,-0.030914567410945892,-1.1096667051315308,30.0,43.0,-0.21992874145507812,2.2520735263824463,0,0,0,40000
1161274,-0.018053725361824036,-1.0964213609695435,29.0,0.0,-0.26636457443237305,2.1756160259246826,0,0,0,40000
1161284,-0.004561764188110828,-1.086535096168518,26.0,30.0,-0.2928609848022461,2.0949487686157227,0,0,0,40000
1161294,0.0015484871109947562,-1.0631802082061768,-4.0,51.0,-0.4008321762084961,2.058278799057007,0,0,0,40000
1161304,0.0032104989513754845,-1.0476006269454956,-8.0,-4.0,-0.462801456451416,2.0482113361358643,0,0,0,40000
1161314,-0.001460717641748488,-1.06656014919281,-8.0,-43.0,-0.31729555130004883,2.0762152671813965,0,0,0,40000
1161324,-0.008785531856119633,-1.0658210515975952,6.0,27.0,-0.2895631790161133,2.120374917984009,0,0,0,40000
1161334,-0.007113580126315355,-1.0391069650650024,-2.0,51.0,-0.41833925247192383,2.110557794570923,0,0,0,40000
1161344,-0.010689091868698597,-1.0174843072891235,-15.0,8.0,-0.5173988342285156,2.1322498321533203,0,0,0,40000
1161354,-0.013270404189825058,-1.027413249015808,9.0,-25.0,-0.4271202087402344,2.1481382846832275,0,0,0,40000
1161364,-0.011783748865127563,-1.021683692932129,-8.0,33.0,-0.43065738677978516,2.139531373977661,0,0,0,40000
1161374,-0.01815616339445114,-1.007332682609558,-6.0,39.0,-0.48636484146118164,2.1782240867614746,0,0,0,40000
1161384,-0.02457396686077118,-0.982448399066925,-10.0,23.0,-0.6059436798095703,2.2173807621002197,0,0,0,40000
1161394,-0.02240508235991001,-0.9654068350791931,15.0,54.0,-0.679044246673584,2.205047130584717,0,0,0,40000
1161404,-0.020944539457559586,-0.9344638586044312,0.0,28.0,-0.8363304138183594,2.1969351768493652,0,0,0,40000
1161414,-0.023380713537335396,-0.9300156235694885,2.0,-6.0,-0.835054874420166,2.212229013442993,0,0,0,40000
1161424,-0.01872321404516697,-0.928091287612915,-6.0,-6.0,-0.8187365531921387,2.184863567352295,0,0,0,40000
1161434,-0.012084855698049068,-0.9300268888473511,19.0,3.0,-0.7792463302612305,2.1454989910125732,0,0,0,40000
1161444,-0.004374644719064236,-0.9162687659263611,-6.0,17.0,-0.834134578704834,2.099397897720337,0,0,0,40000
1161454,-0.00945995282381773,-0.9087934494018555,-6.0,-1.0,-0.8516206741333008,2.130126476287842,0,0,0,40000
1161464,-0.017123399302363396,-0.9151257276535034,-7.0,-29.0,-0.786311149597168,2.176534652709961,0,0,0,40000
1161474,-0.025669896975159645,-0.9293241500854492,-12.0,0.0,-0.6733932495117188,2.228459358215332,0,0,0,40000
1161484,-0.02901271916925907,-0.910322904586792,-7.0,48.0,-0.7597575187683105,2.249361276626587,0,0,0,40000
1161494,-0.026939667761325836,-0.9010118246078491,7.0,-14.0,-0.7885003089904785,2.237783670425415,0,0,0,40000
1161504,-0.02000187709927559,-0.9103304743766785,18.0,0.0,-0.7054128646850586,2.196852684020996,0,0,0,40000
1161514,-0.025255495682358742,-0.9137558341026306,23.0,-7.0,-0.6574935913085938,2.2290589809417725,0,0,0,40000
1161524,-0.018209699541330338,-0.9199734926223755,6.0,9.0,-0.5926179885864258,2.1873345375061035,0,0,0,40000
1161534,-0.016218924894928932,-0.926765501499176,-12.0,-23.0,-0.5241904258728027,2.1758503913879395,0,0,0,40000
1161544,-0.01542788278311491,-0.9496321082115173,-5.0,-52.0,-0.35887718200683594,2.1715917587280273,0,0,0,40000
1161554,-0.009266975335776806,-0.9573235511779785,23.0,-13.0,-0.28408241271972656,2.135006904602051,0,0,0,40000
1161564,0.0016096513718366623,-0.944647490978241,23.0,53.0,-0.33151960372924805,2.0697946548461914,0,0,0,40000
1161574,0.009002656675875187,-0.9252158999443054,27.0,18.0,-0.4201507568359375,2.025252103805542,0,0,0,40000
1161584,0.03256959095597267,-0.9187040328979492,35.0,2.0,-0.43163490295410156,1.8831547498703003,0,0,0,40000
1161594,0.05009216070175171,-0.925165057182312,44.0,-10.0,-0.36521196365356445,1.7767406702041626,0,0,0,40000
1161604,0.08242856711149216,-0.929170548915863,54.0,13.0,-0.3132777214050293,1.580688238143921,0,0,0,40000
1161614,0.1029798686504364,-0.9433576464653015,61.0,-53.0,-0.20003509521484375,1.4545443058013916,0,0,0,40000
1161624,0.13482142984867096,-0.9728819727897644,56.0,-32.0,0.005999088287353516,1.25981605052948,0,0,0,40000
1161634,0.1579637974500656,-0.9566659331321716,31.0,53.0,-0.062340736389160156,1.1164777278900146,0,0,0,40000
1161644,0.18805569410324097,-0.9334375262260437,42.0,16.0,-0.1735072135925293,0.9306930303573608,0,0,0,40000
1161654,0.2121143341064453,-0.9296212792396545,63.0,18.0,-0.16847515106201172,0.7802872657775879,0,0,0,40000
1161664,0.2548559904098511,-0.9039834141731262,66.0,28.0,-0.2949104309082031,0.5166950225830078,0,0,0,40000
1161674,0.27853018045425415,-0.9068352580070496,26.0,-28.0,-0.250669002532959,0.3665534257888794,0,0,0,40000
1161684,0.317915141582489,-0.9236611127853394,55.0,-3.0,-0.12208795547485352,0.12122666835784912,0,0,0,40000
1161694,0.334415078163147,-0.9229184985160828,39.0,8.0,-0.09882926940917969,0.012399673461914062,0,0,0,40000
1161704,0.35618457198143005,-0.9017756581306458,28.0,34.0,-0.19832754135131836,-0.12863850593566895,0,0,0,40000
1161714,0.3621518611907959,-0.8993402123451233,7.0,-2.0,-0.18595600128173828,-0.1752455234527588,0,0,0,40000
1161724,0.37751030921936035,-0.8976860642433167,23.0,-5.0,-0.16889667510986328,-0.2785172462463379,0,0,0,40000
1161734,0.39067181944847107,-0.9007803201675415,3.0,-18.0,-0.12336254119873047,-0.36906135082244873,0,0,0,40000
1161744,0.39940035343170166,-0.9007244110107422,25.0,6.0,-0.09664535522460938,-0.4332636594772339,0,0,0,40000
1161754,0.4075314700603485,-0.8957865834236145,28.0,20.0,-0.09933185577392578,-0.4941577911376953,0,0,0,40000
1161764,0.4294838309288025,-0.8883642554283142,26.0,3.0,-0.11711263656616211,-0.6385085582733154,0,0,0,40000
1161774,0.4347168505191803,-0.8885413408279419,14.0,-2.0,-0.08937549591064453,-0.6828945875167847,0,0,0,40000
1161784,0.44943878054618835,-0.8978588581085205,27.0,-30.0,-0.006704807281494141,-0.7844898700714111,0,0,0,40000
1161794,0.4606321454048157,-0.9205169677734375,36.0,-41.0,0.15657663345336914,-0.8653301000595093,0,0,0,40000
1161804,0.49193283915519714,-0.9514417052268982,62.0,-40.0,0.37032365798950195,-1.0674326419830322,0,0,0,40000
1161814,0.513346791267395,-0.9466478824615479,47.0,34.0,0.3700432777404785,-1.211069941520691,0,0,0,40000
1161824,0.5499597787857056,-0.9283109903335571,57.0,16.0,0.28798389434814453,-1.4468239545822144,0,0,0,40000
1161834,0.572457492351532,-0.9521130323410034,41.0,-80.0,0.45902585983276367,-1.5987087488174438,0,0,0,40000
1161844,0.6056244373321533,-0.9877756237983704,44.0,-12.0,0.7023916244506836,-1.815495491027832,0,0,0,40000
1161854,0.6268832683563232,-0.96761554479599,52.0,45.0,0.6107463836669922,-1.9615834951400757,0,0,0,40000
1161864,0.6479867696762085,-0.9650487303733826,35.0,-24.0,0.6241354942321777,-2.107414960861206,0,0,0,40000
1161874,0.6614717841148376,-1.007939338684082,21.0,-104.0,0.9111728668212891,-2.20802640914917,0,0,0,40000
1161884,0.6833653450012207,-1.0426476001739502,30.0,-5.0,1.1505413055419922,-2.3596062660217285,0,0,0,40000
1161894,0.6994571089744568,-1.0281579494476318,31.0,27.0,1.094597339630127,-2.476978302001953,0,0,0,40000
1161904,0.7172631621360779,-1.0078096389770508,13.0,19.0,1.0029640197753906,-2.605133056640625,0,0,0,40000
1161914,0.7318239212036133,-1.0006000995635986,8.0,17.0,0.9898276329040527,-2.714287281036377,0,0,0,40000
1161924,0.7444195747375488,-0.9904924035072327,14.0,-3.0,0.9589595794677734,-2.8120217323303223,0,0,0,40000
1161934,0.7435808777809143,-1.0121451616287231,1.0,-56.0,1.118962287902832,-2.8293051719665527,0,0,0,40000
1161944,0.7330478429794312,-1.04106867313385,-23.0,-13.0,1.3235101699829102,-2.7883007526397705,0,0,0,40000
1161954,0.7279768586158752,-1.0283185243606567,-25.0,31.0,1.2780380249023438,-2.7797799110412598,0,0,0,40000
1161964,0.7025939226150513,-1.0305012464523315,-43.0,-39.0,1.3218050003051758,-2.6488921642303467,0,0,0,40000
1161974,0.692290186882019,-1.0643880367279053,-43.0,-49.0,1.556654453277588,-2.6079564094543457,0,0,0,40000
1161984,0.6580910682678223,-1.041061282157898,-56.0,82.0,1.448500633239746,-2.422968864440918,0,0,0,40000
1161994,0.6297081112861633,-1.0077972412109375,-54.0,47.0,1.2795400619506836,-2.271881580352783,0,0,0,40000
1162004,0.5875044465065002,-0.9870972633361816,-55.0,4.0,1.1850476264953613,-2.036776065826416,0,0,0,40000
1162014,0.5565676093101501,-0.988909125328064,-67.0,21.0,1.2256145477294922,-1.8682225942611694,0,0,0,40000
1162024,0.5121727585792542,-0.9802237153053284,-51.0,27.0,1.2030730247497559,-1.617677927017212,0,0,0,40000
1162034,0.4886058270931244,-0.9657338261604309,-38.0,31.0,1.1452651023864746,-1.4912365674972534,0,0,0,40000
1162044,0.46864765882492065,-0.9660364985466003,-34.0,-16.0,1.1759519577026367,-1.385807752609253,0,0,0,40000
1162054,0.4621981978416443,-0.9693516492843628,-26.0,-6.0,1.2248902320861816,-1.3610526323318481,0,0,0,40000
1162064,0.44041934609413147,-0.9639655947685242,-30.0,17.0,1.2215666770935059,-1.243870496749878,0,0,0,40000
1162074,0.42684802412986755,-0.9682617783546448,-23.0,-5.0,1.2763524055480957,-1.175389289855957,0,0,0,40000
1162084,0.4008798897266388,-0.9788785576820374,-39.0,-15.0,1.3692398071289062,-1.0319478511810303,0,0,0,40000
1162094,0.3970909118652344,-0.975042462348938,-11.0,0.0,1.375563621520996,-1.0211364030838013,0,0,0,40000
1162104,0.39383023977279663,-0.9843942523002625,-17.0,-37.0,1.460951328277588,-1.0134412050247192,0,0,0,40000
1162114,0.3940707743167877,-1.003692626953125,-7.0,-11.0,1.6066522598266602,-1.0267060995101929,0,0,0,40000
1162124,0.3939087688922882,-1.0173976421356201,1.0,-17.0,1.719212532043457,-1.0375525951385498,0,0,0,40000
1162134,0.39862921833992004,-1.0233548879623413,32.0,15.0,1.7856101989746094,-1.0777487754821777,0,0,0,40000
1162144,0.41041502356529236,-1.0266234874725342,16.0,-27.0,1.8358182907104492,-1.1606693267822266,0,0,0,40000
1162154,0.42328038811683655,-1.0453661680221558,19.0,-25.0,1.9794220924377441,-1.2504205703735352,0,0,0,40000
1162164,0.4507656395435333,-1.0611152648925781,40.0,-40.0,2.10550594329834,-1.4284676313400269,0,0,0,40000
1162174,0.46074390411376953,-1.0735141038894653,23.0,-19.0,2.21195650100708,-1.502042293548584,0,0,0,40000
1162184,0.4850001931190491,-1.0584050416946411,34.0,31.0,2.1533451080322266,-1.6618136167526245,0,0,0,40000
1162194,0.5040789246559143,-1.0593488216400146,43.0,-15.0,2.190751075744629,-1.791194200515747,0,0,0,40000
1162204,0.5334950089454651,-1.0773420333862305,47.0,-40.0,2.3307299613952637,-1.9833598136901855,0,0,0,40000
1162214,0.5567025542259216,-1.0952812433242798,50.0,-20.0,2.4709901809692383,-2.1390275955200195,0,0,0,40000
1162224,0.5892265439033508,-1.0923576354980469,55.0,3.0,2.4862828254699707,-2.3514161109924316,0,0,0,40000
1162234,0.6083075404167175,-1.100608229637146,39.0,-32.0,2.5687179565429688,-2.4839255809783936,0,0,0,40000
1162244,0.6359497308731079,-1.1379904747009277,36.0,-57.0,2.8266868591308594,-2.6685445308685303,0,0,0,40000
1162254,0.6587608456611633,-1.1560463905334473,18.0,-28.0,2.9695065021514893,-2.8249099254608154,0,0,0,40000
1162264,0.6769587993621826,-1.1519912481307983,23.0,19.0,2.97990083694458,-2.954178810119629,0,0,0,40000
1162274,0.6870821714401245,-1.1548188924789429,24.0,-34.0,3.0314409732818604,-3.0353903770446777,0,0,0,40000
1162284,0.6981288194656372,-1.1728333234786987,19.0,0.0,3.174652099609375,-3.1225008964538574,0,0,0,40000
1162294,0.6935853362083435,-1.1701912879943848,-17.0,17.0,3.1939215660095215,-3.1161341667175293,0,0,0,40000
1162304,0.6849848031997681,-1.153189778327942,-18.0,6.0,3.1266632080078125,-3.0851850509643555,0,0,0,40000
1162314,0.679606020450592,-1.160274624824524,-48.0,-49.0,3.2038323879241943,-3.073371410369873,0,0,0,40000
1162324,0.6484566330909729,-1.1921089887619019,-49.0,-29.0,3.4303083419799805,-2.906278371810913,0,0,0,40000
1162334,0.6233431100845337,-1.1856489181518555,-37.0,44.0,3.4272544384002686,-2.774571180343628,0,0,0,40000
1162344,0.5829073190689087,-1.1540194749832153,-63.0,39.0,3.272482395172119,-2.549987316131592,0,0,0,40000
1162354,0.538837730884552,-1.1445496082305908,-89.0,26.0,3.250109910964966,-2.3022708892822266,0,0,0,40000
1162364,0.46637973189353943,-1.1246474981307983,-112.0,35.0,3.1646780967712402,-1.8824265003204346,0,0,0,40000
1162374,0.4131777882575989,-1.1039552688598633,-119.0,32.0,3.0738823413848877,-1.5762579441070557,0,0,0,40000
1162384,0.3213851749897003,-1.1094602346420288,-131.0,-11.0,3.1400461196899414,-1.0362740755081177,0,0,0,40000
1162394,0.2552981674671173,-1.1137174367904663,-131.0,0.0,3.198967456817627,-0.6481938362121582,0,0,0,40000
1162404,0.1695055067539215,-1.090227484703064,-119.0,42.0,3.0910849571228027,-0.13952428102493286,0,0,0,40000
1162414,0.12007856369018555,-1.0699175596237183,-113.0,55.0,3.0015811920166016,0.15283215045928955,0,0,0,40000
1162424,0.03418615460395813,-1.0414992570877075,-124.0,35.0,2.86263370513916,0.6660880446434021,0,0,0,40000
1162434,-0.02852267026901245,-1.0381823778152466,-114.0,-4.0,2.873906373977661,1.042474389076233,0,0,0,40000
1162444,-0.09686493128538132,-1.0441925525665283,-94.0,5.0,2.9412994384765625,1.4546904563903809,0,0,0,40000
1162454,-0.14504113793373108,-1.0453927516937256,-87.0,6.0,2.9798412322998047,1.7475178241729736,0,0,0,40000
1162464,-0.20524002611637115,-1.0432771444320679,-78.0,27.0,2.9986047744750977,2.114149570465088,0,0,0,40000
1162474,-0.23738007247447968,-1.0157055854797363,-64.0,62.0,2.8639976978302,2.313744306564331,0,0,0,40000
1162484,-0.2705632746219635,-0.9672020673751831,-33.0,54.0,2.6025047302246094,2.5206403732299805,0,0,0,40000
1162494,-0.2913734018802643,-0.9634420871734619,-27.0,-19.0,2.608839511871338,2.6540017127990723,0,0,0,40000
1162504,-0.2946234941482544,-0.9808092713356018,-3.0,-18.0,2.7422947883605957,2.6823220252990723,0,0,0,40000
1162514,-0.3047306537628174,-0.9788427352905273,-13.0,38.0,2.759925127029419,2.752018451690674,0,0,0,40000
1162524,-0.31756818294525146,-0.94624263048172,-25.0,51.0,2.5930895805358887,2.8383917808532715,0,0,0,40000
1162534,-0.32594582438468933,-0.9343496561050415,-3.0,34.0,2.54990553855896,2.8983452320098877,0,0,0,40000
1162544,-0.3279486894607544,-0.9021334052085876,-8.0,58.0,2.3841261863708496,2.9201676845550537,0,30,0,40000
1162554,-0.32688775658607483,-0.8705228567123413,-1.0,59.0,-178.3242645263672,2.9216582775115967,0,30,0,40000
1162564,-0.32529768347740173,-0.850836992263794,-1.0,-22.0,-179.31666564941406,2.9218943119049072,0,30,0,40000
1162574,-0.31459757685661316,-0.9419659972190857,26.0,-248.0,-179.64320373535156,2.867337226867676,0,30,0,40000
1162584,-0.30414217710494995,-1.138649821281433,23.0,-619.0,-179.33152770996094,2.813854694366455,0,30,0,40000
1162594,-0.2867582440376282,-1.6529741287231445,31.0,-852.0,-177.1026611328125,2.71834397315979,0,30,0,40000
1162604,-0.2769898474216461,-2.0836284160614014,21.0,-1035.0,-175.36151123046875,2.668139696121216,0,30,0,40000
1162614,-0.2664177715778351,-2.8379006385803223,10.0,-1179.0,-171.66009521484375,2.612839698791504,0,30,0,40000
1162624,-0.26460912823677063,-3.400611400604248,30.0,-1273.0,-169.08863830566406,2.6100010871887207,0,30,0,40000
1162634,-0.2263244390487671,-4.301880836486816,86.0,-1384.0,-164.4629669189453,2.38771390914917,0,30,0,40000
1162644,-0.20562173426151276,-4.986327648162842,75.0,-1568.0,-161.114990234375,2.2699341773986816,0,30,0,40000
1162654,-0.16366973519325256,-6.1035356521606445,76.0,-1672.0,-155.1422882080078,2.023585081100464,0,30,0,40000
1162664,-0.14368031919002533,-6.876646518707275,47.0,-1709.0,-151.20663452148438,1.9081764221191406,0,30,0,40000
1162674,-0.1128622442483902,-8.047162055969238,54.0,-1742.0,-144.85623168945312,1.7270214557647705,0,30,0,40000
1162684,-0.09816771000623703,-8.872034072875977,38.0,-1818.0,-140.55079650878906,1.6419589519500732,0,30,0,40000
1162694,-0.06174704432487488,-10.104852676391602,57.0,-1795.0,-133.76544189453125,1.4257681369781494,0,30,0,40000
1162704,-0.039800677448511124,-10.918033599853516,47.0,-1773.0,-129.46856689453125,1.2955641746520996,0,30,0,40000
1162714,-0.005051732063293457,-12.13099193572998,55.0,-1766.0,-122.74139404296875,1.0876675844192505,0,30,0,40000
1162724,0.02024957910180092,-12.941181182861328,48.0,-1761.0,-118.40174102783203,0.9355509877204895,0,30,0,40000
1162734,0.04289044812321663,-14.141377449035645,37.0,-1714.0,-111.69055938720703,0.798614501953125,0,30,0,40000
1162744,0.05695052444934845,-14.916939735412598,38.0,-1692.0,-107.49897766113281,0.7127138376235962,0,30,0,40000
1162754,0.07489898055791855,-16.080413818359375,25.0,-1691.0,-100.94969177246094,0.6029996871948242,0,30,0,40000
1162764,0.09146247059106827,-16.842927932739258,27.0,-1672.0,-96.7784423828125,0.5010770559310913,0,30,0,40000
1162774,0.10808517038822174,-17.963661193847656,3.0,-1606.0,-90.428466796875,0.3982590436935425,0,30,0,40000
1162784,0.1194251999258995,-18.689109802246094,27.0,-1551.0,-86.42376708984375,0.3267936706542969,0,30,0,40000
1162794,0.1427486687898636,-19.73095703125,24.0,-1490.0,-80.49313354492188,0.18292784690856934,0,30,0,40000
1162804,0.15669068694114685,-20.408781051635742,5.0,-1447.0,-76.72205352783203,0.09470492601394653,0,30,0,40000
1162814,0.16683794558048248,-21.381288528442383,25.0,-1408.0,-71.15715789794922,0.028961896896362305,0,30,0,40000
1162824,0.16630102694034576,-22.013294219970703,-23.0,-1363.0,-67.61227416992188,0.0271683931350708,0,30,0,40000
1162834,0.15927854180335999,-22.91713523864746,2.0,-1271.0,-62.412322998046875,0.06452018022537231,0,30,0,40000
1162844,0.15257611870765686,-23.491252899169922,6.0,-1245.0,-59.16975021362305,0.10010319948196411,0,30,0,40000
1162854,0.13721022009849548,-24.34871482849121,-9.0,-1265.0,-54.20486831665039,0.1878947615623474,0,30,0,40000
1162864,0.12665705382823944,-24.915557861328125,-15.0,-1186.0,-50.963104248046875,0.24728024005889893,0,30,0,40000
1162874,0.10686320066452026,-25.695188522338867,-30.0,-1128.0,-46.42369079589844,0.36244726181030273,0,30,0,40000
1162884,0.09225036203861237,-26.21538543701172,-43.0,-1100.0,-43.42229080200195,0.4472007751464844,0,30,0,40000
1162894,0.0641443058848381,-26.946056365966797,-14.0,-1014.0,-39.13846206665039,0.6135870218276978,0,30,0,40000
1162904,0.049086444079875946,-27.400592803955078,-34.0,-999.0,-36.494667053222656,0.7022673487663269,0,30,0,40000
1162914,0.023123348131775856,-28.06411361694336,-23.0,-948.0,-32.57947540283203,0.8571271896362305,0,30,0,40000
1162924,0.007699999958276749,-28.48542594909668,-22.0,-897.0,-30.10207176208496,0.9492619633674622,0,30,0,40000
1162934,-0.01146677229553461,-29.089712142944336,3.0,-855.0,-26.510812759399414,1.064414381980896,0,30,0,40000
1162944,-0.02996036224067211,-29.475378036499023,8.0,-835.0,-24.21718978881836,1.1760635375976562,0,30,0,40000
1162954,-0.043725334107875824,-30.04085922241211,-26.0,-818.0,-20.829818725585938,1.259659767150879,0,30,0,40000
1162964,-0.06212380528450012,-30.392322540283203,-21.0,-754.0,-18.713451385498047,1.3717412948608398,0,30,0,40000
1162974,-0.08319871127605438,-30.903648376464844,8.0,-733.0,-15.624456405639648,1.5004146099090576,0,30,0,40000
1162984,-0.08622553944587708,-31.22187614440918,15.0,-679.0,-13.68223762512207,1.5211100578308105,0,30,0,40000
1162994,-0.08701673895120621,-31.67546272277832,-10.0,-647.0,-10.915828704833984,1.5284425020217896,0,30,0,40000
1163004,-0.07578159868717194,-31.958993911743164,-3.0,-609.0,-9.159276962280273,1.4634593725204468,0,30,0,40000
1163014,-0.07113773375749588,-32.35609436035156,23.0,-526.0,-6.710521697998047,1.4378831386566162,0,30,0,40000
1163024,-0.07343792915344238,-32.59489059448242,27.0,-524.0,-5.202739715576172,1.4538419246673584,0,30,0,40000
1163034,-0.06874946504831314,-32.94379425048828,-3.0,-471.0,-3.0250320434570312,1.4278554916381836,0,30,0,40000
