timestamp,stabilizer.roll,stabilizer.pitch,stateEstimateZ.rateRoll,stateEstimateZ.ratePitch,controller.pitchRate,controller.rollRate,roll,pitch,yawdot,thrust
288404,-37.914955139160156,68.08589935302734,4.0,-2.0,-411.7835388183594,229.3092803955078,0,0,0,40000
288414,-37.943275451660156,68.07257843017578,17.0,7.0,-413.7460021972656,230.6170654296875,0,0,0,40000
288424,-37.94567108154297,68.03782653808594,-22.0,-65.0,-415.5790710449219,231.7698516845703,0,0,0,40000
288434,-37.92314147949219,67.9568099975586,-53.0,-135.0,-417.1328430175781,232.77273559570312,0,0,0,40000
288444,-37.789581298828125,67.83349609375,-30.0,-426.0,-418.4295959472656,233.10679626464844,0,0,0,40000
288454,-37.29914474487305,67.51095581054688,14.0,-644.0,-418.5238952636719,231.28964233398438,0,0,0,40000
288464,-36.739013671875,67.18132781982422,80.0,-1082.0,-418.5657653808594,229.0382537841797,0,0,0,40000
288474,-35.353675842285156,66.41581726074219,72.0,-1583.0,-415.9752502441406,221.8050079345703,0,0,0,40000
288484,-34.1217041015625,65.71381378173828,123.0,-2104.0,-413.7433166503906,215.45205688476562,0,0,0,40000
288494,-31.878822326660156,64.35580444335938,209.0,-2659.0,-407.543212890625,202.9792022705078,0,0,0,40000
288504,-30.206350326538086,63.25182342529297,291.0,-3143.0,-402.8303527832031,193.87075805664062,0,0,0,40000
288514,-27.531253814697266,61.3071403503418,349.0,-3541.0,-393.0255432128906,178.6782684326172,0,0,0,40000
288524,-25.725847244262695,59.848541259765625,452.0,-3878.0,-386.08709716796875,168.63916015625,0,0,0,40000
288534,-23.08393096923828,57.4743766784668,561.0,-4079.0,-373.5953063964844,153.5115509033203,0,0,0,40000
288544,-21.39909553527832,55.79901885986328,720.0,-4176.0,-365.2374267578125,144.0646514892578,0,0,0,40000
288554,-18.967992782592773,53.213905334472656,855.0,-4231.0,-351.35430908203125,130.07583618164062,0,0,0,40000
288564,-17.411134719848633,51.44658660888672,1039.0,-4306.0,-342.3149719238281,121.27571868896484,0,0,0,40000
288574,-15.15697956085205,48.76599884033203,1215.0,-4239.0,-327.72662353515625,108.23231506347656,0,0,0,40000
288584,-13.679508209228516,46.98468017578125,1428.0,-4146.0,-318.4696044921875,99.79561614990234,0,0,0,40000
288594,-11.512378692626953,44.3700065612793,1635.0,-4032.0,-304.1439208984375,87.1643295288086,0,0,0,40000
288604,-10.069947242736816,42.65861892700195,1840.0,-3922.0,-295.1759033203125,78.8290786743164,0,0,0,40000
288614,-7.899346828460693,40.12779998779297,1985.0,-3812.0,-281.2248840332031,66.0684814453125,0,0,0,40000
288624,-6.466487407684326,38.491004943847656,2138.0,-3685.0,-272.5784912109375,57.682472229003906,0,0,0,40000
288634,-4.322176933288574,36.085506439208984,2294.0,-3540.0,-259.25665283203125,44.971900939941406,0,0,0,40000
288644,-2.891451597213745,34.5421028137207,2452.0,-3393.0,-251.05096435546875,36.491451263427734,0,0,0,40000
288654,-0.7698855400085449,32.29600143432617,2526.0,-3258.0,-238.56993103027344,23.810657501220703,0,0,0,40000
288664,0.6261807084083557,30.846572875976562,2581.0,-3106.0,-230.81613159179688,15.432235717773438,0,0,0,40000
288674,2.6512420177459717,28.753271102905273,2615.0,-2982.0,-219.14378356933594,3.2265758514404297,0,0,0,40000
288684,3.954218864440918,27.415103912353516,2529.0,-2802.0,-211.95318603515625,-4.694370269775391,0,0,0,40000
288694,5.800059795379639,25.522802352905273,2425.0,-2638.0,-201.38739013671875,-15.921798706054688,0,0,0,40000
288704,6.956763744354248,24.328292846679688,2249.0,-2510.0,-194.96446228027344,-23.056987762451172,0,0,0,40000
288714,8.536080360412598,22.637666702270508,2111.0,-2332.0,-185.51974487304688,-32.77040100097656,0,0,0,40000
288724,9.475290298461914,21.57468605041504,1882.0,-2205.0,-179.80181884765625,-38.67872619628906,0,0,0,40000
288734,10.708037376403809,20.063724517822266,1676.0,-2103.0,-171.3558349609375,-46.38213348388672,0,0,0,40000
288744,11.399136543273926,19.114517211914062,1367.0,-1972.0,-166.24534606933594,-50.86259078979492,0,0,0,40000
288754,12.256390571594238,17.760114669799805,1081.0,-1890.0,-158.667724609375,-56.3643798828125,0,0,0,40000
288764,12.697768211364746,16.90479850769043,771.0,-1783.0,-154.05322265625,-59.388458251953125,0,0,0,40000
288774,13.133176803588867,15.66952896118164,539.0,-1724.0,-147.12632751464844,-62.39020919799805,0,0,0,40000
288784,13.276069641113281,14.886106491088867,249.0,-1651.0,-142.88174438476562,-63.64427185058594,0,0,0,40000
288794,13.273771286010742,13.741205215454102,-89.0,-1638.0,-136.4382781982422,-64.02949523925781,0,0,0,40000
288804,13.150506973266602,13.001764297485352,-363.0,-1568.0,-132.40052795410156,-63.686119079589844,0,0,0,40000
288814,12.77475357055664,11.944388389587402,-648.0,-1515.0,-126.42716979980469,-61.81999206542969,0,0,0,40000
288824,12.416180610656738,11.265048027038574,-840.0,-1467.0,-122.69718933105469,-60.045433044433594,0,0,0,40000
288834,11.69398021697998,10.280989646911621,-1076.0,-1391.0,-117.1129150390625,-56.072120666503906,0,0,0,40000
288844,11.141866683959961,9.667240142822266,-1243.0,-1310.0,-113.72774505615234,-53.10044860839844,0,0,0,40000
288854,10.209102630615234,8.779960632324219,-1409.0,-1286.0,-108.67811584472656,-47.821746826171875,0,0,0,40000
288864,9.534109115600586,8.20046329498291,-1516.0,-1210.0,-105.45405578613281,-44.06598663330078,0,0,0,40000
288874,8.461309432983398,7.388957977294922,-1566.0,-1163.0,-100.81626892089844,-37.89598846435547,0,0,0,40000
288884,7.720606327056885,6.870975017547607,-1629.0,-1121.0,-97.92070007324219,-33.69228744506836,0,0,0,40000
288894,6.589365005493164,6.12479305267334,-1630.0,-1036.0,-93.63607788085938,-27.116052627563477,0,0,0,40000
288904,5.844684600830078,5.6673712730407715,-1620.0,-972.0,-91.06703186035156,-22.832242965698242,0,0,0,40000
288914,5.12083625793457,5.229907989501953,-1569.0,-886.0,-88.57034301757812,-18.616369247436523,0,0,0,40000
288924,4.0793681144714355,4.616788387298584,-1480.0,-853.0,-85.06515502929688,-12.526800155639648,0,0,0,40000
288934,3.426429510116577,4.226112365722656,-1373.0,-843.0,-82.8248519897461,-8.695243835449219,0,0,0,40000
288944,2.522153377532959,3.6646246910095215,-1232.0,-763.0,-79.59442138671875,-3.3709564208984375,0,0,0,40000
288954,1.9851901531219482,3.319115400314331,-1099.0,-713.0,-77.60305786132812,-0.1999683380126953,0,0,0,40000
288964,1.298365831375122,2.8379149436950684,-921.0,-689.0,-74.82376861572266,3.8663744926452637,0,0,0,40000
288974,0.9208332300186157,2.5232486724853516,-761.0,-663.0,-72.99821472167969,6.107317924499512,0,0,0,40000
288984,0.46653643250465393,2.0848071575164795,-557.0,-590.0,-70.44775390625,8.811264038085938,0,0,0,40000
288994,0.24695318937301636,1.822405219078064,-386.0,-512.0,-68.9186019897461,10.121638298034668,0,0,0,40000
289004,0.039965495467185974,1.481680989265442,-182.0,-449.0,-66.93155670166016,11.360109329223633,0,0,0,40000
289014,-0.01883251778781414,1.27681303024292,-34.0,-401.0,-65.73419952392578,11.713080406188965,0,0,0,40000
289024,0.010775253176689148,0.996771514415741,138.0,-387.0,-64.09317016601562,11.53577709197998,0,0,0,40000
289034,0.10016650706529617,0.8193563222885132,273.0,-352.0,-63.04938888549805,10.997618675231934,0,0,0,40000
289044,0.33371779322624207,0.5961637496948242,402.0,-286.0,-61.734230041503906,9.587275505065918,0,0,0,40000
289054,0.5512378811836243,0.4745829403400421,501.0,-243.0,-61.01683044433594,8.270289421081543,0,0,0,40000
289064,0.9405220150947571,0.3175078332424164,607.0,-170.0,-60.08757781982422,5.905633926391602,0,0,0,40000
289074,1.2322190999984741,0.23021607100963593,684.0,-164.0,-59.569847106933594,4.127691268920898,0,0,0,40000
289084,1.7198458909988403,0.13182801008224487,759.0,-112.0,-58.98527526855469,1.1460514068603516,0,0,0,40000
289094,2.0681397914886475,0.0848831906914711,770.0,-74.0,-58.705894470214844,-0.9912748336791992,0,0,0,40000
289104,2.603492259979248,0.05121398717164993,766.0,-56.0,-58.506099700927734,-4.290745735168457,0,0,0,40000
289114,2.958562135696411,0.03427192568778992,746.0,-41.0,-58.405338287353516,-6.490053176879883,0,0,0,40000
289124,3.4566903114318848,-0.0012429900234565139,734.0,-41.0,-58.19265365600586,-9.576531410217285,0,0,0,40000
289134,3.7717509269714355,-0.01910567656159401,690.0,-34.0,-58.085105895996094,-11.576286315917969,0,0,0,40000
289144,4.21195125579834,-0.03270184248685837,609.0,-25.0,-58.00269317626953,-14.338753700256348,0,0,0,40000
289154,4.476504802703857,-0.04930223152041435,530.0,-24.0,-57.90182113647461,-16.057247161865234,0,0,0,40000
289164,4.814854145050049,-0.07239499688148499,433.0,-39.0,-57.76142501831055,-18.227954864501953,0,0,0,40000
289174,4.992459297180176,-0.09233790636062622,323.0,-46.0,-57.63923645019531,-19.441295623779297,0,0,0,40000
289184,5.186008930206299,-0.1072617918252945,221.0,-24.0,-57.54660415649414,-20.756067276000977,0,0,0,40000
289194,5.266336917877197,-0.12071647495031357,125.0,-47.0,-57.462440490722656,-21.395099639892578,0,0,0,40000
289204,5.300142765045166,-0.174189954996109,-8.0,-74.0,-57.137088775634766,-21.756805419921875,0,0,0,40000
289214,5.272863388061523,-0.21259921789169312,-80.0,-74.0,-56.90070724487305,-21.751651763916016,0,0,0,40000
289224,5.1793317794799805,-0.2670726180076599,-190.0,-44.0,-56.56645202636719,-21.347257614135742,0,0,0,40000
289234,5.07053804397583,-0.2974867522716522,-294.0,-59.0,-56.37540817260742,-20.847991943359375,0,0,0,40000
289244,4.8394622802734375,-0.3517877459526062,-381.0,-54.0,-56.039695739746094,-19.60968017578125,0,0,0,40000
289254,4.64604377746582,-0.3789161443710327,-458.0,-67.0,-55.86586380004883,-18.59090805053711,0,0,0,40000
289264,4.313920974731445,-0.4245569705963135,-490.0,-68.0,-55.579864501953125,-16.73165512084961,0,0,0,40000
289274,4.072610378265381,-0.4630040228366852,-548.0,-67.0,-55.33579635620117,-15.408897399902344,0,0,0,40000
289284,3.6956820487976074,-0.5076600313186646,-589.0,-51.0,-55.053165435791016,-13.262826919555664,0,0,0,40000
289294,3.4361071586608887,-0.5390048623085022,-581.0,-78.0,-54.84931564331055,-11.81157112121582,0,0,0,40000
289304,3.03627610206604,-0.5920905470848083,-584.0,-67.0,-54.51361846923828,-9.508487701416016,0,0,0,40000
289314,2.7733397483825684,-0.6250577569007874,-567.0,-79.0,-54.297462463378906,-8.017227172851562,0,0,0,40000
289324,2.3868393898010254,-0.6907212734222412,-531.0,-88.0,-53.88357925415039,-5.774386405944824,0,0,0,40000
289334,2.1479668617248535,-0.7463471293449402,-519.0,-105.0,-53.528114318847656,-4.408451080322266,0,0,0,40000
289344,1.8102550506591797,-0.8145899772644043,-483.0,-79.0,-53.09505081176758,-2.440463066101074,0,0,0,40000
289354,1.6134119033813477,-0.8464648723602295,-410.0,-67.0,-52.8787727355957,-1.3100957870483398,0,0,0,40000
289364,1.3599891662597656,-0.8916921019554138,-343.0,-52.0,-52.581199645996094,0.16675853729248047,0,0,0,40000
289374,1.2192978858947754,-0.9170922636985779,-267.0,-56.0,-52.401588439941406,0.9727287292480469,0,0,0,40000
289384,1.0435566902160645,-0.9626263976097107,-210.0,-73.0,-52.100067138671875,1.993917465209961,0,0,0,40000
289394,0.9541104435920715,-1.003684401512146,-140.0,-85.0,-51.824127197265625,2.5009593963623047,0,0,0,40000
289404,0.8690730929374695,-1.0536178350448608,-65.0,-49.0,-51.49346160888672,2.9842395782470703,0,0,0,40000
289414,0.8422598242759705,-1.0845963954925537,-41.0,-70.0,-51.27545928955078,3.1195178031921387,0,0,0,40000
289424,0.8408968448638916,-1.1298120021820068,30.0,-40.0,-50.97074508666992,3.1026530265808105,0,0,0,40000
289434,0.8710264563560486,-1.146886944770813,66.0,-3.0,-50.83407211303711,2.896146297454834,0,0,0,40000
289444,0.9221416711807251,-1.1663366556167603,109.0,1.0,-50.682621002197266,2.5625076293945312,0,0,0,40000
289454,0.9766685962677002,-1.1675617694854736,124.0,22.0,-50.64022445678711,2.206704616546631,0,0,0,40000
289464,1.0713295936584473,-1.137619972229004,154.0,50.0,-50.78533172607422,1.6077919006347656,0,0,0,40000
289474,1.149741768836975,-1.1141233444213867,170.0,55.0,-50.892616271972656,1.103759765625,0,0,0,40000
289484,1.2769044637680054,-1.083125352859497,188.0,49.0,-51.04572296142578,0.3040447235107422,0,0,0,40000
289494,1.3671499490737915,-1.0639584064483643,203.0,42.0,-51.12858963012695,-0.2773160934448242,0,0,0,40000
289504,1.5023703575134277,-1.0350960493087769,198.0,56.0,-51.27033615112305,-1.1320710182189941,0,0,0,40000
289514,1.589270830154419,-1.0052239894866943,181.0,64.0,-51.41904830932617,-1.7001228332519531,0,0,0,40000
289524,1.7064831256866455,-0.9662447571754456,179.0,70.0,-51.6234130859375,-2.4531688690185547,0,0,0,40000
289534,1.7833086252212524,-0.9273678660392761,166.0,83.0,-51.828369140625,-2.966693878173828,0,0,0,40000
289544,1.886322259902954,-0.9043634533882141,124.0,20.0,-51.939170837402344,-3.640242576599121,0,0,0,40000
289554,1.9362365007400513,-0.8891154527664185,106.0,21.0,-52.00379943847656,-3.997218132019043,0,0,0,40000
289564,2.0043585300445557,-0.8938224911689758,54.0,-9.0,-51.94887924194336,-4.465336799621582,0,0,0,40000
289574,2.0289711952209473,-0.8991385698318481,39.0,-5.0,-51.890045166015625,-4.673591613769531,0,0,0,40000
289584,2.0476737022399902,-0.8940319418907166,18.0,19.0,-51.89374923706055,-4.847053527832031,0,0,0,40000
289594,2.0463197231292725,-0.8911178112030029,-15.0,24.0,-51.884498596191406,-4.9003448486328125,0,0,0,40000
289604,2.0203495025634766,-0.8835235834121704,-41.0,-1.0,-51.903533935546875,-4.805512428283691,0,0,0,40000
289614,1.9868195056915283,-0.895104706287384,-77.0,-23.0,-51.807350158691406,-4.664368629455566,0,0,0,40000
289624,1.935910940170288,-0.9051286578178406,-88.0,-11.0,-51.720115661621094,-4.417576789855957,0,0,0,40000
289634,1.8929334878921509,-0.9181782603263855,-105.0,-35.0,-51.61445617675781,-4.217039108276367,0,0,0,40000
289644,1.8218576908111572,-0.9356431365013123,-110.0,-37.0,-51.48178482055664,-3.846135139465332,0,0,0,40000
289654,1.7704130411148071,-0.9626913070678711,-118.0,-39.0,-51.290924072265625,-3.5912065505981445,0,0,0,40000
289664,1.6809828281402588,-0.9848603010177612,-135.0,-13.0,-51.1285514831543,-3.106210231781006,0,0,0,40000
289674,1.6194944381713867,-0.990743100643158,-133.0,0.0,-51.0635986328125,-2.786623954772949,0,0,0,40000
289684,1.529504656791687,-0.986730694770813,-129.0,30.0,-51.0579719543457,-2.293607711791992,0,0,0,40000
289694,1.469409704208374,-0.9680218696594238,-136.0,66.0,-51.14093017578125,-1.9778594970703125,0,0,0,40000
289704,1.3746155500411987,-0.9206518530845642,-127.0,61.0,-51.396995544433594,-1.4514861106872559,0,0,0,40000
289714,1.311488151550293,-0.8964260220527649,-130.0,54.0,-51.51516342163086,-1.112833023071289,0,0,0,40000
289724,1.2290825843811035,-0.8738803267478943,-114.0,38.0,-51.6240119934082,-0.6562032699584961,0,0,0,40000
289734,1.1766525506973267,-0.8533819317817688,-106.0,61.0,-51.721126556396484,-0.37755489349365234,0,0,0,40000
289744,1.1003996133804321,-0.8124256134033203,-97.0,63.0,-51.94204330444336,0.04608011245727539,0,0,0,40000
289754,1.0611450672149658,-0.7939806580543518,-66.0,27.0,-52.02864456176758,0.24933767318725586,0,0,0,40000
289764,1.0016992092132568,-0.7869605422019958,-82.0,20.0,-52.04710388183594,0.5752472877502441,0,0,0,40000
289774,0.9690777659416199,-0.7761735916137695,-63.0,23.0,-52.08839416503906,0.7415266036987305,0,0,0,40000
289784,0.9264289140701294,-0.7418103814125061,-51.0,62.0,-52.27182388305664,0.969182014465332,0,0,0,40000
289794,0.9078853130340576,-0.709222674369812,-30.0,75.0,-52.44566345214844,1.0529999732971191,0,0,0,40000
289804,0.8833463191986084,-0.6701951622962952,-28.0,60.0,-52.65934753417969,1.1734461784362793,0,0,0,40000
289814,0.8857803344726562,-0.6556352972984314,16.0,23.0,-52.726871490478516,1.1323232650756836,0,0,0,40000
289824,0.9002756476402283,-0.6374064683914185,17.0,50.0,-52.81684494018555,1.018531322479248,0,0,0,40000
289834,0.9172357320785522,-0.6080237030982971,45.0,76.0,-52.974510192871094,0.8894767761230469,0,0,0,40000
289844,0.9532460570335388,-0.5555697083473206,48.0,64.0,-53.271995544433594,0.6452059745788574,0,0,0,40000
289854,0.9826123118400574,-0.5337693095207214,65.0,61.0,-53.386497497558594,0.4398975372314453,0,0,0,40000
289864,1.029616355895996,-0.48771047592163086,61.0,64.0,-53.64764404296875,0.12756872177124023,0,0,0,40000
289874,1.0625102519989014,-0.4618172347545624,66.0,56.0,-53.788841247558594,-0.10127401351928711,0,0,0,40000
289884,1.1193163394927979,-0.4289793074131012,93.0,61.0,-53.972618103027344,-0.47496747970581055,0,0,0,40000
289894,1.1583210229873657,-0.40604516863822937,75.0,53.0,-54.09779357910156,-0.743290901184082,0,0,0,40000
289904,1.2082033157348633,-0.3672159016132355,89.0,63.0,-54.31926345825195,-1.078235149383545,0,0,0,40000
289914,1.2462915182113647,-0.34091445803642273,58.0,38.0,-54.46656036376953,-1.3437681198120117,0,0,0,40000
289924,1.2845642566680908,-0.31595322489738464,66.0,27.0,-54.606571197509766,-1.6114935874938965,0,0,0,40000
289934,1.3029193878173828,-0.31090623140335083,55.0,3.0,-54.62748718261719,-1.7604970932006836,0,0,0,40000
289944,1.3252887725830078,-0.32253047823905945,26.0,-6.0,-54.54825210571289,-1.9342775344848633,0,0,0,40000
289954,1.344512939453125,-0.32205209136009216,28.0,-1.0,-54.54143142700195,-2.0897583961486816,0,0,0,40000
289964,1.3626066446304321,-0.3246564567089081,-15.0,10.0,-54.51611328125,-2.2391467094421387,0,0,0,40000
289974,1.363552212715149,-0.31795236468315125,-15.0,2.0,-54.546722412109375,-2.2857179641723633,0,0,0,40000
289984,1.3573706150054932,-0.3045212924480438,-2.0,18.0,-54.61800003051758,-2.289397716522217,0,0,0,40000
289994,1.339477300643921,-0.30772334337234497,-11.0,3.0,-54.589603424072266,-2.2224225997924805,0,0,0,40000
290004,1.318063497543335,-0.3196609616279602,-36.0,-26.0,-54.508609771728516,-2.133819103240967,0,0,0,40000
290014,1.3002266883850098,-0.34307682514190674,-61.0,-54.0,-54.358131408691406,-2.0660533905029297,0,0,0,40000
290024,1.2685562372207642,-0.3754488229751587,-49.0,-27.0,-54.15293502807617,-1.9144706726074219,0,0,0,40000
290034,1.2467070817947388,-0.3821595013141632,-50.0,-15.0,-54.10127258300781,-1.8210349082946777,0,0,0,40000
290044,1.2055919170379639,-0.38140609860420227,-50.0,10.0,-54.094303131103516,-1.6109647750854492,0,0,0,40000
290054,1.1804829835891724,-0.38076528906822205,-55.0,9.0,-54.08671569824219,-1.4960517883300781,0,0,0,40000
290064,1.133988618850708,-0.3849852383136749,-83.0,0.0,-54.049930572509766,-1.251758098602295,0,0,0,40000
290074,1.1026877164840698,-0.3829347789287567,-71.0,13.0,-54.05070877075195,-1.0974006652832031,0,0,0,40000
290084,1.062130331993103,-0.37268179655075073,-63.0,19.0,-54.100914001464844,-0.8863992691040039,0,0,0,40000
290094,1.0311607122421265,-0.3755922019481659,-63.0,-6.0,-54.07223129272461,-0.7318429946899414,0,0,0,40000
290104,0.9890851378440857,-0.38533830642700195,-48.0,-12.0,-54.002296447753906,-0.5094618797302246,0,0,0,40000
290114,0.9509551525115967,-0.3926370441913605,-98.0,-33.0,-53.946842193603516,-0.3097062110900879,0,0,0,40000
290124,0.8983288407325745,-0.4225580394268036,-82.0,-51.0,-53.75502014160156,-0.021522045135498047,0,0,0,40000
290134,0.8683817386627197,-0.45617979764938354,-67.0,-53.0,-53.540008544921875,0.13176584243774414,0,0,0,40000
290144,0.8296701312065125,-0.49437904357910156,-26.0,-51.0,-53.29633712768555,0.33885860443115234,0,0,0,40000
290154,0.8111375570297241,-0.509080171585083,-34.0,1.0,-53.193023681640625,0.42553138732910156,0,0,0,40000
290164,0.7605452537536621,-0.5055142045021057,-56.0,-5.0,-53.19926834106445,0.7056674957275391,0,0,0,40000
290174,0.7299880385398865,-0.5110489130020142,-75.0,-16.0,-53.15080642700195,0.8667230606079102,0,0,0,40000
290184,0.690288245677948,-0.5200696587562561,-52.0,-6.0,-53.0811653137207,1.08378267288208,0,0,0,40000
290194,0.6773874759674072,-0.5188928842544556,-29.0,5.0,-53.07262420654297,1.1407208442687988,0,0,0,40000
290204,0.652779757976532,-0.5246561169624329,-25.0,-13.0,-53.02238845825195,1.2685003280639648,0,0,0,40000
290214,0.6392110586166382,-0.5380057096481323,-31.0,-17.0,-52.92631530761719,1.330592393875122,0,0,0,40000
290224,0.627842366695404,-0.5587412714958191,-13.0,-26.0,-52.785400390625,1.3798508644104004,0,0,0,40000
290234,0.6294437050819397,-0.5701810121536255,-3.0,-12.0,-52.69975662231445,1.3513731956481934,0,0,0,40000
290244,0.630403459072113,-0.5938489437103271,0.0,-39.0,-52.54026794433594,1.3267168998718262,0,0,0,40000
290254,0.639624297618866,-0.6069164872169495,27.0,-43.0,-52.44383239746094,1.2523388862609863,0,0,0,40000
290264,0.6607946157455444,-0.6345865726470947,20.0,-55.0,-52.259185791015625,1.105701208114624,0,0,0,40000
290274,0.6801502108573914,-0.6490315794944763,35.0,-14.0,-52.153228759765625,0.9694032669067383,0,0,0,40000
290284,0.7163107395172119,-0.6823185086250305,74.0,-34.0,-51.933372497558594,0.7315378189086914,0,0,0,40000
290294,0.7499961853027344,-0.7085917592048645,99.0,-79.0,-51.75483703613281,0.5073466300964355,0,0,0,40000
290304,0.823286235332489,-0.7541187405586243,114.0,-55.0,-51.4595947265625,0.04376029968261719,0,0,0,40000
290314,0.8747419714927673,-0.7721146941184998,103.0,-30.0,-51.32865905761719,-0.29062366485595703,0,0,0,40000
290324,0.9613667130470276,-0.7713953256607056,132.0,24.0,-51.3096923828125,-0.8381352424621582,0,0,0,40000
290334,1.027308702468872,-0.7529526948928833,165.0,52.0,-51.39753341674805,-1.2637910842895508,0,0,0,40000
290344,1.1353343725204468,-0.7107659578323364,174.0,80.0,-51.62876892089844,-1.944636344909668,0,0,0,40000
290354,1.2115223407745361,-0.6611199378967285,181.0,126.0,-51.90617370605469,-2.4371938705444336,0,0,0,40000
290364,1.3305437564849854,-0.5657429695129395,176.0,153.0,-52.46027755737305,-3.189854145050049,0,0,0,40000
290374,1.4158635139465332,-0.49776148796081543,189.0,141.0,-52.85246276855469,-3.743236541748047,0,0,0,40000
290384,1.5493056774139404,-0.40135329961776733,189.0,134.0,-53.417755126953125,-4.588789463043213,0,0,0,40000
290394,1.6338963508605957,-0.3434453010559082,186.0,135.0,-53.75419998168945,-5.144313812255859,0,0,0,40000
290404,1.7579689025878906,-0.255616158246994,182.0,130.0,-54.27244567871094,-5.940009117126465,0,0,0,40000
290414,1.8248350620269775,-0.188423290848732,155.0,141.0,-54.669158935546875,-6.395151138305664,0,0,0,40000
290424,1.9266656637191772,-0.10430137813091278,151.0,106.0,-55.169822692871094,-7.062712669372559,0,0,0,40000
290434,1.9870433807373047,-0.08172479271888733,126.0,39.0,-55.302608489990234,-7.483854293823242,0,0,0,40000
290444,2.063386917114258,-0.0675477683544159,113.0,32.0,-55.38544845581055,-8.002923965454102,0,0,0,40000
290454,2.108344793319702,-0.0632215067744255,97.0,16.0,-55.40947341918945,-8.335396766662598,0,0,0,40000
290464,2.1608164310455322,-0.04447118565440178,58.0,23.0,-55.52041244506836,-8.714496612548828,0,0,0,40000
290474,2.1876072883605957,-0.023088395595550537,36.0,53.0,-55.64777755737305,-8.940566062927246,0,0,0,40000
290484,2.1996161937713623,-0.01873059757053852,-6.0,-28.0,-55.673431396484375,-9.07856559753418,0,0,0,40000
290494,2.2040627002716064,-0.031081901863217354,-8.0,-49.0,-55.598533630371094,-9.171293258666992,0,0,0,40000
290504,2.182117223739624,-0.07007566839456558,-37.0,-56.0,-55.36293029785156,-9.105379104614258,0,0,0,40000
290514,2.1572086811065674,-0.10450585931539536,-66.0,-68.0,-55.153656005859375,-9.020974159240723,0,0,0,40000
290524,2.1035842895507812,-0.16321952641010284,-92.0,-86.0,-54.79718017578125,-8.763051986694336,0,0,0,40000
290534,2.055640459060669,-0.21736057102680206,-110.0,-126.0,-54.46651077270508,-8.537659645080566,0,0,0,40000
290544,1.97694993019104,-0.32676246762275696,-110.0,-164.0,-53.80166244506836,-8.125749588012695,0,0,0,40000
290554,1.9260692596435547,-0.39879921078681946,-114.0,-152.0,-53.358333587646484,-7.878843307495117,0,0,0,40000
290564,1.8282599449157715,-0.4956587553024292,-151.0,-112.0,-52.76333999633789,-7.348117828369141,0,0,0,40000
290574,1.7541730403900146,-0.5298171043395996,-177.0,-78.0,-52.54290771484375,-6.957149505615234,0,0,0,40000
290584,1.6339327096939087,-0.574307382106781,-186.0,-50.0,-52.259281158447266,-6.286227226257324,0,0,0,40000
290594,1.550976037979126,-0.5960917472839355,-178.0,-37.0,-52.1109619140625,-5.836009502410889,0,0,0,40000
290604,1.4288666248321533,-0.6131964921951294,-166.0,3.0,-51.99002456665039,-5.147646903991699,0,0,0,40000
290614,1.3470603227615356,-0.5931670069694519,-166.0,67.0,-52.09212875366211,-4.698203086853027,0,0,0,40000
290624,1.2267423868179321,-0.5444762706756592,-173.0,103.0,-52.36727523803711,-4.01453161239624,0,0,0,40000
290634,1.155346155166626,-0.5069887042045593,-207.0,75.0,-52.576560974121094,-3.6217167377471924,0,0,0,40000
290644,1.0334446430206299,-0.4586663544178009,-166.0,54.0,-52.85224914550781,-2.922659397125244,0,0,0,40000
290654,0.9564361572265625,-0.423762708902359,-160.0,100.0,-53.04850769042969,-2.490220069885254,0,0,0,40000
290664,0.8496145606040955,-0.3403696119785309,-159.0,139.0,-53.53762435913086,-1.8761053085327148,0,0,0,40000
290674,0.7711679339408875,-0.28830859065055847,-147.0,110.0,-53.840736389160156,-1.4294931888580322,0,0,0,40000
290684,0.6747992038726807,-0.20623581111431122,-156.0,130.0,-54.325984954833984,-0.8726973533630371,0,0,0,40000
290694,0.6199829578399658,-0.17082396149635315,-124.0,76.0,-54.53291702270508,-0.5630514621734619,0,0,0,40000
290704,0.5538849830627441,-0.10636645555496216,-88.0,124.0,-54.91554260253906,-0.18382835388183594,0,0,0,40000
290714,0.5119531154632568,-0.0508936382830143,-92.0,121.0,-55.246192932128906,0.05190253257751465,0,0,0,40000
290724,0.4557950496673584,0.0005948076141066849,-58.0,59.0,-55.55461883544922,0.37462759017944336,0,0,0,40000
290734,0.4216373562812805,0.030830498784780502,-50.0,86.0,-55.736572265625,0.5665271282196045,0,0,0,40000
290744,0.39621418714523315,0.08138211816549301,-35.0,85.0,-56.04176712036133,0.706881046295166,0,0,0,40000
290754,0.38070446252822876,0.11982463300228119,-43.0,111.0,-56.275516510009766,0.7883236408233643,0,0,0,40000
290764,0.357786625623703,0.1952018141746521,-15.0,116.0,-56.73272705078125,0.9149305820465088,0,0,0,40000
290774,0.34070733189582825,0.23632411658763885,-7.0,85.0,-56.9860725402832,1.0069925785064697,0,0,0,40000
290784,0.3304813504219055,0.26724663376808167,-1.0,28.0,-57.179378509521484,1.0583440065383911,0,0,0,40000
290794,0.3317890167236328,0.2715250253677368,12.0,0.0,-57.213138580322266,1.040564775466919,0,0,0,40000
290804,0.3424025774002075,0.2800040543079376,-13.0,20.0,-57.27235412597656,0.9666135311126709,0,0,0,40000
290814,0.35365018248558044,0.2910861372947693,21.0,26.0,-57.34743118286133,0.8886568546295166,0,0,0,40000
290824,0.37423428893089294,0.31324052810668945,40.0,24.0,-57.48957061767578,0.7542400360107422,0,0,0,40000
290834,0.39718469977378845,0.32048097252845764,64.0,22.0,-57.54253387451172,0.6049308776855469,0,0,0,40000
290844,0.4520378112792969,0.32613426446914673,83.0,-2.0,-57.586238861083984,0.2629244327545166,0,0,0,40000
290854,0.4811185598373413,0.32007279992103577,59.0,-11.0,-57.55955123901367,0.0743095874786377,0,0,0,40000
290864,0.5180982351303101,0.31239238381385803,73.0,-24.0,-57.520999908447266,-0.15976238250732422,0,0,0,40000
290874,0.5802132487297058,0.2943851351737976,95.0,-31.0,-57.42205047607422,-0.5490503311157227,0,0,0,40000
290884,0.6209043860435486,0.2756844162940979,106.0,-12.0,-57.318328857421875,-0.8113236427307129,0,0,0,40000
290894,0.6903200745582581,0.26024895906448364,102.0,-3.0,-57.23369598388672,-1.2477293014526367,0,0,0,40000
290904,0.7384819388389587,0.269487202167511,109.0,48.0,-57.29706573486328,-1.558302402496338,0,0,0,40000
290914,0.8131818771362305,0.30832022428512573,111.0,65.0,-57.538848876953125,-2.0300216674804688,0,0,0,40000
290924,0.8747705221176147,0.32488366961479187,121.0,9.0,-57.64777755737305,-2.4250400066375732,0,0,0,40000
290934,0.9634904265403748,0.3131376802921295,125.0,-34.0,-57.58695983886719,-2.985180616378784,0,0,0,40000
290944,1.0097023248672485,0.2873344421386719,129.0,-22.0,-57.44105529785156,-3.292177677154541,0,0,0,40000
290954,1.0891050100326538,0.26766839623451233,141.0,0.0,-57.331336975097656,-3.800304412841797,0,0,0,40000
290964,1.1393722295761108,0.28529369831085205,95.0,69.0,-57.445369720458984,-4.135547637939453,0,0,0,40000
290974,1.2036198377609253,0.34597721695899963,71.0,96.0,-57.81905746459961,-4.556430339813232,0,0,0,40000
290984,1.2454125881195068,0.3946757912635803,61.0,89.0,-58.122501373291016,-4.844027042388916,0,0,0,40000
290994,1.2837549448013306,0.4436351954936981,44.0,88.0,-58.428993225097656,-5.112131118774414,0,0,0,40000
291004,1.3048808574676514,0.4790942668914795,43.0,74.0,-58.65571212768555,-5.277756690979004,0,0,0,40000
291014,1.317115068435669,0.5330777168273926,29.0,90.0,-58.994930267333984,-5.39055061340332,0,0,0,40000
291024,1.3151806592941284,0.5728766918182373,-7.0,68.0,-59.25047302246094,-5.418448448181152,0,0,0,40000
291034,1.3070826530456543,0.598838210105896,-17.0,4.0,-59.42403793334961,-5.409206390380859,0,0,0,40000
291044,1.3040295839309692,0.5915306210517883,-18.0,-12.0,-59.39801025390625,-5.430035591125488,0,0,0,40000
291054,1.29221773147583,0.5818716883659363,-23.0,6.0,-59.35757827758789,-5.39808464050293,0,0,0,40000
291064,1.2708334922790527,0.5741562247276306,-26.0,-5.0,-59.32861328125,-5.308163642883301,0,0,0,40000
291074,1.2331492900848389,0.5681277513504028,-54.0,-12.0,-59.30958557128906,-5.119563102722168,0,0,0,40000
291084,1.2084418535232544,0.5536861419677734,-68.0,-31.0,-59.23974609375,-5.00787353515625,0,0,0,40000
291094,1.1674613952636719,0.5172842144966125,-58.0,-38.0,-59.03733444213867,-4.797488212585449,0,0,0,40000
291104,1.1332353353500366,0.49981340765953064,-98.0,-45.0,-58.947731018066406,-4.626570224761963,0,0,0,40000
291114,1.082836627960205,0.48029282689094543,-57.0,-18.0,-58.845184326171875,-4.357136249542236,0,0,0,40000
291124,1.0482745170593262,0.46199122071266174,-65.0,-53.0,-58.74949645996094,-4.181643009185791,0,0,0,40000
291134,0.9941304922103882,0.4199857711791992,-91.0,-58.0,-58.51054382324219,-3.8873298168182373,0,0,0,40000
291144,0.9580545425415039,0.40779733657836914,-93.0,0.0,-58.44978713989258,-3.7000579833984375,0,0,0,40000
291154,0.9006052613258362,0.4304589331150055,-59.0,64.0,-58.59824752807617,-3.3830111026763916,0,0,0,40000
291164,0.8532693982124329,0.4554549753665924,-86.0,66.0,-58.761573791503906,-3.1251840591430664,0,0,0,40000
291174,0.7879466414451599,0.5009716153144836,-93.0,71.0,-59.049095153808594,-2.7576704025268555,0,0,0,40000
291184,0.7472714781761169,0.5366817712783813,-103.0,89.0,-59.27901840209961,-2.5365419387817383,0,0,0,40000
291194,0.6756507754325867,0.592556357383728,-92.0,63.0,-59.63139724731445,-2.1279141902923584,0,0,0,40000
291204,0.6309142708778381,0.6375182271003723,-107.0,106.0,-59.91973114013672,-1.8790162801742554,0,0,0,40000
291214,0.5550602078437805,0.7159131765365601,-117.0,157.0,-60.410560607910156,-1.4415016174316406,0,0,0,40000
291224,0.5074948668479919,0.7907729744911194,-100.0,158.0,-60.88255310058594,-1.1718612909317017,0,0,0,40000
291234,0.42461615800857544,0.9011660218238831,-110.0,168.0,-61.57061004638672,-0.6883096694946289,0,0,0,40000
291244,0.3769078254699707,0.9790217280387878,-102.0,127.0,-62.06622314453125,-0.41393280029296875,0,0,0,40000
291254,0.2954917848110199,1.052970290184021,-117.0,85.0,-62.54072189331055,0.06465959548950195,0,0,0,40000
291264,0.2504483163356781,1.0954017639160156,-126.0,70.0,-62.82769775390625,0.32687318325042725,0,0,0,40000
291274,0.16337735950946808,1.1497206687927246,-126.0,109.0,-63.18740463256836,0.8433386087417603,0,0,0,40000
291284,0.11447533965110779,1.1941335201263428,-105.0,46.0,-63.489200592041016,1.1327414512634277,0,0,0,40000
291294,0.027605565264821053,1.2129591703414917,-131.0,38.0,-63.63840866088867,1.6519980430603027,0,0,0,40000
291304,-0.026560842990875244,1.2276010513305664,-104.0,71.0,-63.76287841796875,1.9771603345870972,0,0,0,40000
291314,-0.091318778693676,1.2729445695877075,-111.0,64.0,-64.0726547241211,2.3676726818084717,0,0,0,40000
291324,-0.132328599691391,1.3047555685043335,-93.0,57.0,-64.30224609375,2.617264747619629,0,0,0,40000
291334,-0.19954553246498108,1.327404260635376,-64.0,7.0,-64.47779846191406,3.0258166790008545,0,0,0,40000
291344,-0.2340773344039917,1.3100614547729492,-68.0,-33.0,-64.4133071899414,3.2395830154418945,0,0,0,40000
291354,-0.26953333616256714,1.289386510848999,-57.0,-22.0,-64.32813262939453,3.4599852561950684,0,0,0,40000
291364,-0.28362417221069336,1.2695308923721313,-34.0,-20.0,-64.247314453125,3.552884817123413,0,0,0,40000
291374,-0.2947781980037689,1.2528817653656006,0.0,-18.0,-64.18524932861328,3.628606081008911,0,0,0,40000
291384,-0.3017369210720062,1.2340283393859863,0.0,-41.0,-64.10936737060547,3.679335355758667,0,0,0,40000
291394,-0.2902773916721344,1.2042298316955566,30.0,-54.0,-63.967079162597656,3.619544506072998,0,0,0,40000
291404,-0.2760135233402252,1.175478458404541,24.0,-47.0,-63.83019256591797,3.542409896850586,0,0,0,40000
291414,-0.2436547875404358,1.1608670949935913,65.0,-8.0,-63.77741241455078,3.3560404777526855,0,0,0,40000
291424,-0.2154664695262909,1.1524596214294434,57.0,-18.0,-63.76165771484375,3.1937170028686523,0,0,0,40000
291434,-0.1677241176366806,1.1205871105194092,99.0,-66.0,-63.60451889038086,2.9129886627197266,0,0,0,40000
291444,-0.1289013922214508,1.0917446613311768,75.0,-73.0,-63.46455764770508,2.6843550205230713,0,0,0,40000
291454,-0.07410728931427002,1.0485398769378662,91.0,-22.0,-63.23725509643555,2.358456611633301,0,0,0,40000
291464,-0.02112509310245514,1.037773847579956,94.0,-20.0,-63.20389175415039,2.041818141937256,0,0,0,40000
291474,0.04370930418372154,1.0151299238204956,79.0,-34.0,-63.09880065917969,1.6522501707077026,0,0,0,40000
291484,0.09353857487440109,0.999203085899353,101.0,-25.0,-63.03339385986328,1.351116418838501,0,0,0,40000
291494,0.13129039108753204,1.0037322044372559,86.0,4.0,-63.0905876159668,1.1210424900054932,0,0,0,40000
291504,0.17365241050720215,0.9999663829803467,103.0,-8.0,-63.09805679321289,0.8621599674224854,0,0,0,40000
291514,0.23987747728824615,0.993788480758667,91.0,1.0,-63.09086990356445,0.4583481550216675,0,0,0,40000
291524,0.28437456488609314,0.9912464022636414,76.0,1.0,-63.10537338256836,0.18335461616516113,0,0,0,40000
291534,0.34813469648361206,1.0035769939422607,87.0,31.0,-63.20927047729492,-0.20876002311706543,0,0,0,40000
291544,0.39389753341674805,1.0292078256607056,91.0,47.0,-63.3935546875,-0.49454963207244873,0,0,0,40000
291554,0.45420074462890625,1.0690711736679077,109.0,64.0,-63.664283752441406,-0.8692009449005127,0,0,0,40000
291564,0.4808367192745209,1.0948007106781006,85.0,56.0,-63.85118865966797,-1.0431562662124634,0,0,0,40000
291574,0.5348932147026062,1.1373919248580933,59.0,71.0,-64.14033508300781,-1.3829915523529053,0,0,0,40000
291584,0.5726720690727234,1.1669343709945679,63.0,56.0,-64.35224914550781,-1.626376986503601,0,0,0,40000
291594,0.6127865314483643,1.2075135707855225,37.0,67.0,-64.63143157958984,-1.8850218057632446,0,0,0,40000
291604,0.628827691078186,1.2264703512191772,41.0,42.0,-64.7817611694336,-1.9999090433120728,0,0,0,40000
291614,0.6544706225395203,1.2475206851959229,21.0,6.0,-64.94535827636719,-2.1731576919555664,0,0,0,40000
291624,0.6597566604614258,1.2583491802215576,22.0,32.0,-65.04795837402344,-2.2246291637420654,0,0,0,40000
291634,0.6587943434715271,1.277134656906128,-19.0,39.0,-65.19876861572266,-2.2388112545013428,0,0,0,40000
291644,0.6679877638816833,1.2895492315292358,-6.0,40.0,-65.3117446899414,-2.3139140605926514,0,0,0,40000
291654,0.6656895875930786,1.3283147811889648,-9.0,60.0,-65.58369445800781,-2.320080280303955,0,0,0,40000
291664,0.6599462032318115,1.361135482788086,9.0,85.0,-65.82106018066406,-2.3054628372192383,0,0,0,40000
291674,0.6497293710708618,1.4090927839279175,-24.0,46.0,-66.15064239501953,-2.263864755630493,0,0,0,40000
291684,0.6415932774543762,1.4272552728652954,-30.0,30.0,-66.30224609375,-2.234405755996704,0,0,0,40000
291694,0.6221491098403931,1.4358800649642944,-36.0,3.0,-66.39703369140625,-2.1366348266601562,0,0,0,40000
291704,0.6064046621322632,1.4173903465270996,-15.0,-19.0,-66.32884216308594,-2.060521125793457,0,0,0,40000
291714,0.5934546589851379,1.4130984544754028,-18.0,-1.0,-66.34550476074219,-2.0007805824279785,0,0,0,40000
291724,0.5857075452804565,1.414357304573059,-7.0,12.0,-66.39544677734375,-1.9719407558441162,0,0,0,40000
291734,0.5778548717498779,1.4145618677139282,-8.0,-19.0,-66.43914794921875,-1.9422637224197388,0,0,0,40000
291744,0.5708991289138794,1.3953874111175537,-28.0,-48.0,-66.36621856689453,-1.9177651405334473,0,0,0,40000
291754,0.5694148540496826,1.3584905862808228,23.0,-45.0,-66.18602752685547,-1.9258567094802856,0,0,0,40000
291764,0.5760451555252075,1.3358535766601562,13.0,-50.0,-66.09056091308594,-1.982832908630371,0,0,0,40000
291774,0.5775665640830994,1.2987059354782104,10.0,-40.0,-65.90702819824219,-2.0092055797576904,0,0,0,40000
291784,0.5804402232170105,1.2819174528121948,14.0,-40.0,-65.84493255615234,-2.0438363552093506,0,0,0,40000
291794,0.5855326056480408,1.2543222904205322,-18.0,-40.0,-65.71736145019531,-2.0920345783233643,0,0,0,40000
291804,0.5866872072219849,1.232654333114624,-18.0,-43.0,-65.6246109008789,-2.1165692806243896,0,0,0,40000
291814,0.5810338854789734,1.1993271112442017,-21.0,-55.0,-65.46107482910156,-2.100180149078369,0,0,0,40000
291824,0.5676229000091553,1.1741389036178589,2.0,-59.0,-65.34545135498047,-2.0368711948394775,0,0,0,40000
291834,0.5576527714729309,1.1318635940551758,-9.0,-56.0,-65.12628936767578,-1.9939011335372925,0,0,0,40000
291844,0.5485674738883972,1.1074665784835815,-17.0,-58.0,-65.01342010498047,-1.955986499786377,0,0,0,40000
291854,0.5388649702072144,1.0611464977264404,-31.0,-79.0,-64.76801300048828,-1.91415536403656,0,0,0,40000
291864,0.5288515090942383,1.0225355625152588,-45.0,-75.0,-64.56749725341797,-1.8700718879699707,0,0,0,40000
291874,0.519792377948761,0.9584415555000305,-7.0,-112.0,-64.2125473022461,-1.8313363790512085,0,0,0,40000
291884,0.5121608376502991,0.9124866724014282,1.0,-98.0,-63.964698791503906,-1.8009698390960693,0,0,0,40000
291894,0.4979209303855896,0.8435471653938293,-6.0,-97.0,-63.57718276977539,-1.7306411266326904,0,0,0,40000
291904,0.49233245849609375,0.8069795370101929,-26.0,-63.0,-63.38241195678711,-1.7119871377944946,0,0,0,40000
291914,0.48489874601364136,0.7712798714637756,-12.0,-46.0,-63.191802978515625,-1.6820427179336548,0,0,0,40000
291924,0.4824092984199524,0.7543672919273376,-22.0,-4.0,-63.11313247680664,-1.6816091537475586,0,0,0,40000
291934,0.48411160707473755,0.7428861260414124,25.0,-13.0,-63.0666618347168,-1.7061612606048584,0,0,0,40000
291944,0.4810488820075989,0.7303383946418762,8.0,-32.0,-63.013431549072266,-1.7022416591644287,0,0,0,40000
291954,0.4805370271205902,0.6975427865982056,7.0,-54.0,-62.83802795410156,-1.7135865688323975,0,0,0,40000
291964,0.480949729681015,0.6729429364204407,1.0,-45.0,-62.710899353027344,-1.7305070161819458,0,0,0,40000
291974,0.5009642839431763,0.6256500482559204,22.0,-70.0,-62.446571350097656,-1.8653932809829712,0,0,0,40000
291984,0.5147151947021484,0.5909478068351746,29.0,-60.0,-62.25648498535156,-1.9631845951080322,0,0,0,40000
291994,0.5181928873062134,0.569259524345398,5.0,-13.0,-62.14360046386719,-1.9996094703674316,0,0,0,40000
292004,0.5191637873649597,0.5598927736282349,8.0,-26.0,-62.10429382324219,-2.020982265472412,0,0,0,40000
292014,0.5278076529502869,0.5556021928787231,7.0,20.0,-62.09514236450195,-2.088578224182129,0,0,0,40000
292024,0.5303868055343628,0.5598528981208801,10.0,1.0,-62.13740539550781,-2.1199183464050293,0,0,0,40000
292034,0.548151969909668,0.548304557800293,24.0,-44.0,-62.084800720214844,-2.2426838874816895,0,0,0,40000
292044,0.5611349940299988,0.529098629951477,26.0,-36.0,-61.985652923583984,-2.337229013442993,0,0,0,40000
292054,0.5749013423919678,0.5009821057319641,26.0,-44.0,-61.83235549926758,-2.436850070953369,0,0,0,40000
292064,0.5898409485816956,0.4762755036354065,44.0,-25.0,-61.69867706298828,-2.5439882278442383,0,0,0,40000
292074,0.6106782555580139,0.46436259150505066,0.0,-19.0,-61.641292572021484,-2.687236785888672,0,0,0,40000
292084,0.6193225383758545,0.4494268596172333,4.0,-39.0,-61.565345764160156,-2.757587194442749,0,0,0,40000
292094,0.6244577765464783,0.4403253197669983,-2.0,-17.0,-61.52408218383789,-2.807107925415039,0,0,0,40000
292104,0.6278747320175171,0.4357750117778778,13.0,-13.0,-61.509918212890625,-2.8463916778564453,0,0,0,40000
292114,0.6366321444511414,0.4065095782279968,6.0,-47.0,-61.3469123840332,-2.917914867401123,0,0,0,40000
292124,0.6416211128234863,0.39192846417427063,2.0,-29.0,-61.2713508605957,-2.96703839302063,0,0,0,40000
292134,0.6374693512916565,0.37746793031692505,0.0,-13.0,-61.1960563659668,-2.96132493019104,0,0,0,40000
292144,0.6390363574028015,0.3770909011363983,2.0,29.0,-61.2050666809082,-2.989882469177246,0,0,0,40000
292154,0.6346282362937927,0.3829144835472107,-4.0,-11.0,-61.2515983581543,-2.982581615447998,0,0,0,40000
292164,0.630247175693512,0.3800881803035736,2.0,0.0,-61.246097564697266,-2.9752402305603027,0,0,0,40000
292174,0.6343961954116821,0.376920610666275,16.0,3.0,-61.23838424682617,-3.019043445587158,0,0,0,40000
292184,0.6349073648452759,0.3833473026752472,0.0,17.0,-61.28834533691406,-3.0411553382873535,0,0,0,40000
292194,0.6250817775726318,0.3829297721385956,-15.0,-8.0,-61.29743194580078,-3.001089334487915,0,0,0,40000
292204,0.6224351525306702,0.37824225425720215,-4.0,2.0,-61.28071975708008,-3.0039048194885254,0,0,0,40000
292214,0.612170398235321,0.37414219975471497,-15.0,14.0,-61.2673454284668,-2.9608089923858643,0,0,0,40000
292224,0.6044352054595947,0.37361758947372437,-12.0,16.0,-61.2754020690918,-2.9326205253601074,0,0,0,40000
292234,0.5955045819282532,0.3845597803592682,-13.0,9.0,-61.35247802734375,-2.8969573974609375,0,0,0,40000
292244,0.5895922183990479,0.3845917284488678,-20.0,4.0,-61.364227294921875,-2.8792638778686523,0,0,0,40000
292254,0.5782634615898132,0.3994942605495453,-15.0,43.0,-61.46533966064453,-2.8287971019744873,0,0,0,40000
292264,0.5736988186836243,0.4184163510799408,-29.0,29.0,-61.59122848510742,-2.818721294403076,0,0,0,40000
292274,0.5508553981781006,0.42150643467903137,-41.0,10.0,-61.622379302978516,-2.698516845703125,0,0,0,40000
292284,0.5356720685958862,0.41889670491218567,-42.0,-27.0,-61.61933517456055,-2.6236844062805176,0,0,0,40000
292294,0.5098843574523926,0.40564966201782227,-38.0,-15.0,-61.55213928222656,-2.4845542907714844,0,0,0,40000
292304,0.4948025047779083,0.3921475112438202,-31.0,-13.0,-61.483055114746094,-2.4090585708618164,0,0,0,40000
292314,0.4733864367008209,0.3901877999305725,-17.0,11.0,-61.48291778564453,-2.294950008392334,0,0,0,40000
292324,0.4552569091320038,0.4032350480556488,-50.0,43.0,-61.5731086730957,-2.200059413909912,0,0,0,40000
292334,0.4110569655895233,0.4290461838245392,-63.0,31.0,-61.74053955078125,-1.9477434158325195,0,0,0,40000
292344,0.38806140422821045,0.44877877831459045,-46.0,36.0,-61.87217712402344,-1.8216742277145386,0,0,0,40000
292354,0.3439539670944214,0.47358906269073486,-71.0,45.0,-62.0349235534668,-1.5679030418395996,0,0,0,40000
292364,0.3211791515350342,0.4877138137817383,-54.0,34.0,-62.134132385253906,-1.4411522150039673,0,0,0,40000
292374,0.2808071970939636,0.48784661293029785,-56.0,6.0,-62.14952087402344,-1.2078156471252441,0,0,0,40000
292384,0.2484680861234665,0.4882548451423645,-66.0,-8.0,-62.16664123535156,-1.0216233730316162,0,0,0,40000
292394,0.20773117244243622,0.49321702122688293,-55.0,6.0,-62.21116256713867,-0.7839145660400391,0,0,0,40000
292404,0.17351581156253815,0.4853717088699341,-61.0,-14.0,-62.17875671386719,-0.5842347145080566,0,0,0,40000
292414,0.13314557075500488,0.47846224904060364,-57.0,-4.0,-62.15170669555664,-0.3465127944946289,0,0,0,40000
292424,0.10862131416797638,0.4796970784664154,-66.0,-1.0,-62.17353439331055,-0.20294839143753052,0,0,0,40000
292434,0.06903303414583206,0.4756432771682739,-48.0,14.0,-62.16346740722656,0.03206294775009155,0,0,0,40000
292444,0.04930616170167923,0.4722622334957123,-34.0,0.0,-62.157386779785156,0.14872154593467712,0,0,0,40000
292454,0.02043496072292328,0.4643957018852234,-48.0,-5.0,-62.12422561645508,0.3209408223628998,0,0,0,40000
292464,0.010088291950523853,0.46379438042640686,-29.0,-10.0,-62.13453674316406,0.3825927972793579,0,0,0,40000
292474,-0.01253645122051239,0.4619833528995514,-36.0,10.0,-62.13748550415039,0.518416166305542,0,0,0,40000
292484,-0.022771375253796577,0.46865352988243103,-15.0,5.0,-62.19150161743164,0.5804041028022766,0,0,0,40000
292494,-0.03571430966258049,0.45329585671424866,-27.0,-4.0,-62.113162994384766,0.6589178442955017,0,0,0,40000
292504,-0.04057726263999939,0.4476286470890045,15.0,-21.0,-62.09265899658203,0.6892988681793213,0,0,0,40000
292514,-0.027245109900832176,0.4270481467247009,28.0,-26.0,-61.98225784301758,0.6103894710540771,0,0,0,40000
292524,-0.015251528471708298,0.41398051381111145,10.0,-26.0,-61.91642761230469,0.5389833450317383,0,0,0,40000
292534,-0.009202457964420319,0.3868263065814972,-5.0,-30.0,-61.765438079833984,0.5029293894767761,0,0,0,40000
292544,0.010081863030791283,0.3649100959300995,33.0,-37.0,-61.64515686035156,0.387158066034317,0,0,0,40000
292554,0.03855033218860626,0.3399592339992523,47.0,-23.0,-61.50593566894531,0.2155577838420868,0,0,0,40000
292564,0.04942592233419418,0.3240181803703308,59.0,-31.0,-61.420223236083984,0.1489834487438202,0,0,0,40000
292574,0.0818573385477066,0.3090302646160126,49.0,-27.0,-61.33979415893555,-0.047701865434646606,0,0,0,40000
292584,0.10154259204864502,0.3172846734523773,35.0,43.0,-61.39872741699219,-0.16864550113677979,0,0,0,40000
292594,0.1233966127038002,0.33668407797813416,48.0,29.0,-61.523075103759766,-0.3026031255722046,0,0,0,40000
292604,0.15571413934230804,0.36161479353904724,29.0,41.0,-61.683170318603516,-0.5007888674736023,0,0,0,40000
292614,0.17347519099712372,0.37527984380722046,60.0,44.0,-61.7762565612793,-0.6123217344284058,0,0,0,40000
292624,0.19914519786834717,0.41133514046669006,55.0,69.0,-62.00444793701172,-0.7720214128494263,0,0,0,40000
292634,0.21353602409362793,0.4423336684703827,44.0,38.0,-62.203369140625,-0.8646212816238403,0,0,0,40000
292644,0.2399243265390396,0.4611086845397949,33.0,16.0,-62.32969284057617,-1.0298609733581543,0,0,0,40000
292654,0.25989478826522827,0.45747217535972595,13.0,-37.0,-62.32166290283203,-1.1572504043579102,0,0,0,40000
292664,0.2704741656780243,0.42972332239151,26.0,-41.0,-62.16838073730469,-1.228642463684082,0,0,0,40000
292674,0.2662239670753479,0.4122583270072937,4.0,-34.0,-62.07616424560547,-1.2111761569976807,0,0,0,40000
292684,0.261851966381073,0.4006512463092804,5.0,0.0,-62.01860809326172,-1.1928696632385254,0,0,0,40000
292694,0.2503093183040619,0.39310887455940247,-16.0,-9.0,-61.98524475097656,-1.1312952041625977,0,0,0,40000
292704,0.23486407101154327,0.3920113444328308,-40.0,5.0,-61.99040222167969,-1.0459516048431396,0,0,0,40000
292714,0.22337022423744202,0.3920775055885315,-47.0,29.0,-62.0025634765625,-0.9838161468505859,0,0,0,40000
292724,0.1953117996454239,0.4048372507095337,-56.0,0.0,-62.09117889404297,-0.8215941190719604,0,0,0,40000
292734,0.171320840716362,0.41297227144241333,-29.0,32.0,-62.15227127075195,-0.6830499172210693,0,0,0,40000
292744,0.1338104009628296,0.4554152190685272,-62.0,58.0,-62.420021057128906,-0.462562620639801,0,0,0,40000
292754,0.1062178835272789,0.485911101102829,-56.0,43.0,-62.61723327636719,-0.3005555272102356,0,0,0,40000
292764,0.055895447731018066,0.4980112314224243,-87.0,0.0,-62.7047233581543,-0.0009791553020477295,0,0,0,40000
292774,0.028587263077497482,0.49510833621025085,-68.0,-11.0,-62.70218276977539,0.1617085039615631,0,0,0,40000
292784,-0.00675103859975934,0.4707809090614319,-29.0,-49.0,-62.57070541381836,0.37365639209747314,0,0,0,40000
292794,-0.026580726727843285,0.4320794641971588,-13.0,-108.0,-62.35195541381836,0.49320268630981445,0,0,0,40000
292804,-0.03940154239535332,0.3405539095401764,-15.0,-127.0,-61.8141975402832,0.5710825324058533,0,0,0,40000
292814,-0.04561339318752289,0.2901371121406555,-2.0,-47.0,-61.52096939086914,0.6096518039703369,0,0,0,40000
292824,-0.05042235180735588,0.26101061701774597,-1.0,-30.0,-61.35440444946289,0.6399378776550293,0,0,0,40000
292834,-0.04281424731016159,0.24857363104820251,-3.0,21.0,-61.28736877441406,0.5956549644470215,0,0,0,40000
292844,-0.03947456181049347,0.24607901275157928,11.0,-14.0,-61.27989959716797,0.5768797993659973,0,0,0,40000
292854,-0.029190128669142723,0.23201555013656616,22.0,-33.0,-61.202659606933594,0.5161895751953125,0,0,0,40000
292864,-0.023396221920847893,0.220012828707695,1.0,-20.0,-61.137351989746094,0.48213058710098267,0,0,0,40000
292874,-0.017299234867095947,0.20963457226753235,1.0,-54.0,-61.08153533935547,0.4461321532726288,0,0,0,40000
292884,-0.01071530394256115,0.15992701053619385,21.0,-72.0,-60.78865432739258,0.40708082914352417,0,0,0,40000
292894,-0.010320281609892845,0.13047228753566742,-3.0,-66.0,-60.61616134643555,0.4049839675426483,0,0,0,40000
292904,-0.020706377923488617,0.07714217156171799,-15.0,-66.0,-60.29912567138672,0.4677560329437256,0,0,0,40000
292914,-0.03298138454556465,0.03565019741654396,-25.0,-112.0,-60.051795959472656,0.5422459244728088,0,0,0,40000
292924,-0.035773612558841705,-0.03945843130350113,7.0,-112.0,-59.60087203979492,0.5601020455360413,0,0,0,40000
292934,-0.03644543141126633,-0.08889766782522202,-3.0,-119.0,-59.30218505859375,0.5652236938476562,0,0,0,40000
292944,-0.03694519028067589,-0.1790042221546173,3.0,-127.0,-58.757266998291016,0.5693525671958923,0,0,0,40000
292954,-0.04266945272684097,-0.23603585362434387,-22.0,-108.0,-58.408668518066406,0.6048888564109802,0,0,0,40000
292964,-0.06088118255138397,-0.30090567469596863,0.0,-73.0,-58.01112747192383,0.7158358097076416,0,0,0,40000
292974,-0.06566160172224045,-0.33529677987098694,-8.0,-73.0,-57.79512405395508,0.7464451789855957,0,0,0,40000
292984,-0.07607156038284302,-0.39377561211586,-16.0,-66.0,-57.43316650390625,0.8110548257827759,0,0,0,40000
292994,-0.08655280619859695,-0.43443188071250916,-9.0,-54.0,-57.176692962646484,0.8764263391494751,0,0,0,40000
293004,-0.08615383505821228,-0.44043853878974915,-2.0,7.0,-57.127376556396484,0.8766462802886963,0,0,0,40000
293014,-0.09871293604373932,-0.43913429975509644,-10.0,-5.0,-57.122032165527344,0.9548078179359436,0,0,0,40000
293024,-0.11309199035167694,-0.4673002362251282,-15.0,-47.0,-56.93947219848633,1.0442699193954468,0,0,0,40000
293034,-0.11836528033018112,-0.49520888924598694,-4.0,-61.0,-56.75753402709961,1.0793914794921875,0,0,0,40000
293044,-0.13402946293354034,-0.5366794466972351,-31.0,-60.0,-56.49310302734375,1.1771079301834106,0,0,0,40000
293054,-0.14286616444587708,-0.561502993106842,-24.0,-45.0,-56.327598571777344,1.2343025207519531,0,0,0,40000
293064,-0.14930900931358337,-0.5885639190673828,2.0,-47.0,-56.14792251586914,1.2774333953857422,0,0,0,40000
293074,-0.1551511585712433,-0.6085781455039978,-31.0,-33.0,-56.00980758666992,1.3170398473739624,0,0,0,40000
293084,-0.16596601903438568,-0.6419708132743835,2.0,-29.0,-55.79059982299805,1.3868176937103271,0,0,0,40000
293094,-0.1717650592327118,-0.6434846520423889,-13.0,26.0,-55.76221466064453,1.4266676902770996,0,0,0,40000
293104,-0.18537332117557526,-0.6133670806884766,-4.0,73.0,-55.92405319213867,1.513730764389038,0,0,0,40000
293114,-0.1949562430381775,-0.5745595693588257,-12.0,86.0,-56.139190673828125,1.5769461393356323,0,0,0,40000
293124,-0.2046530693769455,-0.5395165085792542,-13.0,38.0,-56.33286666870117,1.6411553621292114,0,0,0,40000
293134,-0.20807220041751862,-0.5327636003494263,-25.0,0.0,-56.357337951660156,1.6678569316864014,0,0,0,40000
293144,-0.22805576026439667,-0.5401438474655151,-8.0,26.0,-56.2968635559082,1.7944157123565674,0,0,0,40000
293154,-0.23600232601165771,-0.5399094223976135,-37.0,11.0,-56.28208923339844,1.8490625619888306,0,0,0,40000
293164,-0.25338485836982727,-0.5304127335548401,-19.0,24.0,-56.32302474975586,1.960848331451416,0,0,0,40000
293174,-0.26133525371551514,-0.5130339860916138,-29.0,54.0,-56.41170883178711,2.0163207054138184,0,0,0,40000
293184,-0.28347399830818176,-0.48454782366752625,-23.0,47.0,-56.5677604675293,2.1574761867523193,0,0,0,40000
293194,-0.29855966567993164,-0.46406087279319763,-20.0,57.0,-56.676513671875,2.256775379180908,0,0,0,40000
293204,-0.32732507586479187,-0.42420995235443115,-43.0,63.0,-56.90236282348633,2.4387614727020264,0,0,0,40000
293214,-0.34246939420700073,-0.4009604752063751,-41.0,31.0,-57.02958679199219,2.539731502532959,0,0,0,40000
293224,-0.35949528217315674,-0.3852974772453308,-40.0,5.0,-57.111900329589844,2.6524977684020996,0,0,0,40000
293234,-0.3823451101779938,-0.39073559641838074,-23.0,0.0,-57.067623138427734,2.800827980041504,0,0,0,40000
293244,-0.40310701727867126,-0.3755020797252655,-19.0,63.0,-57.14737319946289,2.9372658729553223,0,0,0,40000
293254,-0.4132026731967926,-0.3539355397224426,-20.0,35.0,-57.265899658203125,3.010089159011841,0,0,0,40000
293264,-0.42073965072631836,-0.3208700120449066,-13.0,31.0,-57.45430374145508,3.067829132080078,0,0,0,40000
293274,-0.40716463327407837,-0.3081952929496765,-26.0,18.0,-57.52100372314453,2.9987289905548096,0,0,0,40000
293284,-0.4107166528701782,-0.30605316162109375,-8.0,7.0,-57.524658203125,3.032379150390625,0,0,0,40000
293294,-0.4044716954231262,-0.30728617310523987,21.0,6.0,-57.5080680847168,3.0071499347686768,0,0,0,40000
293304,-0.39833664894104004,-0.3027830123901367,34.0,25.0,-57.52592468261719,2.98240327835083,0,0,0,40000
293314,-0.3918134570121765,-0.2949688136577606,19.0,27.0,-57.5638427734375,2.955084800720215,0,0,0,40000
293324,-0.3708149492740631,-0.2759634852409363,28.0,12.0,-57.66939163208008,2.8404901027679443,0,0,0,40000
293334,-0.35565128922462463,-0.2673325836658478,39.0,26.0,-57.71305465698242,2.760383367538452,0,0,0,40000
293344,-0.32024991512298584,-0.23487496376037598,60.0,52.0,-57.90028381347656,2.5580835342407227,0,0,0,40000
293354,-0.2980000972747803,-0.21921035647392273,68.0,16.0,-57.98752975463867,2.4337985515594482,0,0,0,40000
293364,-0.2613251209259033,-0.2346905618906021,57.0,-22.0,-57.88788604736328,2.2219760417938232,0,0,0,40000
293374,-0.23119328916072845,-0.25758957862854004,69.0,-53.0,-57.7430534362793,2.0484838485717773,0,0,0,40000
293384,-0.18228314816951752,-0.30075502395629883,55.0,-77.0,-57.47555923461914,1.761059284210205,0,0,0,40000
293394,-0.15792426466941833,-0.3253766596317291,62.0,-33.0,-57.31834030151367,1.619957685470581,0,0,0,40000
293404,-0.12433791905641556,-0.3275020122528076,54.0,30.0,-237.4755859375,1.4225530624389648,0,30,0,40000
293414,-0.10436154156923294,-0.33289581537246704,25.0,-59.0,-238.00262451171875,1.3059945106506348,0,30,0,40000
293424,-0.07174179702997208,-0.41378161311149597,35.0,-191.0,-237.51730346679688,1.1128042936325073,0,30,0,40000
293434,-0.05084388703107834,-0.5742160081863403,37.0,-486.0,-236.55470275878906,0.989193856716156,0,30,0,40000
293444,-0.02907620370388031,-1.0001845359802246,29.0,-753.0,-233.99888610839844,0.8597077131271362,0,30,0,40000
293454,-0.02255825325846672,-1.3926728963851929,17.0,-959.0,-231.64395141601562,0.8213597536087036,0,30,0,40000
293464,-0.0068363007158041,-2.120152473449707,26.0,-1123.0,-227.27908325195312,0.7274013757705688,0,30,0,40000
293474,0.003383891424164176,-2.6857361793518066,-15.0,-1316.0,-223.88558959960938,0.6660696268081665,0,30,0,40000
293484,0.0066547691822052,-3.6170003414154053,16.0,-1395.0,-218.29800415039062,0.646385669708252,0,30,0,40000
293494,0.004306031856685877,-4.276165008544922,0.0,-1478.0,-214.343017578125,0.6603327393531799,0,30,0,40000
293504,0.005475952289998531,-5.30540657043457,9.0,-1528.0,-208.1675567626953,0.6531817317008972,0,30,0,40000
293514,-0.00029439039644785225,-6.030528545379639,-17.0,-1645.0,-203.81683349609375,0.6877247095108032,0,30,0,40000
293524,-0.0014627674827352166,-7.184472560882568,17.0,-1703.0,-196.89315795898438,0.6948371529579163,0,30,0,40000
293534,0.0013665435835719109,-7.963279724121094,-3.0,-1714.0,-192.22032165527344,0.6778162717819214,0,30,0,40000
293544,-0.006242129951715469,-9.158287048339844,-14.0,-1747.0,-185.05027770996094,0.7235164046287537,0,30,0,40000
293554,-0.010007536970078945,-9.94489860534668,11.0,-1720.0,-180.3306121826172,0.7463822960853577,0,30,0,40000
293564,-0.02401859126985073,-11.122941970825195,-18.0,-1706.0,-173.26234436035156,0.8309082984924316,0,30,0,40000
293574,-0.027567826211452484,-11.904963493347168,-12.0,-1668.0,-168.57022094726562,0.8529708385467529,0,30,0,40000
293584,-0.022598380222916603,-13.033839225769043,18.0,-1625.0,-161.79696655273438,0.8239917755126953,0,30,0,40000
293594,-0.019217070192098618,-13.759596824645996,-5.0,-1579.0,-157.44241333007812,0.8043310642242432,0,30,0,40000
293604,-0.03577351197600365,-14.811485290527344,-6.0,-1500.0,-151.13108825683594,0.9045358896255493,0,30,0,40000
293614,-0.04763282090425491,-15.490202903747559,-13.0,-1481.0,-147.05877685546875,0.976997435092926,0,30,0,40000
293624,-0.06258722394704819,-16.49831771850586,-11.0,-1450.0,-141.01010131835938,1.0683660507202148,0,30,0,40000
293634,-0.07728508859872818,-17.143081665039062,-12.0,-1366.0,-137.14151000976562,1.1587101221084595,0,30,0,40000
293644,-0.0919291153550148,-18.069337844848633,-13.0,-1302.0,-131.58396911621094,1.2492144107818604,0,30,0,40000
293654,-0.09634479880332947,-18.645658493041992,-9.0,-1239.0,-128.1260528564453,1.2785148620605469,0,30,0,40000
293664,-0.11369756609201431,-19.455820083618164,-14.0,-1144.0,-123.26507568359375,1.3858036994934082,0,30,0,40000
293674,-0.12327822297811508,-19.965444564819336,-37.0,-1076.0,-120.20733642578125,1.4468528032302856,0,30,0,40000
293684,-0.13942551612854004,-20.684898376464844,-5.0,-1004.0,-115.89060974121094,1.5477913618087769,0,30,0,40000
293694,-0.1534048616886139,-21.133333206176758,-8.0,-977.0,-113.19999694824219,1.63609778881073,0,30,0,40000
293704,-0.1716729700565338,-21.775188446044922,-7.0,-899.0,-109.34886932373047,1.750623345375061,0,30,0,40000
293714,-0.18234507739543915,-22.172334671020508,-40.0,-880.0,-106.96598815917969,1.8199448585510254,0,30,0,40000
293724,-0.1894908845424652,-22.76558494567871,-20.0,-853.0,-103.406494140625,1.868478775024414,0,30,0,40000
293734,-0.19725830852985382,-23.146188735961914,-20.0,-819.0,-101.12286376953125,1.9209107160568237,0,30,0,40000
293744,-0.20298343896865845,-23.6833438873291,27.0,-720.0,-97.89993286132812,1.9613474607467651,0,30,0,40000
293754,-0.21997976303100586,-24.01276206970215,-5.0,-710.0,-95.92343139648438,2.0697286128997803,0,30,0,40000
293764,-0.23320084810256958,-24.50252914428711,-30.0,-717.0,-92.98482513427734,2.1558070182800293,0,30,0,40000
293774,-0.2383139580488205,-24.83070182800293,-7.0,-693.0,-91.01579284667969,2.193560838699341,0,30,0,40000
293784,-0.2366258054971695,-25.300399780273438,-5.0,-675.0,-88.19760131835938,2.1905815601348877,0,30,0,40000
293794,-0.23622070252895355,-25.592449188232422,10.0,-597.0,-86.44530487060547,2.195284366607666,0,30,0,40000
293804,-0.22662046551704407,-25.980926513671875,23.0,-556.0,-84.11444091796875,2.1446216106414795,0,30,0,40000
293814,-0.2330121099948883,-26.236360549926758,0.0,-537.0,-82.58183288574219,2.1898579597473145,0,30,0,40000
293824,-0.23704996705055237,-26.59193229675293,-12.0,-529.0,-80.44841003417969,2.2210872173309326,0,30,0,40000
293834,-0.23059755563735962,-26.82492446899414,-10.0,-476.0,-79.05045318603516,2.189380168914795,0,30,0,40000
293844,-0.23067283630371094,-27.14124298095703,12.0,-448.0,-77.15254211425781,2.196716547012329,0,30,0,40000
293854,-0.2231246829032898,-27.322050094604492,24.0,-388.0,-76.06770324707031,2.158212423324585,0,30,0,40000
293864,-0.2115742713212967,-27.595129013061523,-7.0,-392.0,-74.42922973632812,2.095357656478882,0,30,0,40000
293874,-0.20838841795921326,-27.767528533935547,6.0,-371.0,-73.39482879638672,2.082538366317749,0,30,0,40000
293884,-0.19722355902194977,-28.015018463134766,17.0,-340.0,-71.9098892211914,2.021681785583496,0,30,0,40000
293894,-0.19009825587272644,-28.16690444946289,39.0,-298.0,-70.99857330322266,1.9847218990325928,0,30,0,40000
293904,-0.16459596157073975,-28.359859466552734,22.0,-272.0,-69.8408432006836,1.8368521928787231,0,30,0,40000
293914,-0.15191437304019928,-28.483230590820312,-13.0,-266.0,-69.10061645507812,1.7654772996902466,0,30,0,40000
293924,-0.13842833042144775,-28.649147033691406,34.0,-242.0,-68.10511779785156,1.688941478729248,0,30,0,40000
