timestamp,stabilizer.roll,stabilizer.pitch,stateEstimateZ.rateRoll,stateEstimateZ.ratePitch,controller.pitchRate,controller.rollRate,roll,pitch,yawdot,thrust
992089,-37.80986022949219,63.527713775634766,2.0,-2.0,-383.8345642089844,228.44711303710938,0,0,0,40000
992099,-37.82579040527344,63.51710891723633,-1.0,-8.0,-385.6766052246094,229.67727661132812,0,0,0,40000
992109,-37.84469223022461,63.4786262512207,-34.0,-84.0,-387.3507080078125,230.9259033203125,0,0,0,40000
992119,-37.81924819946289,63.418357849121094,-5.0,-196.0,-388.8924255371094,231.90834045410156,0,0,0,40000
992129,-37.649635314941406,63.22686767578125,10.0,-433.0,-389.6430969238281,232.02293395996094,0,0,0,40000
992139,-37.353553771972656,62.987091064453125,39.0,-714.0,-390.0970458984375,231.37083435058594,0,0,0,40000
992149,-36.635162353515625,62.45616912841797,22.0,-1188.0,-388.7923583984375,228.16921997070312,0,0,0,40000
992159,-35.86957931518555,61.90552520751953,-3.0,-1795.0,-387.3525085449219,224.66123962402344,0,0,0,40000
992169,-34.26875305175781,60.72455596923828,46.0,-2503.0,-382.1039123535156,216.1051025390625,0,0,0,40000
992179,-32.89960479736328,59.6490592956543,123.0,-3289.0,-377.45367431640625,208.89404296875,0,0,0,40000
992189,-30.479421615600586,57.525634765625,141.0,-4177.0,-366.4660949707031,195.31739807128906,0,0,0,40000
992199,-28.663333892822266,55.715362548828125,177.0,-5138.0,-357.29815673828125,185.30270385742188,0,0,0,40000
992209,-25.828216552734375,52.356719970703125,255.0,-6147.0,-338.7594299316406,169.10107421875,0,0,0,40000
992219,-23.921581268310547,49.67996597290039,390.0,-7150.0,-324.22198486328125,158.40182495117188,0,0,0,40000
992229,-21.139127731323242,45.050045013427734,523.0,-7863.0,-297.8511962890625,142.37405395507812,0,0,0,40000
992239,-19.3979549407959,41.64820098876953,690.0,-8397.0,-278.73077392578125,132.52963256835938,0,0,0,40000
992249,-16.983726501464844,36.239173889160156,907.0,-8689.0,-247.42955017089844,118.58197021484375,0,0,0,40000
992259,-15.504486083984375,32.53274154663086,1134.0,-8640.0,-226.21145629882812,110.18930053710938,0,0,0,40000
992269,-13.453722953796387,27.01051902770996,1406.0,-8395.0,-193.9543914794922,98.31257629394531,0,0,0,40000
992279,-12.150009155273438,23.45235824584961,1706.0,-7951.0,-173.35145568847656,90.87039947509766,0,0,0,40000
992289,-10.26384449005127,18.454456329345703,2012.0,-7248.0,-143.9762420654297,79.88396453857422,0,0,0,40000
992299,-9.00518798828125,15.434301376342773,2300.0,-6382.0,-126.3541259765625,72.61740112304688,0,0,0,40000
992309,-7.116978645324707,11.558902740478516,2491.0,-5256.0,-103.49279022216797,61.52439880371094,0,0,0,40000
992319,-5.8346381187438965,9.482817649841309,2663.0,-4005.0,-91.34501647949219,54.02082061767578,0,0,0,40000
992329,-3.8670451641082764,7.26354455947876,2784.0,-2626.0,-78.27099609375,42.3549690246582,0,0,0,40000
992339,-2.5504698753356934,6.406652927398682,2840.0,-1143.0,-73.33133697509766,34.5478401184082,0,0,0,40000
992349,-0.5681385397911072,6.169440269470215,2861.0,389.0,-72.09275817871094,22.694650650024414,0,0,0,40000
992359,0.7388302683830261,6.6587629318237305,2810.0,1554.0,-75.22184753417969,14.846323013305664,0,0,0,40000
992369,2.666191816329956,8.129541397094727,2725.0,2523.0,-84.27078247070312,3.225128173828125,0,0,0,40000
992379,3.9173920154571533,9.488116264343262,2600.0,3245.0,-92.69019317626953,-4.384635925292969,0,0,0,40000
992389,5.735665321350098,11.917778015136719,2451.0,3776.0,-107.59550476074219,-15.44472885131836,0,0,0,40000
992399,6.894279956817627,13.707179069519043,2262.0,4055.0,-118.72154235839844,-22.589378356933594,0,0,0,40000
992409,8.538102149963379,16.46229362487793,2041.0,4156.0,-135.7129669189453,-32.689056396484375,0,0,0,40000
992419,9.54555892944336,18.28282356262207,1732.0,4118.0,-147.16285705566406,-39.00824737548828,0,0,0,40000
992429,10.93398380279541,20.91077423095703,1465.0,3923.0,-163.52682495117188,-47.650634765625,0,0,0,40000
992439,11.765067100524902,22.543027877807617,1223.0,3595.0,-173.97726440429688,-52.980255126953125,0,0,0,40000
992449,12.851305961608887,24.708209991455078,943.0,3168.0,-187.68463134765625,-59.87079620361328,0,0,0,40000
992459,13.453245162963867,25.917726516723633,687.0,2593.0,-195.70504760742188,-63.878990173339844,0,0,0,40000
992469,14.132708549499512,27.32539939880371,464.0,1943.0,-204.95529174804688,-68.37232208251953,0,0,0,40000
992479,14.431856155395508,27.96283721923828,247.0,1188.0,-209.61154174804688,-70.59674072265625,0,0,0,40000
992489,14.625908851623535,28.3892879486084,51.0,353.0,-213.01849365234375,-72.19831848144531,0,0,0,40000
992499,14.593941688537598,28.303314208984375,-150.0,-534.0,-213.35324096679688,-72.44490051269531,0,0,0,40000
992509,14.260128021240234,27.559770584106445,-391.0,-1541.0,-209.72982788085938,-70.87479400634766,0,0,0,40000
992519,13.877440452575684,26.62078857421875,-561.0,-2578.0,-204.90634155273438,-68.99976348876953,0,0,0,40000
992529,13.09829330444336,24.503793716430664,-735.0,-3656.0,-192.96722412109375,-64.72773742675781,0,0,0,40000
992539,12.46179485321045,22.586872100830078,-915.0,-4767.0,-182.16690063476562,-61.290374755859375,0,0,0,40000
992549,11.400590896606445,19.132793426513672,-1097.0,-5476.0,-162.05926513671875,-55.278221130371094,0,0,0,40000
992559,10.652718544006348,16.592527389526367,-1245.0,-5836.0,-147.34609985351562,-51.11957550048828,0,0,0,40000
992569,9.481847763061523,12.670476913452148,-1408.0,-5873.0,-124.2410659790039,-44.39292907714844,0,0,0,40000
992579,8.679516792297363,10.094627380371094,-1560.0,-5643.0,-109.11961364746094,-39.84897994995117,0,0,0,40000
992589,7.457790851593018,6.4657793045043945,-1667.0,-5195.0,-87.58309936523438,-32.75701904296875,0,0,0,40000
992599,6.6199750900268555,4.287599563598633,-1763.0,-4538.0,-74.66844177246094,-27.938779830932617,0,0,0,40000
992609,5.359232425689697,1.5350456237792969,-1841.0,-3718.0,-58.23041534423828,-20.550338745117188,0,0,0,40000
992619,4.523026466369629,0.0911017656326294,-1861.0,-2836.0,-49.58634567260742,-15.6788330078125,0,0,0,40000
992629,3.2680985927581787,-1.407104730606079,-1814.0,-1772.0,-40.57050323486328,-8.26223373413086,0,0,0,40000
992639,2.4442989826202393,-1.9235388040542603,-1720.0,-686.0,-37.419857025146484,-3.4025611877441406,0,0,0,40000
992649,1.268069863319397,-1.924131989479065,-1680.0,447.0,-37.356101989746094,3.6027660369873047,0,0,0,40000
992659,0.5350080728530884,-1.447746992111206,-1577.0,1380.0,-40.16476821899414,7.976314544677734,0,0,0,40000
992669,-0.48061665892601013,-0.2086111605167389,-1455.0,2062.0,-47.57701110839844,14.072528839111328,0,0,0,40000
992679,-1.1029969453811646,0.8706534504890442,-1295.0,2527.0,-54.065513610839844,17.832548141479492,0,0,0,40000
992689,-1.9471561908721924,2.701970338821411,-1153.0,2750.0,-65.11203002929688,22.946138381958008,0,0,0,40000
992699,-2.4291179180145264,3.9872145652770996,-959.0,2826.0,-72.92767333984375,25.905115127563477,0,0,0,40000
992709,-3.03359055519104,5.880336284637451,-792.0,2732.0,-84.44035339355469,29.616039276123047,0,0,0,40000
992719,-3.3602349758148193,7.076943397521973,-607.0,2519.0,-91.81804656982422,31.672893524169922,0,0,0,40000
992729,-3.721318006515503,8.681536674499512,-400.0,2221.0,-101.68756103515625,33.9471435546875,0,0,0,40000
992739,-3.8793528079986572,9.586723327636719,-219.0,1821.0,-107.39564514160156,35.00996017456055,0,0,0,40000
992749,-3.9863691329956055,10.586865425109863,-44.0,1237.0,-113.70337677001953,35.770782470703125,0,0,0,40000
992759,-3.967843770980835,10.978243827819824,126.0,589.0,-116.37662506103516,35.778968811035156,0,0,0,40000
992769,-3.816201686859131,11.097288131713867,277.0,-127.0,-117.42400360107422,34.98580551147461,0,0,0,40000
992779,-3.626084089279175,10.823174476623535,474.0,-912.0,-116.10772705078125,33.956321716308594,0,0,0,40000
992789,-3.2278404235839844,9.849376678466797,611.0,-1770.0,-110.5739974975586,31.668872833251953,0,0,0,40000
992799,-2.888939619064331,8.78390884399414,744.0,-2696.0,-104.45802307128906,29.72624397277832,0,0,0,40000
992809,-2.2948896884918213,6.654098987579346,845.0,-3346.0,-91.9056625366211,26.23805046081543,0,0,0,40000
992819,-1.8505665063858032,5.033468723297119,964.0,-3639.0,-82.35247039794922,23.63300323486328,0,0,0,40000
992829,-1.126863956451416,2.5461981296539307,1067.0,-3616.0,-67.53501892089844,19.333465576171875,0,0,0,40000
992839,-0.6200926899909973,0.9843862652778625,1142.0,-3284.0,-58.21221923828125,16.317611694335938,0,0,0,40000
992849,0.17013651132583618,-1.044488549232483,1160.0,-2730.0,-46.03070068359375,11.580699920654297,0,0,0,40000
992859,0.7139849066734314,-2.081423759460449,1142.0,-1954.0,-39.7586669921875,8.302640914916992,0,0,0,40000
992869,1.5176548957824707,-3.033958673477173,1132.0,-1010.0,-33.961769104003906,3.4446401596069336,0,0,0,40000
992879,2.045623302459717,-3.175185441970825,1089.0,156.0,-33.02022933959961,0.2217864990234375,0,0,0,40000
992889,2.7887463569641113,-2.650919198989868,1090.0,1126.0,-36.07793426513672,-4.31159782409668,0,0,0,40000
992899,3.2525994777679443,-1.9273184537887573,1000.0,1809.0,-40.35267639160156,-7.18673038482666,0,0,0,40000
992909,3.9055042266845703,-0.4978419244289398,902.0,2254.0,-48.89653015136719,-11.213777542114258,0,0,0,40000
992919,4.305291175842285,0.5867371559143066,810.0,2405.0,-55.40851593017578,-13.736944198608398,0,0,0,40000
992929,4.847104549407959,2.242042064666748,736.0,2387.0,-65.38785552978516,-17.126922607421875,0,0,0,40000
992939,5.1658453941345215,3.2912275791168213,657.0,2219.0,-71.76924896240234,-19.19051742553711,0,0,0,40000
992949,5.577095985412598,4.65089225769043,571.0,1845.0,-80.05126953125,-21.82050323486328,0,0,0,40000
992959,5.7962327003479,5.355216026306152,432.0,1339.0,-84.42970275878906,-23.30666160583496,0,0,0,40000
992969,6.05960750579834,6.016096115112305,327.0,740.0,-88.56884765625,-25.065792083740234,0,0,0,40000
992979,6.183781623840332,6.148775100708008,181.0,22.0,-89.54817199707031,-25.994956970214844,0,0,0,40000
992989,6.282059192657471,5.838883399963379,93.0,-764.0,-87.86943817138672,-26.77208709716797,0,0,0,40000
992999,6.288386821746826,5.254531383514404,-11.0,-1625.0,-84.52845764160156,-26.998687744140625,0,0,0,40000
993009,6.21035099029541,3.7823965549468994,-144.0,-2491.0,-75.82869720458984,-26.718048095703125,0,0,0,40000
993019,6.123568534851074,2.4881064891815186,-214.0,-3021.0,-68.15338134765625,-26.382152557373047,0,0,0,40000
993029,5.923525810241699,0.3404022753238678,-317.0,-3205.0,-55.30345916748047,-25.362194061279297,0,0,0,40000
993039,5.74820613861084,-1.1067296266555786,-398.0,-3120.0,-46.604801177978516,-24.4848575592041,0,0,0,40000
993049,5.450908660888672,-3.10223650932312,-469.0,-2796.0,-34.561885833740234,-22.868335723876953,0,0,0,40000
993059,5.2298688888549805,-4.233267307281494,-525.0,-2246.0,-27.66192626953125,-21.701696395874023,0,0,0,40000
993069,4.85319185256958,-5.477945804595947,-617.0,-1516.0,-20.04278564453125,-19.592044830322266,0,0,0,40000
993079,4.571183681488037,-5.9360127449035645,-611.0,-729.0,-17.15689468383789,-18.013076782226562,0,0,0,40000
993089,4.110047340393066,-5.973198890686035,-643.0,361.0,-16.71725845336914,-15.402547836303711,0,0,0,40000
993099,3.769519090652466,-5.542049407958984,-711.0,1230.0,-19.165454864501953,-13.453964233398438,0,0,0,40000
993109,3.2687153816223145,-4.399803161621094,-738.0,1897.0,-25.838729858398438,-10.575922012329102,0,0,0,40000
993119,2.941941261291504,-3.424248695373535,-725.0,2244.0,-31.597978591918945,-8.689838409423828,0,0,0,40000
993129,2.4645559787750244,-1.8015347719192505,-674.0,2393.0,-41.240055084228516,-5.922727584838867,0,0,0,40000
993139,2.1544411182403564,-0.7148787975311279,-672.0,2365.0,-47.72981643676758,-4.117457389831543,0,0,0,40000
993149,1.6976218223571777,0.7989301681518555,-620.0,2086.0,-56.8148193359375,-1.4456567764282227,0,0,0,40000
993159,1.4214533567428589,1.6346228122711182,-588.0,1714.0,-61.858428955078125,0.17393779754638672,0,0,0,40000
993169,1.051023006439209,2.5722789764404297,-524.0,1154.0,-67.56121826171875,2.3521413803100586,0,0,0,40000
993179,0.8338850736618042,2.932504415512085,-460.0,620.0,-69.78895568847656,3.632380485534668,0,0,0,40000
993189,0.5523347854614258,3.0187182426452637,-389.0,-158.0,-70.4149169921875,5.29688835144043,0,0,0,40000
993199,0.40264391899108887,2.7355504035949707,-294.0,-860.0,-68.78541564941406,6.183623790740967,0,0,0,40000
993209,0.2291259765625,1.7342121601104736,-206.0,-1813.0,-62.859718322753906,7.2136335372924805,0,0,0,40000
993219,0.1486429125070572,0.7041420340538025,-163.0,-2423.0,-56.708892822265625,7.692016124725342,0,0,0,40000
993229,0.07095196843147278,-1.1146209239959717,-82.0,-2744.0,-45.789432525634766,8.154326438903809,0,0,0,40000
993239,0.052245866507291794,-2.367865562438965,-21.0,-2697.0,-38.22810363769531,8.26512336730957,0,0,0,40000
993249,0.07160359621047974,-4.1142072677612305,51.0,-2418.0,-27.632734298706055,8.1469144821167,0,0,0,40000
993259,0.101610466837883,-5.086935520172119,100.0,-1962.0,-21.685630798339844,7.964852333068848,0,0,0,40000
993269,0.17669759690761566,-6.102818965911865,154.0,-1178.0,-15.387248992919922,7.509455680847168,0,0,0,40000
993279,0.24638581275939941,-6.403693675994873,155.0,-378.0,-13.431419372558594,7.0862507820129395,0,0,0,40000
993289,0.3258967995643616,-6.3412580490112305,162.0,652.0,-13.614479064941406,6.600348949432373,0,0,0,40000
993299,0.46944454312324524,-5.567996978759766,223.0,1536.0,-18.07579803466797,5.726842880249023,0,0,0,40000
993309,0.5741901397705078,-4.732269287109375,243.0,2070.0,-22.937911987304688,5.082420349121094,0,0,0,40000
993319,0.7459818720817566,-3.2228829860687256,267.0,2324.0,-31.878881454467773,4.031362533569336,0,0,0,40000
993329,0.8839119076728821,-2.1395516395568848,277.0,2405.0,-38.301612854003906,3.178950309753418,0,0,0,40000
993339,1.0834548473358154,-0.5316251516342163,299.0,2277.0,-47.91413879394531,1.9516654014587402,0,0,0,40000
993349,1.2242146730422974,0.43763312697410583,314.0,1968.0,-53.73134994506836,1.0720911026000977,0,0,0,40000
993359,1.4455647468566895,1.6504714488983154,328.0,1559.0,-61.04419708251953,-0.29663562774658203,0,0,0,40000
993369,1.5983392000198364,2.2521111965179443,319.0,1038.0,-64.71468353271484,-1.2593984603881836,0,0,0,40000
993379,1.8164751529693604,2.7547781467437744,322.0,398.0,-67.80870819091797,-2.6200504302978516,0,0,0,40000
993389,1.9667603969573975,2.772775411605835,329.0,-315.0,-68.00006103515625,-3.57895565032959,0,0,0,40000
993399,2.1827659606933594,2.2908968925476074,307.0,-1090.0,-65.18502807617188,-4.93794059753418,0,0,0,40000
993409,2.3261733055114746,1.5957199335098267,303.0,-1932.0,-61.07063293457031,-5.866432189941406,0,0,0,40000
993419,2.527329206466675,0.06181959807872772,302.0,-2474.0,-51.888694763183594,-7.146761894226074,0,0,0,40000
993429,2.652930736541748,-1.1420289278030396,247.0,-2684.0,-44.645912170410156,-7.978518486022949,0,0,0,40000
993439,2.8075180053710938,-2.951716184616089,197.0,-2586.0,-33.72074508666992,-8.988534927368164,0,0,0,40000
993449,2.9019620418548584,-4.0567946434021,156.0,-2206.0,-26.981643676757812,-9.641145706176758,0,0,0,40000
993459,3.014051675796509,-5.377930641174316,147.0,-1637.0,-18.908103942871094,-10.402780532836914,0,0,0,40000
993469,3.062600612640381,-5.958299160003662,70.0,-862.0,-15.253669738769531,-10.785398483276367,0,0,0,40000
993479,3.1000819206237793,-6.22020959854126,29.0,121.0,-13.49658203125,-11.102962493896484,0,0,0,40000
993489,3.0971548557281494,-5.9372429847717285,-49.0,1077.0,-15.012359619140625,-11.1784086227417,0,0,0,40000
993499,3.0465445518493652,-4.9298529624938965,-91.0,1795.0,-20.8951416015625,-10.966842651367188,0,0,0,40000
993509,2.993971109390259,-3.9970223903656006,-128.0,2207.0,-26.3608455657959,-10.741859436035156,0,0,0,40000
993519,2.888009786605835,-2.4123055934906006,-155.0,2384.0,-35.77735900878906,-10.194016456604004,0,0,0,40000
993529,2.7995400428771973,-1.3276023864746094,-176.0,2328.0,-42.23274230957031,-9.748274803161621,0,0,0,40000
993539,2.6715705394744873,0.21005767583847046,-198.0,2131.0,-51.446929931640625,-9.062196731567383,0,0,0,40000
993549,2.5759987831115723,1.088860273361206,-215.0,1727.0,-56.74208450317383,-8.5672025680542,0,0,0,40000
993559,2.4268219470977783,2.0970048904418945,-219.0,1213.0,-62.84284210205078,-7.746715545654297,0,0,0,40000
993569,2.3202528953552246,2.503554582595825,-214.0,581.0,-65.35273742675781,-7.178175926208496,0,0,0,40000
993579,2.17301344871521,2.6493849754333496,-236.0,-166.0,-66.30706024169922,-6.361801624298096,0,0,0,40000
993589,2.068793296813965,2.4011685848236084,-244.0,-917.0,-64.89320373535156,-5.799812316894531,0,0,0,40000
993599,1.913968801498413,1.4648085832595825,-227.0,-1807.0,-59.332149505615234,-4.930082321166992,0,0,0,40000
993609,1.822235107421875,0.47291430830955505,-202.0,-2445.0,-53.407203674316406,-4.435382843017578,0,0,0,40000
993619,1.6840707063674927,-1.3235101699829102,-172.0,-2736.0,-42.611122131347656,-3.6584625244140625,0,0,0,40000
993629,1.599473476409912,-2.5738208293914795,-151.0,-2690.0,-35.04698181152344,-3.199875831604004,0,0,0,40000
993639,1.490940809249878,-4.327667713165283,-183.0,-2398.0,-24.414485931396484,-2.594855785369873,0,0,0,40000
993649,1.4249974489212036,-5.318796634674072,-157.0,-1908.0,-18.31977081298828,-2.2427330017089844,0,0,0,40000
993659,1.322227954864502,-6.3857245445251465,-150.0,-1185.0,-11.737815856933594,-1.6669645309448242,0,0,0,40000
993669,1.2448837757110596,-6.749061584472656,-129.0,-321.0,-9.359214782714844,-1.2411456108093262,0,0,0,40000
993679,1.134492039680481,-6.618663787841797,-121.0,707.0,-9.939224243164062,-0.6141467094421387,0,0,0,40000
993689,1.0631362199783325,-6.080291271209717,-164.0,1573.0,-12.980113983154297,-0.21885108947753906,0,0,0,40000
993699,0.9717121124267578,-4.813701629638672,-146.0,2097.0,-20.418922424316406,0.29947471618652344,0,0,0,40000
993709,0.9260347485542297,-3.7684924602508545,-122.0,2404.0,-26.564407348632812,0.5452327728271484,0,0,0,40000
993719,0.8511349558830261,-2.0906362533569336,-80.0,2463.0,-36.548553466796875,0.9683513641357422,0,0,0,40000
993729,0.8030989170074463,-0.9812840819358826,-71.0,2351.0,-43.16197967529297,1.2319111824035645,0,0,0,40000
993739,0.7543323040008545,0.5411010980606079,-46.0,2058.0,-52.294918060302734,1.5013413429260254,0,0,0,40000
993749,0.7297883629798889,1.3863085508346558,-71.0,1613.0,-57.39786911010742,1.6263585090637207,0,0,0,40000
993759,0.7074483633041382,2.3160204887390137,-51.0,1084.0,-63.03564453125,1.7389464378356934,0,0,0,40000
993769,0.7077425718307495,2.6669836044311523,7.0,428.0,-65.21759033203125,1.7160429954528809,0,0,0,40000
993779,0.7071887254714966,2.7105259895324707,63.0,-307.0,-65.561279296875,1.698319435119629,0,0,0,40000
993789,0.7050358653068542,2.38122820854187,83.0,-1140.0,-63.66133117675781,1.6900243759155273,0,0,0,40000
993799,0.7464051842689514,1.3120678663253784,51.0,-1962.0,-57.30043029785156,1.4197521209716797,0,0,0,40000
993809,0.7919704914093018,0.27831777930259705,52.0,-2496.0,-51.11896514892578,1.1231269836425781,0,0,0,40000
993819,0.8591351509094238,-1.500111699104309,91.0,-2660.0,-40.425113677978516,0.6953239440917969,0,0,0,40000
993829,0.9017465114593506,-2.703026294708252,120.0,-2552.0,-33.14094924926758,0.41317224502563477,0,0,0,40000
993839,0.9712807536125183,-4.337229251861572,136.0,-2162.0,-23.22442626953125,-0.032326698303222656,0,0,0,40000
993849,1.0229754447937012,-5.199210166931152,81.0,-1570.0,-17.906591415405273,-0.37265777587890625,0,0,0,40000
993859,1.0792971849441528,-6.021151542663574,61.0,-782.0,-12.802452087402344,-0.742372989654541,0,0,0,40000
993869,1.1261271238327026,-6.1606831550598145,45.0,209.0,-11.78158950805664,-1.0565271377563477,0,0,0,40000
993879,1.1681575775146484,-5.647374629974365,62.0,1234.0,-14.683662414550781,-1.3431382179260254,0,0,0,40000
993889,1.1759016513824463,-4.9105119705200195,63.0,1931.0,-18.94828987121582,-1.4247727394104004,0,0,0,40000
993899,1.188712239265442,-3.429351329803467,-23.0,2358.0,-27.713733673095703,-1.5374279022216797,0,0,0,40000
993909,1.1812973022460938,-2.3115272521972656,-41.0,2516.0,-34.33784484863281,-1.5284976959228516,0,0,0,40000
993919,1.1649068593978882,-0.5995597839355469,-31.0,2472.0,-44.57120132446289,-1.4652509689331055,0,0,0,40000
993929,1.1604511737823486,0.49295032024383545,3.0,2277.0,-51.12804412841797,-1.4733214378356934,0,0,0,40000
993939,1.1497620344161987,1.9289982318878174,0.0,1889.0,-59.78580856323242,-1.4437861442565918,0,0,0,40000
993949,1.1467382907867432,2.678823232650757,-6.0,1388.0,-64.35641479492188,-1.4600963592529297,0,0,0,40000
993959,1.1354445219039917,3.4216861724853516,-34.0,784.0,-68.90864562988281,-1.426628589630127,0,0,0,40000
993969,1.1310001611709595,3.6205434799194336,-17.0,83.0,-70.20838928222656,-1.4339494705200195,0,0,0,40000
993979,1.1163662672042847,3.410895347595215,-31.0,-701.0,-69.05706787109375,-1.3798112869262695,0,0,0,40000
993989,1.1159971952438354,2.8887791633605957,18.0,-1576.0,-66.01777648925781,-1.411017894744873,0,0,0,40000
993999,1.12201726436615,1.5272756814956665,19.0,-2341.0,-57.91254425048828,-1.4807190895080566,0,0,0,40000
994009,1.1326560974121094,0.3450150787830353,21.0,-2751.0,-50.843719482421875,-1.5783896446228027,0,0,0,40000
994019,1.1416289806365967,-1.5808347463607788,-12.0,-2814.0,-39.26445007324219,-1.6664772033691406,0,0,0,40000
994029,1.1414449214935303,-2.828106164932251,-9.0,-2587.0,-31.710805892944336,-1.699641227722168,0,0,0,40000
994039,1.1422882080078125,-4.459868431091309,-4.0,-2136.0,-21.805051803588867,-1.738947868347168,0,0,0,40000
994049,1.1241718530654907,-5.282642841339111,-15.0,-1420.0,-16.71939468383789,-1.6642203330993652,0,0,0,40000
994059,1.1079730987548828,-5.9624152183532715,-23.0,-545.0,-12.468162536621094,-1.6005048751831055,0,0,0,40000
994069,1.086567759513855,-5.981008052825928,-86.0,490.0,-12.176856994628906,-1.504976749420166,0,0,0,40000
994079,1.0349092483520508,-5.302842617034912,-96.0,1437.0,-16.076553344726562,-1.2267279624938965,0,0,0,40000
994089,1.0107204914093018,-4.4816999435424805,-81.0,2048.0,-20.858747482299805,-1.112168788909912,0,0,0,40000
994099,0.9555073976516724,-2.9564640522003174,-90.0,2360.0,-29.902469635009766,-0.8102054595947266,0,0,0,40000
994109,0.9120721817016602,-1.8554658889770508,-94.0,2415.0,-36.43956756591797,-0.5774636268615723,0,0,0,40000
994119,0.8474083542823792,-0.23072363436222076,-80.0,2302.0,-46.16184616088867,-0.21562910079956055,0,0,0,40000
994129,0.808051586151123,0.7521834969520569,-87.0,1996.0,-52.070220947265625,-0.004211902618408203,0,0,0,40000
994139,0.7462654113769531,1.969588041305542,-77.0,1555.0,-59.42009735107422,0.34342050552368164,0,0,0,40000
994149,0.711675763130188,2.5541653633117676,-74.0,1016.0,-62.997467041015625,0.5291891098022461,0,0,0,40000
994159,0.671963632106781,3.0298819541931152,-52.0,369.0,-65.9383544921875,0.7468700408935547,0,0,0,40000
994169,0.6594520211219788,3.038867235183716,-45.0,-267.0,-66.08370208740234,0.8020033836364746,0,0,0,40000
994179,0.6476646065711975,2.537687301635742,-19.0,-1045.0,-63.160465240478516,0.8532042503356934,0,0,0,40000
994189,0.6502622961997986,1.8171367645263672,37.0,-1907.0,-58.900821685791016,0.8182168006896973,0,0,0,40000
994199,0.6631186604499817,0.23577478528022766,47.0,-2508.0,-49.43986129760742,0.721430778503418,0,0,0,40000
994209,0.6806723475456238,-1.0016155242919922,42.0,-2777.0,-42.00043869018555,0.5958590507507324,0,0,0,40000
994219,0.7227625250816345,-2.8851816654205322,34.0,-2718.0,-30.634923934936523,0.32208251953125,0,0,0,40000
994229,0.754572868347168,-4.0492658615112305,24.0,-2413.0,-23.542741775512695,0.1089472770690918,0,0,0,40000
994239,0.7962707877159119,-5.494269371032715,73.0,-1892.0,-14.72406005859375,-0.1644749641418457,0,0,0,40000
994249,0.8131255507469177,-6.180866241455078,81.0,-1195.0,-10.426898956298828,-0.2897629737854004,0,0,0,40000
994259,0.8459561467170715,-6.635220050811768,54.0,-278.0,-7.505100250244141,-0.5117883682250977,0,0,0,40000
994269,0.8676670789718628,-6.48698091506958,29.0,693.0,-8.197608947753906,-0.6678628921508789,0,0,0,40000
994279,0.9040948152542114,-5.663160800933838,11.0,1478.0,-12.959197998046875,-0.9132270812988281,0,0,0,40000
994289,0.9178959727287292,-4.827696800231934,16.0,1999.0,-17.81687355041504,-1.0234122276306152,0,0,0,40000
994299,0.9197801351547241,-3.3341286182403564,20.0,2288.0,-26.659744262695312,-1.0622673034667969,0,0,0,40000
994309,0.9201146364212036,-2.2727744579315186,13.0,2330.0,-32.94692611694336,-1.091872215270996,0,0,0,40000
994319,0.923625111579895,-0.7171487212181091,8.0,2204.0,-42.240806579589844,-1.1406097412109375,0,0,0,40000
994329,0.9323039650917053,0.23356874287128448,0.0,1960.0,-47.940834045410156,-1.2205681800842285,0,0,0,40000
994339,0.9317751526832581,1.3891996145248413,0.0,1511.0,-54.90339279174805,-1.2453436851501465,0,0,0,40000
994349,0.9403132796287537,1.9223765134811401,24.0,910.0,-58.15407180786133,-1.3246493339538574,0,0,0,40000
994359,0.9513735175132751,2.2815279960632324,1.0,233.0,-60.37467575073242,-1.4194884300231934,0,0,0,40000
994369,0.9486932754516602,2.163522720336914,10.0,-562.0,-59.73339080810547,-1.4318981170654297,0,0,0,40000
994379,0.9571858644485474,1.4089394807815552,-5.0,-1464.0,-55.25920486450195,-1.5116004943847656,0,0,0,40000
994389,0.9671921133995056,0.5108191967010498,0.0,-2255.0,-49.89701461791992,-1.6005291938781738,0,0,0,40000
994399,0.9817522168159485,-1.229556679725647,36.0,-2685.0,-39.439605712890625,-1.7169904708862305,0,0,0,40000
994409,0.9832128286361694,-2.49090838432312,24.0,-2745.0,-31.81189727783203,-1.7552313804626465,0,0,0,40000
994419,0.9863899350166321,-4.294081687927246,-2.0,-2518.0,-20.885095596313477,-1.8039355278015137,0,0,0,40000
994429,0.9854536056518555,-5.3195085525512695,-48.0,-2054.0,-14.584966659545898,-1.8279666900634766,0,0,0,40000
994439,0.9603132009506226,-6.472752094268799,-46.0,-1413.0,-7.483726501464844,-1.7062454223632812,0,0,0,40000
994449,0.9334280490875244,-6.900566577911377,-51.0,-614.0,-4.714500427246094,-1.5732269287109375,0,0,0,40000
994459,0.8753729462623596,-6.927005290985107,-62.0,370.0,-4.346225738525391,-1.251800537109375,0,0,0,40000
994469,0.8298478722572327,-6.47892427444458,-101.0,1365.0,-6.8344268798828125,-1.0041203498840332,0,0,0,40000
994479,0.7514212131500244,-5.277429580688477,-135.0,1976.0,-13.869377136230469,-0.5571756362915039,0,0,0,40000
994489,0.6995295286178589,-4.2635416984558105,-147.0,2362.0,-19.81241226196289,-0.2674527168273926,0,0,0,40000
994499,0.6074084639549255,-2.5922224521636963,-135.0,2507.0,-29.74220085144043,0.26593828201293945,0,0,0,40000
994509,0.5440976619720459,-1.453248381614685,-98.0,2466.0,-36.51877975463867,0.6287918090820312,0,0,0,40000
994519,0.45449602603912354,0.1355661004781723,-118.0,2215.0,-46.03723907470703,1.151674747467041,0,0,0,40000
994529,0.3936397135257721,1.0527280569076538,-112.0,1850.0,-51.56098937988281,1.5042743682861328,0,0,0,40000
994539,0.31871241331100464,2.125394344329834,-138.0,1369.0,-58.04895782470703,1.943282961845398,0,0,0,40000
994549,0.2713754177093506,2.5858616828918457,-120.0,760.0,-60.88413619995117,2.218573570251465,0,0,0,40000
994559,0.19638694822788239,2.8189361095428467,-122.0,57.0,-62.365936279296875,2.6617045402526855,0,0,0,40000
994569,0.148024782538414,2.6309993267059326,-82.0,-720.0,-61.3199348449707,2.9469003677368164,0,0,0,40000
994579,0.08483409881591797,1.7787147760391235,-90.0,-1584.0,-56.27173614501953,3.322692632675171,0,0,0,40000
994589,0.05848852917551994,0.8473203182220459,-67.0,-2272.0,-50.72032165527344,3.478672981262207,0,0,0,40000
994599,0.02947278879582882,-0.8703693151473999,-50.0,-2609.0,-40.409278869628906,3.6515748500823975,0,0,0,40000
994609,0.010223809629678726,-2.096919059753418,-14.0,-2667.0,-33.00177764892578,3.7665903568267822,0,0,0,40000
994619,-0.006387770641595125,-3.8237197399139404,11.0,-2390.0,-22.54633331298828,3.8663153648376465,0,0,0,40000
994629,-0.010928096249699593,-4.803772926330566,-6.0,-1912.0,-16.533369064331055,3.8938281536102295,0,0,0,40000
994639,-0.004707581829279661,-5.8410258293151855,-9.0,-1226.0,-10.1455078125,3.8566718101501465,0,0,0,40000
994649,-0.006550929043442011,-6.175051689147949,-39.0,-378.0,-7.9596099853515625,3.8678812980651855,0,0,0,40000
994659,-0.013027699664235115,-6.032112121582031,8.0,619.0,-8.632308959960938,3.907136917114258,0,0,0,40000
994669,-0.02155035175383091,-5.4998369216918945,-10.0,1473.0,-11.65414810180664,3.95882511138916,0,0,0,40000
994679,-0.028752543032169342,-4.240502834320068,1.0,2056.0,-19.066635131835938,4.002846717834473,0,0,0,40000
994689,-0.026394277811050415,-3.2026798725128174,-18.0,2396.0,-25.184871673583984,3.989501953125,0,0,0,40000
994699,-0.022625546902418137,-1.5161694288253784,4.0,2479.0,-35.23802185058594,3.967677593231201,0,0,0,40000
994709,-0.013121768832206726,-0.39443305134773254,22.0,2389.0,-41.9432258605957,3.911166191101074,0,0,0,40000
994719,-0.007283028215169907,1.1285769939422607,16.0,2106.0,-51.09750747680664,3.8764164447784424,0,0,0,40000
994729,0.0028547290712594986,1.9723947048187256,35.0,1644.0,-56.209754943847656,3.815645694732666,0,0,0,40000
994739,0.028521794825792313,2.8763813972473145,38.0,1071.0,-61.710418701171875,3.661135196685791,0,0,0,40000
994749,0.050442587584257126,3.20839786529541,55.0,471.0,-63.795135498046875,3.5283796787261963,0,0,0,40000
994759,0.08705821633338928,3.2165703773498535,79.0,-265.0,-63.94211196899414,3.30662202835083,0,0,0,40000
994769,0.11597155034542084,2.8737246990203857,65.0,-1070.0,-61.97581100463867,3.129941463470459,0,0,0,40000
994779,0.17053289711475372,1.808461308479309,60.0,-1867.0,-55.65296173095703,2.7980191707611084,0,0,0,40000
994789,0.21466064453125,0.7870441675186157,80.0,-2422.0,-49.560638427734375,2.5273313522338867,0,0,0,40000
994799,0.2785903215408325,-0.9399041533470154,108.0,-2565.0,-39.19166946411133,2.1363041400909424,0,0,0,40000
994809,0.3212668299674988,-2.089503288269043,101.0,-2424.0,-32.2451171875,1.8711241483688354,0,0,0,40000
994819,0.36983296275138855,-3.5991547107696533,56.0,-2032.0,-23.096416473388672,1.5690782070159912,0,0,0,40000
994829,0.4001832902431488,-4.3580427169799805,37.0,-1376.0,-18.42112159729004,1.3752741813659668,0,0,0,40000
994839,0.42215755581855774,-4.986532688140869,17.0,-573.0,-14.506282806396484,1.2309470176696777,0,0,0,40000
994849,0.4223499000072479,-4.987569808959961,0.0,395.0,-14.349899291992188,1.2171390056610107,0,0,0,40000
994859,0.3959060311317444,-4.341968536376953,-41.0,1259.0,-18.083698272705078,1.3635640144348145,0,0,0,40000
994869,0.3760662078857422,-3.60794997215271,-65.0,1823.0,-22.370439529418945,1.471081256866455,0,0,0,40000
994879,0.33662065863609314,-2.2083442211151123,-55.0,2156.0,-30.684329986572266,1.6972250938415527,0,0,0,40000
994889,0.3169545531272888,-1.194960594177246,-44.0,2220.0,-36.716575622558594,1.8055142164230347,0,0,0,40000
994899,0.27264681458473206,0.2933482229709625,-67.0,2125.0,-45.63759994506836,2.0626087188720703,0,0,0,40000
994909,0.24227115511894226,1.1785697937011719,-62.0,1801.0,-50.97385787963867,2.2372381687164307,0,0,0,40000
994919,0.19669215381145477,2.225339889526367,-70.0,1353.0,-57.30966567993164,2.5041847229003906,0,0,0,40000
994929,0.17195188999176025,2.6962244510650635,-58.0,801.0,-60.210533142089844,2.6471974849700928,0,0,0,40000
994939,0.13215821981430054,2.9560465812683105,-28.0,118.0,-61.85646438598633,2.881627082824707,0,0,0,40000
994949,0.1080816388130188,2.807825803756714,-29.0,-638.0,-61.05360794067383,3.022555351257324,0,0,0,40000
994959,0.09653057903051376,2.032963752746582,-22.0,-1476.0,-56.476593017578125,3.088776111602783,0,0,0,40000
994969,0.10467537492513657,1.1482559442520142,-31.0,-2202.0,-51.21381378173828,3.036820411682129,0,0,0,40000
994979,0.11755868792533875,-0.536041259765625,37.0,-2597.0,-41.11296463012695,2.9563043117523193,0,0,0,40000
994989,0.130266934633255,-1.7429180145263672,75.0,-2610.0,-33.833858489990234,2.8763911724090576,0,0,0,40000
994999,0.1506245881319046,-3.4566433429718018,62.0,-2399.0,-23.467857360839844,2.7499754428863525,0,0,0,40000
995009,0.15752609074115753,-4.436492919921875,18.0,-1937.0,-17.467178344726562,2.703848361968994,0,0,0,40000
995019,0.18783894181251526,-5.49070930480957,0.0,-1258.0,-10.988273620605469,2.51654052734375,0,0,0,40000
995029,0.20037619769573212,-5.839728832244873,-5.0,-420.0,-8.722709655761719,2.435466766357422,0,0,0,40000
995039,0.20345626771450043,-5.716366767883301,28.0,596.0,-9.287635803222656,2.411038398742676,0,0,0,40000
995049,0.19783340394496918,-5.177986145019531,34.0,1497.0,-12.355674743652344,2.4387693405151367,0,0,0,40000
995059,0.20042799413204193,-3.8899660110473633,-41.0,2098.0,-19.95037269592285,2.416970729827881,0,0,0,40000
995069,0.1958533674478531,-2.8300209045410156,-30.0,2407.0,-26.229251861572266,2.4396286010742188,0,0,0,40000
995079,0.19183865189552307,-1.6831822395324707,1.0,2551.0,-33.04595947265625,2.457986354827881,0,0,0,40000
995089,0.18453529477119446,0.042445890605449677,18.0,2462.0,-43.3804931640625,2.496230363845825,0,0,0,40000
995099,0.18407042324543,1.1096372604370117,21.0,2220.0,-49.80427551269531,2.493467330932617,0,0,0,40000
995109,0.20294050872325897,2.4926021099090576,14.0,1795.0,-58.161216735839844,2.3743183612823486,0,0,0,40000
995119,0.21596062183380127,3.1917612552642822,6.0,1252.0,-62.44384002685547,2.2898752689361572,0,0,0,40000
995129,0.2279413342475891,3.8272900581359863,35.0,599.0,-66.36566162109375,2.2114148139953613,0,0,0,40000
995139,0.23212626576423645,3.9242148399353027,53.0,-174.0,-67.06417846679688,2.1794192790985107,0,0,0,40000
995149,0.25457271933555603,3.5385429859161377,43.0,-972.0,-64.86273193359375,2.037334680557251,0,0,0,40000
995159,0.27802178263664246,2.8952383995056152,36.0,-1854.0,-61.09797286987305,1.888559103012085,0,0,0,40000
995169,0.3228939175605774,1.4001860618591309,62.0,-2456.0,-52.18896484375,1.6102591753005981,0,0,0,40000
995179,0.3567427098751068,0.20685873925685883,66.0,-2714.0,-45.04966735839844,1.396904468536377,0,0,0,40000
995189,0.3912960886955261,-1.6409175395965576,65.0,-2651.0,-33.93587112426758,1.1782519817352295,0,0,0,40000
995199,0.40908700227737427,-2.796811103820801,38.0,-2337.0,-26.930341720581055,1.0594043731689453,0,0,0,40000
995209,0.4208759367465973,-4.20332670211792,-17.0,-1759.0,-18.380760192871094,0.9760069847106934,0,0,0,40000
995219,0.4305187165737152,-4.844137668609619,12.0,-975.0,-14.397815704345703,0.9053993225097656,0,0,0,40000
995229,0.42634889483451843,-5.190650939941406,-6.0,-27.0,-12.165054321289062,0.9175460338592529,0,0,0,40000
995239,0.40570947527885437,-4.977977275848389,-28.0,930.0,-13.28866195678711,1.0289990901947021,0,0,0,40000
995249,0.37697845697402954,-4.060575485229492,-38.0,1666.0,-18.658599853515625,1.1896657943725586,0,0,0,40000
995259,0.34959596395492554,-3.199846029281616,-73.0,2063.0,-23.716421127319336,1.34309720993042,0,0,0,40000
995269,0.3184128999710083,-1.7064237594604492,-65.0,2248.0,-32.60749816894531,1.520240068435669,0,0,0,40000
995279,0.28288334608078003,-0.6756437420845032,-74.0,2235.0,-38.7595329284668,1.7244914770126343,0,0,0,40000
995289,0.23586764931678772,0.7711626887321472,-56.0,1978.0,-47.44668197631836,1.9989464282989502,0,0,0,40000
995299,0.20584800839424133,1.5865164995193481,-70.0,1558.0,-52.3768310546875,2.1725013256073,0,0,0,40000
995309,0.1691402941942215,2.4844274520874023,-72.0,1038.0,-57.829193115234375,2.3872101306915283,0,0,0,40000
995319,0.13778163492679596,2.8195648193359375,-66.0,389.0,-59.92097473144531,2.570858955383301,0,0,0,40000
995329,0.10861073434352875,2.8268206119537354,-13.0,-354.0,-60.05085754394531,2.7424263954162598,0,0,0,40000
995339,0.09720297902822495,2.4834799766540527,13.0,-1174.0,-58.06988525390625,2.807851552963257,0,0,0,40000
995349,0.08791941404342651,1.379908800125122,12.0,-2024.0,-51.504981994628906,2.860762119293213,0,0,0,40000
995359,0.09231913834810257,0.32040438055992126,14.0,-2510.0,-45.1705322265625,2.831601858139038,0,0,0,40000
995369,0.11415206640958786,-1.462679147720337,26.0,-2668.0,-34.44989013671875,2.6974360942840576,0,0,0,40000
995379,0.13968347012996674,-2.6633753776550293,39.0,-2554.0,-27.180164337158203,2.5403900146484375,0,0,0,40000
995389,0.16585156321525574,-4.280013084411621,31.0,-2150.0,-17.370405197143555,2.3787548542022705,0,0,0,40000
995399,0.1828136295080185,-5.135223865509033,54.0,-1557.0,-12.09506607055664,2.271698474884033,0,0,0,40000
995409,0.2078656107187271,-5.96712589263916,35.0,-842.0,-6.933067321777344,2.1153621673583984,0,0,0,40000
995419,0.206847682595253,-6.136119365692139,-8.0,114.0,-5.736534118652344,2.115196704864502,0,0,0,40000
995429,0.21383365988731384,-5.7123942375183105,4.0,1105.0,-8.100265502929688,2.066990375518799,0,0,0,40000
995439,0.22784912586212158,-5.029038906097412,11.0,1787.0,-12.040946960449219,1.9762446880340576,0,0,0,40000
995449,0.240828275680542,-3.6298463344573975,29.0,2238.0,-20.309415817260742,1.8913702964782715,0,0,0,40000
995459,0.2534690201282501,-2.554123640060425,19.0,2422.0,-26.674129486083984,1.8080627918243408,0,0,0,40000
995469,0.27257537841796875,-0.8817777633666992,25.0,2416.0,-36.661705017089844,1.6854987144470215,0,0,0,40000
995479,0.28042563796043396,0.16383540630340576,7.0,2166.0,-42.92784881591797,1.630053997039795,0,0,0,40000
995489,0.3015100657939911,1.5188307762145996,50.0,1796.0,-51.08796691894531,1.494889497756958,0,0,0,40000
995499,0.31779634952545166,2.2211697101593018,42.0,1281.0,-55.360443115234375,1.387810468673706,0,0,0,40000
995509,0.34257978200912476,2.902963638305664,30.0,700.0,-59.53145217895508,1.2290534973144531,0,0,0,40000
995519,0.3719262182712555,3.0637662410736084,59.0,7.0,-60.58662414550781,1.0421557426452637,0,0,0,40000
995529,0.41771966218948364,2.8059988021850586,63.0,-759.0,-59.12902069091797,0.7554292678833008,0,0,0,40000
995539,0.4511355757713318,2.2557766437530518,77.0,-1618.0,-55.90241241455078,0.5417890548706055,0,0,0,40000
995549,0.505617618560791,0.8760030269622803,77.0,-2324.0,-47.66819763183594,0.20035099983215332,0,0,0,40000
995559,0.5539028644561768,-0.26985952258110046,79.0,-2640.0,-40.79884338378906,-0.10540390014648438,0,0,0,40000
995569,0.6197087168693542,-2.08229923248291,89.0,-2617.0,-29.883459091186523,-0.5180091857910156,0,0,0,40000
995579,0.6566239595413208,-3.2133212089538574,106.0,-2306.0,-23.01434326171875,-0.7587344646453857,0,0,0,40000
995589,0.7027980089187622,-4.614108562469482,64.0,-1759.0,-14.486766815185547,-1.0564336776733398,0,0,0,40000
995599,0.7365930080413818,-5.264533519744873,39.0,-1087.0,-10.433712005615234,-1.2809290885925293,0,0,0,40000
995609,0.7628329396247864,-5.714522361755371,12.0,-186.0,-7.565784454345703,-1.4610142707824707,0,0,0,40000
995619,0.7739119529724121,-5.553378582000732,21.0,857.0,-8.363525390625,-1.5505146980285645,0,0,0,40000
995629,0.778701901435852,-4.666949272155762,17.0,1694.0,-13.52961540222168,-1.6025218963623047,0,0,0,40000
995639,0.7767750024795532,-3.7673230171203613,-5.0,2205.0,-18.803241729736328,-1.6142783164978027,0,0,0,40000
995649,0.7662184238433838,-2.1473183631896973,-23.0,2493.0,-28.43881607055664,-1.5740962028503418,0,0,0,40000
995659,0.7571425437927246,-0.992256224155426,-25.0,2505.0,-35.325557708740234,-1.5424981117248535,0,0,0,40000
995669,0.7375167012214661,0.6836056709289551,-29.0,2350.0,-45.38146209716797,-1.4470939636230469,0,0,0,40000
995679,0.7208361625671387,1.685028314590454,-43.0,2037.0,-51.42870330810547,-1.3688464164733887,0,0,0,40000
995689,0.6980829834938049,2.92561936378479,-36.0,1583.0,-58.94615936279297,-1.2535583972930908,0,0,0,40000
995699,0.6724461317062378,3.5323736667633057,-32.0,1052.0,-62.685630798339844,-1.1202075481414795,0,0,0,40000
995709,0.646317720413208,4.032981872558594,-40.0,411.0,-65.80572509765625,-0.9831457138061523,0,0,0,40000
995719,0.6349374651908875,4.05877161026001,-11.0,-322.0,-66.08231353759766,-0.9340062141418457,0,0,0,40000
995729,0.6343936324119568,3.543957471847534,8.0,-1176.0,-63.10786056518555,-0.9497048854827881,0,0,0,40000
995739,0.6348652243614197,2.8038222789764404,50.0,-2034.0,-58.760520935058594,-0.9715538024902344,0,0,0,40000
995749,0.6554084420204163,1.2110393047332764,29.0,-2532.0,-49.26034927368164,-1.1143450736999512,0,0,0,40000
995759,0.6712119579315186,-0.002365876454859972,-1.0,-2694.0,-41.994510650634766,-1.2291955947875977,0,0,0,40000
995769,0.6842932105064392,-1.812532901763916,-4.0,-2575.0,-31.10059356689453,-1.3280467987060547,0,0,0,40000
995779,0.6913564205169678,-2.9184587001800537,-2.0,-2200.0,-24.390546798706055,-1.3910608291625977,0,0,0,40000
995789,0.6850982308387756,-4.220933437347412,-5.0,-1604.0,-16.463363647460938,-1.3741450309753418,0,0,0,40000
995799,0.6700621247291565,-4.777924060821533,-35.0,-776.0,-12.984310150146484,-1.304255723953247,0,0,0,40000
995809,0.6418390274047852,-4.986457347869873,-61.0,194.0,-11.583911895751953,-1.1546270847320557,0,0,0,40000
995819,0.6175800561904907,-4.6717848777771,-89.0,1169.0,-13.327468872070312,-1.027902364730835,0,0,0,40000
995829,0.5732672214508057,-3.619062662124634,-53.0,1845.0,-19.521127700805664,-0.7796201705932617,0,0,0,40000
995839,0.5397197008132935,-2.6689858436584473,-71.0,2260.0,-25.12989044189453,-0.5949537754058838,0,0,0,40000
995849,0.47897735238075256,-1.0509883165359497,-62.0,2429.0,-34.786537170410156,-0.24553203582763672,0,0,0,40000
995859,0.44158631563186646,0.05867227539420128,-80.0,2386.0,-41.432987213134766,-0.03491401672363281,0,0,0,40000
995869,0.4013110101222992,1.6407605409622192,-50.0,2200.0,-50.95612716674805,0.19429731369018555,0,0,0,40000
995879,0.37508490681648254,2.563617706298828,-50.0,1815.0,-56.559326171875,0.34011030197143555,0,0,0,40000
995889,0.3414025604724884,3.6422598361968994,-33.0,1332.0,-63.12852478027344,0.531606912612915,0,0,0,40000
995899,0.3280423581600189,4.1219305992126465,-29.0,734.0,-66.12477111816406,0.6017727851867676,0,0,0,40000
995909,0.31404176354408264,4.384599685668945,8.0,43.0,-67.83064270019531,0.6762814521789551,0,0,0,40000
995919,0.3094521164894104,4.2379608154296875,21.0,-670.0,-67.08013916015625,0.694445013999939,0,0,0,40000
995929,0.32076510787010193,3.4794249534606934,13.0,-1548.0,-62.64431381225586,0.6170194149017334,0,0,0,40000
995939,0.34419959783554077,2.5739948749542236,20.0,-2274.0,-57.30028533935547,0.4663581848144531,0,0,0,40000
995949,0.3839361071586609,0.8086951375007629,58.0,-2746.0,-46.754798889160156,0.21701812744140625,0,0,0,40000
995959,0.4083521366119385,-0.48109695315361023,96.0,-2830.0,-39.017154693603516,0.05862569808959961,0,0,0,40000
995969,0.453463613986969,-2.3749613761901855,66.0,-2677.0,-27.60497283935547,-0.22518444061279297,0,0,0,40000
995979,0.48220133781433105,-3.4888699054718018,57.0,-2266.0,-20.829975128173828,-0.4117593765258789,0,0,0,40000
995989,0.5318948030471802,-4.785991191864014,42.0,-1623.0,-12.917762756347656,-0.7253789901733398,0,0,0,40000
995999,0.5637578964233398,-5.308159351348877,33.0,-808.0,-9.63131332397461,-0.9330990314483643,0,0,0,40000
996009,0.5880926847457886,-5.4710307121276855,53.0,170.0,-8.48968505859375,-1.0963613986968994,0,0,0,40000
996019,0.60030198097229,-5.1125712394714355,20.0,1144.0,-10.482234954833984,-1.1874890327453613,0,0,0,40000
996029,0.6059359908103943,-3.9929144382476807,3.0,1905.0,-17.06540870666504,-1.2394297122955322,0,0,0,40000
996039,0.6030698418617249,-2.9903204441070557,-40.0,2352.0,-22.978994369506836,-1.240429162979126,0,0,0,40000
996049,0.6101444363594055,-1.270179033279419,11.0,2569.0,-33.240657806396484,-1.3009960651397705,0,0,0,40000
996059,0.6168165802955627,-0.06947746127843857,19.0,2618.0,-40.42833709716797,-1.359415054321289,0,0,0,40000
996069,0.6185467839241028,1.685280680656433,24.0,2492.0,-50.98674392700195,-1.3882784843444824,0,0,0,40000
996079,0.6161282658576965,2.746471881866455,14.0,2196.0,-57.423736572265625,-1.3922920227050781,0,0,0,40000
996089,0.6205428838729858,4.0915374755859375,-24.0,1794.0,-65.60163879394531,-1.4375152587890625,0,0,0,40000
996099,0.6240575909614563,4.752712726593018,-34.0,1235.0,-69.70365905761719,-1.4773433208465576,0,0,0,40000
996109,0.6252843141555786,5.318870544433594,-5.0,544.0,-73.25486755371094,-1.503364086151123,0,0,0,40000
996119,0.6295343637466431,5.370769023895264,22.0,-194.0,-73.7271728515625,-1.547635793685913,0,0,0,40000
996129,0.6374817490577698,4.904669284820557,33.0,-1008.0,-71.08503723144531,-1.6142377853393555,0,0,0,40000
996139,0.6586074829101562,4.209216594696045,23.0,-1869.0,-67.04740905761719,-1.7604897022247314,0,0,0,40000
996149,0.6841375231742859,2.636974573135376,40.0,-2546.0,-57.71330261230469,-1.9338078498840332,0,0,0,40000
996159,0.6992570757865906,1.3662370443344116,37.0,-2881.0,-50.14529037475586,-2.0453104972839355,0,0,0,40000
996169,0.7085968255996704,-0.6446720361709595,20.0,-2908.0,-38.084529876708984,-2.122520685195923,0,0,0,40000
996179,0.7143144607543945,-1.9146592617034912,-13.0,-2641.0,-30.4222469329834,-2.178239107131958,0,0,0,40000
996189,0.7114373445510864,-3.5157947540283203,-21.0,-2112.0,-20.727928161621094,-2.182399272918701,0,0,0,40000
996199,0.7042528390884399,-4.28259801864624,-14.0,-1353.0,-16.007431030273438,-2.1604573726654053,0,0,0,40000
996209,0.6780502200126648,-4.838254451751709,-32.0,-445.0,-12.532928466796875,-2.023919105529785,0,0,0,40000
996219,0.6515251994132996,-4.748361110687256,-73.0,629.0,-12.928169250488281,-1.8846611976623535,0,0,0,40000
996229,0.5905417203903198,-3.930485963821411,-99.0,1528.0,-17.70574188232422,-1.5372402667999268,0,0,0,40000
996239,0.5583273768424988,-3.0340805053710938,-106.0,2201.0,-22.982051849365234,-1.3611361980438232,0,0,0,40000
996249,0.4876921772956848,-1.3625857830047607,-116.0,2578.0,-32.94934844970703,-0.9528588056564331,0,0,0,40000
996259,0.43167644739151,-0.15178781747817993,-108.0,2677.0,-40.19501495361328,-0.6303786039352417,0,0,0,40000
996269,0.3511376976966858,1.6506580114364624,-123.0,2567.0,-51.03785705566406,-0.15865564346313477,0,0,0,40000
996279,0.3027525544166565,2.764655351638794,-101.0,2302.0,-57.79155731201172,0.12198257446289062,0,0,0,40000
996289,0.2240770161151886,4.173715591430664,-124.0,1891.0,-66.35513305664062,0.5863375663757324,0,0,0,40000
996299,0.1737341433763504,4.902843952178955,-117.0,1383.0,-70.8685302734375,0.8825771808624268,0,0,0,40000
996309,0.09641039371490479,5.586787223815918,-93.0,750.0,-75.13298797607422,1.3428163528442383,0,0,0,40000
996319,0.04179319739341736,5.737468719482422,-89.0,34.0,-76.20777893066406,1.668628454208374,0,0,0,40000
996329,-0.031518738716840744,5.447878837585449,-100.0,-728.0,-74.63878631591797,2.108551025390625,0,0,0,40000
996339,-0.06773283332586288,4.881405353546143,-104.0,-1596.0,-71.39366149902344,2.3273849487304688,0,0,0,40000
996349,-0.11381682008504868,3.4622085094451904,-70.0,-2366.0,-63.00100326538086,2.6068224906921387,0,0,0,40000
996359,-0.133397176861763,2.253502130508423,-41.0,-2776.0,-55.83104705810547,2.728090763092041,0,0,0,40000
996369,-0.16624949872493744,0.30665257573127747,-39.0,-2847.0,-44.1826286315918,2.9298348426818848,0,0,0,40000
996379,-0.18744170665740967,-0.9423609375953674,-55.0,-2621.0,-36.67512130737305,3.0623152256011963,0,0,0,40000
996389,-0.22421704232692719,-2.569042682647705,-51.0,-2179.0,-26.856483459472656,3.289187431335449,0,0,0,40000
996399,-0.25964221358299255,-3.392570734024048,-50.0,-1525.0,-21.823049545288086,3.509141683578491,0,0,0,40000
996409,-0.3027906119823456,-4.104719638824463,-74.0,-710.0,-17.43378448486328,3.776505947113037,0,0,0,40000
996419,-0.33037543296813965,-4.164063930511475,-76.0,260.0,-16.952957153320312,3.9515795707702637,0,0,0,40000
996429,-0.3832434117794037,-3.5963730812072754,-59.0,1167.0,-20.242507934570312,4.279727458953857,0,0,0,40000
996439,-0.4128109812736511,-2.879077911376953,-69.0,1783.0,-24.450984954833984,4.469172477722168,0,0,0,40000
996449,-0.4615086615085602,-1.518147349357605,-77.0,2109.0,-32.554039001464844,4.774588584899902,0,0,0,40000
996459,-0.4952695369720459,-0.5163842439651489,-72.0,2203.0,-38.537078857421875,4.991607666015625,0,0,0,40000
996469,-0.5310000777244568,0.9681200981140137,-35.0,2123.0,-47.455570220947266,5.2215681076049805,0,0,0,40000
996479,-0.5469852089881897,1.8651875257492065,-17.0,1858.0,-52.88331985473633,5.333728313446045,0,0,0,40000
996489,-0.5624848008155823,2.9637465476989746,-13.0,1419.0,-59.55140686035156,5.443453788757324,0,0,0,40000
996499,-0.5562876462936401,3.466245651245117,6.0,848.0,-62.6646842956543,5.423040390014648,0,0,0,40000
996509,-0.5458855032920837,3.7965173721313477,16.0,213.0,-64.75767517089844,5.377167701721191,0,0,0,40000
996519,-0.5227944850921631,3.695558786392212,85.0,-502.0,-64.26441955566406,5.2546820640563965,0,0,0,40000
996529,-0.4635029137134552,3.0283517837524414,129.0,-1285.0,-60.361724853515625,4.9137282371521,0,0,0,40000
996539,-0.4124753773212433,2.2249231338500977,142.0,-2036.0,-55.617942810058594,4.620575904846191,0,0,0,40000
996549,-0.3128584623336792,0.6294324398040771,137.0,-2467.0,-46.0838508605957,4.0333757400512695,0,0,0,40000
996559,-0.24422673881053925,-0.5433008670806885,133.0,-2576.0,-39.045257568359375,3.629713296890259,0,0,0,40000
996569,-0.1412351131439209,-2.248173952102661,140.0,-2399.0,-28.76850128173828,3.017287492752075,0,0,0,40000
996579,-0.07226942479610443,-3.244844675064087,156.0,-1988.0,-22.702836990356445,2.606518268585205,0,0,0,40000
996589,0.025456205010414124,-4.351971626281738,137.0,-1350.0,-15.941385269165039,2.0205488204956055,0,0,0,40000
996599,0.07718291133642197,-4.743988990783691,121.0,-514.0,-13.451192855834961,1.7084718942642212,0,0,0,40000
996609,0.1536291390657425,-4.722121715545654,93.0,421.0,-13.4383544921875,1.246004581451416,0,0,0,40000
996619,0.20401442050933838,-4.281173229217529,96.0,1239.0,-15.949893951416016,0.9381723403930664,0,0,0,40000
996629,0.2745676338672638,-3.175628423690796,105.0,1815.0,-22.47345542907715,0.5075240135192871,0,0,0,40000
996639,0.31657662987709045,-2.2688307762145996,120.0,2103.0,-27.83510971069336,0.24651837348937988,0,0,0,40000
996649,0.375692754983902,-0.8007561564445496,77.0,2143.0,-36.60192108154297,-0.1188499927520752,0,0,0,40000
996659,0.4159395694732666,0.15132229030132294,93.0,2021.0,-42.307579040527344,-0.37232136726379395,0,0,0,40000
996669,0.4808855354785919,1.4032520055770874,90.0,1698.0,-49.84698486328125,-0.7756550312042236,0,0,0,40000
996679,0.519561231136322,2.0582802295684814,82.0,1227.0,-53.83131408691406,-1.022819995880127,0,0,0,40000
996689,0.5739036202430725,2.6910085678100586,86.0,687.0,-57.7021484375,-1.3654320240020752,0,0,0,40000
996699,0.6112897992134094,2.8374011516571045,98.0,54.0,-58.66419982910156,-1.607640027999878,0,0,0,40000
996709,0.6854940056800842,2.5957529544830322,126.0,-637.0,-57.29664611816406,-2.0724680423736572,0,0,0,40000
996719,0.7407755851745605,2.0870869159698486,101.0,-1466.0,-54.31380844116211,-2.425776481628418,0,0,0,40000
996729,0.815920889377594,0.7809240221977234,87.0,-2162.0,-46.51742172241211,-2.900301456451416,0,0,0,40000
996739,0.8766122460365295,-0.3079890012741089,112.0,-2481.0,-39.98793029785156,-3.289990186691284,0,0,0,40000
996749,0.9519248008728027,-2.003751516342163,127.0,-2447.0,-29.773462295532227,-3.7694103717803955,0,0,0,40000
996759,0.986591637134552,-3.0618507862091064,94.0,-2166.0,-23.34552001953125,-4.0065836906433105,0,0,0,40000
996769,1.028584361076355,-4.359131813049316,34.0,-1686.0,-15.445562362670898,-4.2891035079956055,0,0,0,40000
996779,1.0452865362167358,-4.939511775970459,-13.0,-957.0,-11.821643829345703,-4.420562744140625,0,0,0,40000
996789,1.0544087886810303,-5.218318462371826,8.0,-144.0,-10.024715423583984,-4.500493049621582,0,0,0,40000
996799,1.0330736637115479,-4.958340167999268,-24.0,874.0,-11.430427551269531,-4.403785705566406,0,0,0,40000
996809,0.9798755049705505,-3.960697650909424,-61.0,1751.0,-17.254135131835938,-4.120806694030762,0,0,0,40000
996819,0.9344933032989502,-3.0381581783294678,-111.0,2119.0,-22.70518684387207,-3.871542453765869,0,0,0,40000
996829,0.8892274498939514,-1.9965589046478271,-139.0,2363.0,-28.88224220275879,-3.6271703243255615,0,0,0,40000
996839,0.8107672333717346,-0.3695319592952728,-112.0,2355.0,-38.613807678222656,-3.1815576553344727,0,0,0,40000
996849,0.7516827583312988,0.6653257608413696,-106.0,2191.0,-44.83060073852539,-2.8502674102783203,0,0,0,40000
996859,0.6699246168136597,2.0610735416412354,-120.0,1891.0,-53.250823974609375,-2.380854845046997,0,0,0,40000
996869,0.6180615425109863,2.8329620361328125,-126.0,1438.0,-57.95814895629883,-2.0888521671295166,0,0,0,40000
996879,0.5400473475456238,3.6098601818084717,-104.0,810.0,-62.719871520996094,-1.6378190517425537,0,0,0,40000
996889,0.49340707063674927,3.8330798149108887,-74.0,118.0,-64.171875,-1.3732879161834717,0,0,0,40000
996899,0.4422559440135956,3.647397756576538,-39.0,-675.0,-63.17115783691406,-1.0801324844360352,0,0,0,40000
996909,0.4052986800670624,3.1408908367156982,-44.0,-1536.0,-60.232887268066406,-0.8710178136825562,0,0,0,40000
996919,0.37380868196487427,1.8153709173202515,-47.0,-2286.0,-52.35181427001953,-0.6937122344970703,0,0,0,40000
996929,0.35472267866134644,0.6694363951683044,-50.0,-2643.0,-45.51021194458008,-0.5900787115097046,0,0,0,40000
996939,0.3342888057231903,-1.1809635162353516,-30.0,-2705.0,-34.39471435546875,-0.47766566276550293,0,0,0,40000
996949,0.3242853879928589,-2.3659112453460693,-9.0,-2457.0,-27.22810935974121,-0.42745542526245117,0,0,0,40000
996959,0.3026626408100128,-3.8982114791870117,-15.0,-1983.0,-17.93467140197754,-0.3070802688598633,0,0,0,40000
996969,0.290194571018219,-4.66650390625,-19.0,-1345.0,-13.193805694580078,-0.24117040634155273,0,0,0,40000
996979,0.2801043391227722,-5.303001403808594,-49.0,-513.0,-9.221511840820312,-0.18922603130340576,0,0,0,40000
996989,0.26560676097869873,-5.317460060119629,-46.0,475.0,-8.974859237670898,-0.11038923263549805,0,0,0,40000
996999,0.2343086451292038,-4.657022476196289,-46.0,1403.0,-12.787860870361328,0.06999373435974121,0,0,0,40000
997009,0.21197189390659332,-3.873884439468384,-43.0,1987.0,-17.360750198364258,0.19738280773162842,0,0,0,40000
997019,0.17536714673042297,-2.3832831382751465,-53.0,2344.0,-26.214221954345703,0.4112684726715088,0,0,0,40000
997029,0.15054668486118317,-1.2706223726272583,-60.0,2468.0,-32.838645935058594,0.555359959602356,0,0,0,40000
997039,0.11925456672906876,0.3943057954311371,-42.0,2354.0,-42.820308685302734,0.739172101020813,0,0,0,40000
997049,0.10578139126300812,1.414097547531128,-60.0,2070.0,-48.96941375732422,0.8166619539260864,0,0,0,40000
997059,0.08263876289129257,2.6955440044403076,-30.0,1663.0,-56.724456787109375,0.9528450965881348,0,0,0,40000
997069,0.06554420292377472,3.3312814235687256,-16.0,1108.0,-60.631492614746094,1.0532587766647339,0,0,0,40000
997079,0.060306303203105927,3.8895750045776367,-2.0,506.0,-64.09259796142578,1.0828325748443604,0,0,0,40000
997089,0.06504993885755539,3.958721876144409,6.0,-218.0,-64.62580871582031,1.052452802658081,0,30,0,40000
997099,0.08213146030902863,3.546506404876709,9.0,-993.0,-243.16555786132812,0.9477739334106445,0,30,0,40000
997109,0.1014040857553482,2.886174440383911,29.0,-1871.0,-240.1985321044922,0.8294012546539307,0,30,0,40000
997119,0.14209134876728058,1.2905724048614502,81.0,-2805.0,-231.58485412597656,0.5816642045974731,0,30,0,40000
997129,0.166261225938797,-0.21309058368206024,90.0,-3796.0,-223.4750518798828,0.4319787621498108,0,30,0,40000
997139,0.22241753339767456,-3.1686203479766846,106.0,-4821.0,-206.5845184326172,0.08904135227203369,0,30,0,40000
997149,0.2661265730857849,-5.557887554168701,113.0,-5575.0,-193.0112762451172,-0.1807035207748413,0,30,0,40000
997159,0.35088062286376953,-9.518726348876953,114.0,-5930.0,-169.90895080566406,-0.698729395866394,0,30,0,40000
997169,0.3977651298046112,-12.263032913208008,106.0,-5991.0,-154.0081787109375,-0.9913700819015503,0,30,0,40000
997179,0.4755035936832428,-16.294527053833008,129.0,-5740.0,-130.27813720703125,-1.471122145652771,0,30,0,40000
997189,0.5163120031356812,-18.82335090637207,107.0,-5286.0,-115.47057342529297,-1.7309949398040771,0,30,0,40000
997199,0.5787257552146912,-22.227392196655273,43.0,-4621.0,-95.31891632080078,-2.1222987174987793,0,30,0,40000
997209,0.6245745420455933,-24.14006805419922,38.0,-3690.0,-84.04112243652344,-2.415560722351074,0,30,0,40000
997219,0.6635226607322693,-26.29962921142578,18.0,-2649.0,-71.2183837890625,-2.6686506271362305,0,30,0,40000
997229,0.6734575629234314,-27.24757194519043,42.0,-1450.0,-65.62400817871094,-2.748293876647949,0,30,0,40000
997239,0.6866627931594849,-27.81937026977539,4.0,-145.0,-62.262596130371094,-2.8480277061462402,0,30,0,40000
997249,0.6746142506599426,-27.606657028198242,-25.0,996.0,-63.60749816894531,-2.7961831092834473,0,30,0,40000
997259,0.6462864279747009,-26.612646102905273,-59.0,1837.0,-69.659423828125,-2.64599609375,0,30,0,40000
997269,0.6271033883094788,-25.63214874267578,-25.0,2369.0,-75.6613540649414,-2.549858808517456,0,30,0,40000
997279,0.5923406481742859,-23.909334182739258,-19.0,2622.0,-86.15974426269531,-2.359419107437134,0,30,0,40000
997289,0.5519182682037354,-22.664663314819336,-47.0,2726.0,-93.83283996582031,-2.1339306831359863,0,30,0,40000
997299,0.4911191165447235,-20.840017318725586,-97.0,2607.0,-105.03384399414062,-1.7846907377243042,0,30,0,40000
997309,0.4518444240093231,-19.71927833557129,-114.0,2272.0,-112.05343627929688,-1.5630966424942017,0,30,0,40000
997319,0.37682661414146423,-18.30958366394043,-110.0,1827.0,-120.84634399414062,-1.1251182556152344,0,30,0,40000
997329,0.32866862416267395,-17.585479736328125,-79.0,1248.0,-125.5550537109375,-0.8465635776519775,0,30,0,40000
997339,0.2565488815307617,-16.961082458496094,-94.0,574.0,-129.68658447265625,-0.42230749130249023,0,30,0,40000
997349,0.21237868070602417,-16.862133026123047,-53.0,-187.0,-130.6736297607422,-0.16418969631195068,0,30,0,40000
997359,0.15429311990737915,-17.28502655029297,-75.0,-1048.0,-128.52468872070312,0.1788996458053589,0,30,0,40000
997369,0.11995210498571396,-17.96839141845703,-67.0,-1974.0,-124.79417419433594,0.38088154792785645,0,30,0,40000
997379,0.08173491805791855,-19.662004470825195,-76.0,-2954.0,-114.96516418457031,0.6073275804519653,0,30,0,40000
997389,0.057620756328105927,-21.197635650634766,-22.0,-3685.0,-106.03427124023438,0.7500689625740051,0,30,0,40000
997399,0.024652449414134026,-23.863370895385742,0.0,-4041.0,-90.25675964355469,0.946809709072113,0,30,0,40000
997409,0.007612249813973904,-25.739442825317383,12.0,-4106.0,-79.15071105957031,1.0485895872116089,0,30,0,40000
997419,-0.019210398197174072,-28.47662353515625,-28.0,-3887.0,-62.80570983886719,1.2096792459487915,0,30,0,40000
997429,-0.026253655552864075,-30.146780014038086,-20.0,-3399.0,-52.800132751464844,1.252625584602356,0,30,0,40000
997439,-0.0465313158929348,-32.261474609375,-8.0,-2777.0,-40.068115234375,1.375523567199707,0,30,0,40000
997449,-0.05956733971834183,-33.339908599853516,0.0,-1922.0,-33.5097770690918,1.4553940296173096,0,30,0,40000
997459,-0.07715268433094025,-34.320770263671875,-8.0,-915.0,-27.5045166015625,1.5630701780319214,0,30,0,40000
997469,-0.07992798835039139,-34.48481750488281,-15.0,197.0,-26.387065887451172,1.5820214748382568,0,30,0,40000
997479,-0.08550778776407242,-33.960697174072266,-40.0,1268.0,-29.40430450439453,1.6180171966552734,0,30,0,40000
997489,-0.08341362327337265,-33.206077575683594,1.0,1981.0,-33.82642364501953,1.608008861541748,0,30,0,40000
997499,-0.08286696672439575,-31.67881965637207,-46.0,2424.0,-42.920310974121094,1.6072572469711304,0,30,0,40000
997509,-0.08835044503211975,-30.519487380981445,-4.0,2590.0,-49.846710205078125,1.642775058746338,0,30,0,40000
997519,-0.08920719474554062,-28.76335906982422,-28.0,2526.0,-60.39964294433594,1.650546669960022,0,30,0,40000
997529,-0.09269655495882034,-27.62470817565918,-35.0,2367.0,-67.28923034667969,1.6741793155670166,0,30,0,40000
997539,-0.11266672611236572,-26.107803344726562,-37.0,2022.0,-76.489990234375,1.7971265316009521,0,30,0,40000
997549,-0.1183035597205162,-25.280431747436523,-19.0,1564.0,-81.58613586425781,1.8344457149505615,0,30,0,40000
997559,-0.14116854965686798,-24.40593147277832,-16.0,957.0,-86.99176025390625,1.9757540225982666,0,30,0,40000
997569,-0.15482375025749207,-24.12746238708496,3.0,235.0,-88.8358154296875,2.0621581077575684,0,30,0,40000
