timestamp,stabilizer.roll,stabilizer.pitch,stateEstimateZ.rateRoll,stateEstimateZ.ratePitch,controller.pitchRate,controller.rollRate,roll,pitch,yawdot,thrust
208977,-40.80754089355469,67.52849578857422,-12.0,-10.0,-409.22296142578125,247.29238891601562,0,0,0,40000
208987,-40.82162857055664,67.51217651367188,2.0,-1.0,-411.1506042480469,248.6013641357422,0,0,0,40000
208997,-40.822330474853516,67.45757293701172,-29.0,-88.0,-412.8475646972656,249.83047485351562,0,0,0,40000
209007,-40.75663757324219,67.38428497314453,-37.0,-246.0,-414.43035888671875,250.65992736816406,0,0,0,40000
209017,-40.414939880371094,67.14127349853516,8.0,-574.0,-414.9899597167969,249.8273468017578,0,0,0,40000
209027,-39.97554397583008,66.8892593383789,-24.0,-869.0,-415.4877014160156,248.39569091796875,0,0,0,40000
209037,-38.85325622558594,66.27645874023438,47.0,-1370.0,-413.8074645996094,242.84303283691406,0,0,0,40000
209047,-37.7509651184082,65.67110443115234,108.0,-1973.0,-412.1529235839844,237.37545776367188,0,0,0,40000
209057,-35.57882308959961,64.3910903930664,145.0,-2700.0,-406.4212951660156,225.43780517578125,0,0,0,40000
209067,-33.8293342590332,63.25002670288086,190.0,-3509.0,-401.4864807128906,215.97708129882812,0,0,0,40000
209077,-30.8175048828125,61.01355743408203,254.0,-4374.0,-389.9266662597656,198.86766052246094,0,0,0,40000
209087,-28.644506454467773,59.12479019165039,389.0,-5253.0,-380.39093017578125,186.71527099609375,0,0,0,40000
209097,-25.36724853515625,55.716243743896484,502.0,-6127.0,-361.6538391113281,167.85202026367188,0,0,0,40000
209107,-23.250595092773438,53.061866760253906,574.0,-6915.0,-347.3516845703125,155.8748321533203,0,0,0,40000
209117,-20.22995948791504,48.544673919677734,695.0,-7551.0,-321.7605895996094,138.3934326171875,0,0,0,40000
209127,-18.356708526611328,45.235321044921875,916.0,-8102.0,-303.3016052246094,127.7269515991211,0,0,0,40000
209137,-15.78420639038086,39.955135345458984,1106.0,-8369.0,-272.8832702636719,112.79557800292969,0,0,0,40000
209147,-14.192117691040039,36.29716491699219,1370.0,-8531.0,-252.06838989257812,103.68778991699219,0,0,0,40000
209157,-11.955265045166016,30.757831573486328,1668.0,-8396.0,-219.82156372070312,90.65177917480469,0,0,0,40000
209167,-10.527721405029297,27.14707374572754,1950.0,-7970.0,-199.01449584960938,82.41944122314453,0,0,0,40000
209177,-8.451157569885254,22.033937454223633,2297.0,-7358.0,-169.05690002441406,70.23847961425781,0,0,0,40000
209187,-7.083171367645264,18.92164421081543,2577.0,-6502.0,-150.98765563964844,62.259521484375,0,0,0,40000
209197,-5.024282932281494,14.869686126708984,2806.0,-5456.0,-127.16845703125,50.08173751831055,0,0,0,40000
209207,-3.6543569564819336,12.677347183227539,2948.0,-4223.0,-114.42041015625,41.98817443847656,0,0,0,40000
209217,-1.5678881406784058,10.249615669250488,2957.0,-2937.0,-100.1878890991211,29.541160583496094,0,0,0,40000
209227,-0.16658474504947662,9.211653709411621,2920.0,-1626.0,-94.24821472167969,21.15509033203125,0,0,0,40000
209237,1.8784492015838623,8.530409812927246,2897.0,-386.0,-90.42211151123047,8.853143692016602,0,0,0,40000
209247,3.199982166290283,8.625283241271973,2826.0,775.0,-91.24832153320312,0.8439121246337891,0,0,0,40000
209257,5.092643737792969,9.51000690460205,2695.0,1799.0,-96.82911682128906,-10.642267227172852,0,0,0,40000
209267,6.266302108764648,10.501145362854004,2396.0,2581.0,-103.07866668701172,-17.858314514160156,0,0,0,40000
209277,7.90269660949707,12.440579414367676,2132.0,3165.0,-115.06404113769531,-27.894672393798828,0,0,0,40000
209287,8.92807388305664,13.941990852355957,1854.0,3539.0,-124.47254180908203,-34.30260467529297,0,0,0,40000
209297,10.300213813781738,16.365758895874023,1607.0,3717.0,-139.4766845703125,-42.828346252441406,0,0,0,40000
209307,11.10474681854248,18.016727447509766,1347.0,3718.0,-149.9031982421875,-47.979042053222656,0,0,0,40000
209317,12.161474227905273,20.425737380981445,1083.0,3559.0,-164.9415283203125,-54.67203140258789,0,0,0,40000
209327,12.738763809204102,21.92886734008789,779.0,3249.0,-174.60031127929688,-58.511199951171875,0,0,0,40000
209337,13.413037300109863,23.930713653564453,450.0,2830.0,-187.30613708496094,-62.9520263671875,0,0,0,40000
209347,13.706303596496582,25.06608009338379,149.0,2289.0,-194.85693359375,-65.11949157714844,0,0,0,40000
209357,13.910003662109375,26.3817081451416,-81.0,1680.0,-203.5276336669922,-66.75725555419922,0,0,0,40000
209367,13.866034507751465,26.964599609375,-296.0,926.0,-207.8273162841797,-66.91007995605469,0,0,0,40000
209377,13.566648483276367,27.31764030456543,-522.0,93.0,-210.7625732421875,-65.52519989013672,0,0,0,40000
209387,13.195651054382324,27.190614700317383,-742.0,-787.0,-210.818115234375,-63.69980239868164,0,0,0,40000
209397,12.416899681091309,26.390867233276367,-957.0,-1707.0,-206.82289123535156,-59.40998458862305,0,0,0,40000
209407,11.777533531188965,25.47096824645996,-1134.0,-2557.0,-202.07908630371094,-55.934906005859375,0,0,0,40000
209417,10.654644012451172,23.534820556640625,-1315.0,-3354.0,-191.1932373046875,-49.530967712402344,0,0,0,40000
209427,9.82705020904541,21.901615142822266,-1401.0,-4009.0,-182.07101440429688,-44.870155334472656,0,0,0,40000
209437,8.514752388000488,19.034496307373047,-1540.0,-4556.0,-165.47494506835938,-37.26774215698242,0,0,0,40000
209447,7.618279457092285,16.917011260986328,-1690.0,-4903.0,-153.3031463623047,-32.128292083740234,0,0,0,40000
209457,6.2599029541015625,13.517725944519043,-1793.0,-5102.0,-133.35427856445312,-24.18228530883789,0,0,0,40000
209467,5.372005939483643,11.209768295288086,-1848.0,-5100.0,-119.87053680419922,-19.026729583740234,0,0,0,40000
209477,4.049291610717773,7.799241542816162,-1805.0,-4880.0,-99.68174743652344,-11.227532386779785,0,0,0,40000
209487,3.194598913192749,5.638904571533203,-1748.0,-4578.0,-86.91466522216797,-6.205385208129883,0,0,0,40000
209497,1.969619631767273,2.638441801071167,-1699.0,-4152.0,-69.02613830566406,1.0708513259887695,0,0,0,40000
209507,1.2035993337631226,0.860679030418396,-1616.0,-3605.0,-58.40642166137695,5.621659278869629,0,0,0,40000
209517,0.13764581084251404,-1.3894813060760498,-1515.0,-2967.0,-44.889400482177734,12.000618934631348,0,0,0,40000
209527,-0.4954068958759308,-2.5851988792419434,-1343.0,-2258.0,-37.65149688720703,15.806303977966309,0,0,0,40000
209537,-1.3529125452041626,-3.892989158630371,-1145.0,-1544.0,-29.70210075378418,20.98213768005371,0,0,0,40000
209547,-1.8487728834152222,-4.431441307067871,-935.0,-801.0,-26.34449577331543,24.006969451904297,0,0,0,40000
209557,-2.4407858848571777,-4.731070041656494,-736.0,-78.0,-24.40679931640625,27.625595092773438,0,0,0,40000
209567,-2.736696720123291,-4.610758304595947,-517.0,602.0,-24.988540649414062,29.479703903198242,0,0,0,40000
209577,-3.0196738243103027,-3.9828944206237793,-317.0,1212.0,-28.627338409423828,31.265241622924805,0,0,0,40000
209587,-3.0987472534179688,-3.3093254566192627,-109.0,1700.0,-32.56113052368164,31.831838607788086,0,0,0,40000
209597,-3.0785679817199707,-2.0075554847717285,134.0,2083.0,-40.295066833496094,31.803909301757812,0,0,0,40000
209607,-2.9760985374450684,-0.9886810779571533,343.0,2366.0,-46.36629867553711,31.279701232910156,0,0,0,40000
209617,-2.6874547004699707,0.6835799813270569,498.0,2513.0,-56.399925231933594,29.6321964263916,0,0,0,40000
209627,-2.4148402214050293,1.835947036743164,649.0,2561.0,-63.35538101196289,28.072296142578125,0,0,0,40000
209637,-1.9177701473236084,3.5557873249053955,776.0,2450.0,-73.76066589355469,25.15367889404297,0,0,0,40000
209647,-1.531073808670044,4.631744861602783,913.0,2246.0,-80.34257507324219,22.88416862487793,0,0,0,40000
209657,-0.8809199333190918,6.066068172454834,1003.0,1925.0,-89.11396026611328,19.017711639404297,0,0,0,40000
209667,-0.41891932487487793,6.851826190948486,1050.0,1502.0,-94.02488708496094,16.26384925842285,0,0,0,40000
209677,0.32036325335502625,7.7148261070251465,1087.0,1026.0,-99.42505645751953,11.827465057373047,0,0,0,40000
209687,0.8290433287620544,8.068400382995605,1098.0,536.0,-101.78456115722656,8.756616592407227,0,0,0,40000
209697,1.6022722721099854,8.24946117401123,1113.0,42.0,-103.11737823486328,4.078523635864258,0,0,0,40000
209707,2.116689443588257,8.159881591796875,1107.0,-386.0,-102.82599639892578,0.9347267150878906,0,0,0,40000
209717,2.860957384109497,7.751237392425537,1042.0,-781.0,-100.61246490478516,-3.607937812805176,0,0,0,40000
209727,3.321690797805786,7.304784297943115,970.0,-1164.0,-98.1584701538086,-6.4665117263793945,0,0,0,40000
209737,3.9511466026306152,6.394530296325684,873.0,-1469.0,-92.90038299560547,-10.354504585266113,0,0,0,40000
209747,4.335138320922852,5.669903755187988,770.0,-1687.0,-88.73151397705078,-12.783968925476074,0,0,0,40000
209757,4.833113193511963,4.472992897033691,675.0,-1787.0,-81.69886016845703,-15.9110107421875,0,0,0,40000
209767,5.099624156951904,3.6377744674682617,527.0,-1832.0,-76.80673217773438,-17.659934997558594,0,0,0,40000
209777,5.405636787414551,2.4076101779937744,394.0,-1762.0,-69.51255798339844,-19.6547794342041,0,0,0,40000
209787,5.543154239654541,1.6197246313095093,236.0,-1664.0,-64.84324645996094,-20.644624710083008,0,0,0,40000
209797,5.665712356567383,0.5427427291870117,98.0,-1468.0,-58.41010284423828,-21.548728942871094,0,0,0,40000
209807,5.689656734466553,-0.06792396306991577,-87.0,-1188.0,-54.751224517822266,-21.862911224365234,0,0,0,40000
209817,5.5989766120910645,-0.7795932292938232,-185.0,-901.0,-50.46575164794922,-21.488082885742188,0,0,0,40000
209827,5.49094820022583,-1.1133216619491577,-290.0,-559.0,-48.433815002441406,-21.0059814453125,0,0,0,40000
209837,5.25102424621582,-1.387414574623108,-394.0,-211.0,-46.750144958496094,-19.72707176208496,0,0,0,40000
209847,5.043056011199951,-1.4144600629806519,-482.0,67.0,-46.54558181762695,-18.63311004638672,0,0,0,40000
209857,4.678957939147949,-1.2385202646255493,-563.0,393.0,-47.56122970581055,-16.593463897705078,0,0,0,40000
209867,4.415421962738037,-0.983777642250061,-623.0,658.0,-49.05699920654297,-15.147905349731445,0,0,0,40000
209877,3.967580795288086,-0.45366600155830383,-664.0,868.0,-52.21725082397461,-12.585328102111816,0,0,0,40000
209887,3.6462950706481934,-0.02853226102888584,-694.0,987.0,-54.762020111083984,-10.770849227905273,0,0,0,40000
209897,3.156205654144287,0.6900810599327087,-704.0,1093.0,-59.085601806640625,-7.930854797363281,0,0,0,40000
209907,2.829866886138916,1.1910957098007202,-707.0,1121.0,-62.12139129638672,-6.061644554138184,0,0,0,40000
209917,2.344754457473755,1.926243543624878,-699.0,1046.0,-66.5814208984375,-3.227114677429199,0,0,0,40000
209927,2.0362021923065186,2.391294002532959,-665.0,1010.0,-69.4378890991211,-1.4405574798583984,0,0,0,40000
209937,1.5914428234100342,3.014857530593872,-640.0,847.0,-73.26260375976562,1.1749610900878906,0,0,0,40000
209947,1.3101762533187866,3.357562780380249,-572.0,673.0,-75.41554260253906,2.8199024200439453,0,0,0,40000
209957,0.9382802248001099,3.733180284500122,-504.0,485.0,-77.77716064453125,5.0188188552856445,0,0,0,40000
209967,0.7265764474868774,3.8849937915802,-435.0,245.0,-78.80290222167969,6.264749526977539,0,0,0,40000
209977,0.453948438167572,3.969480037689209,-362.0,61.0,-79.42831420898438,7.883798122406006,0,0,0,40000
209987,0.3224630355834961,3.9369406700134277,-257.0,-125.0,-79.3516616821289,8.661537170410156,0,0,0,40000
209997,0.17931194603443146,3.7497215270996094,-171.0,-358.0,-78.3436279296875,9.51354694366455,0,0,0,40000
210007,0.11927066743373871,3.546140432357788,-75.0,-516.0,-77.23106384277344,9.86955451965332,0,0,0,40000
210017,0.09702954441308975,3.1297919750213623,0.0,-670.0,-74.83212280273438,9.999964714050293,0,0,0,40000
210027,0.1205914169549942,2.792454242706299,65.0,-782.0,-72.89601135253906,9.855264663696289,0,0,0,40000
210037,0.2073938101530075,2.217909336090088,157.0,-857.0,-69.52226257324219,9.329485893249512,0,0,0,40000
210047,0.29103702306747437,1.800770878791809,239.0,-926.0,-67.07850646972656,8.819964408874512,0,0,0,40000
210057,0.46793901920318604,1.157315731048584,291.0,-909.0,-63.26011657714844,7.746732711791992,0,0,0,40000
210067,0.615982174873352,0.7564482092857361,327.0,-859.0,-60.88237762451172,6.8417463302612305,0,0,0,40000
210077,0.8674211502075195,0.1798231303691864,363.0,-810.0,-57.43484115600586,5.310102462768555,0,0,0,40000
210087,1.062355637550354,-0.1549830585718155,425.0,-677.0,-55.4253044128418,4.110990524291992,0,0,0,40000
210097,1.3655235767364502,-0.552017331123352,475.0,-514.0,-53.030982971191406,2.2548141479492188,0,0,0,40000
210107,1.5661581754684448,-0.7561762928962708,452.0,-381.0,-51.78569793701172,1.0064458847045898,0,0,0,40000
210117,1.8829532861709595,-0.9335405826568604,458.0,-178.0,-50.695220947265625,-0.9470415115356445,0,0,0,40000
210127,2.080791473388672,-0.9702379703521729,417.0,31.0,-50.446250915527344,-2.1941604614257812,0,0,0,40000
210137,2.3760251998901367,-0.8669345378875732,418.0,222.0,-51.03839111328125,-4.033318519592285,0,0,0,40000
210147,2.5580365657806396,-0.735572099685669,376.0,362.0,-51.802860260009766,-5.199949264526367,0,0,0,40000
210157,2.7970783710479736,-0.44380277395248413,338.0,484.0,-53.53635025024414,-6.715289115905762,0,0,0,40000
210167,2.9339189529418945,-0.19078706204891205,298.0,585.0,-55.045623779296875,-7.622714996337891,0,0,0,40000
210177,3.1108760833740234,0.23346039652824402,222.0,657.0,-57.59280776977539,-8.775847434997559,0,0,0,40000
210187,3.197538137435913,0.5382344126701355,129.0,652.0,-59.4339599609375,-9.390790939331055,0,0,0,40000
210197,3.2837295532226562,0.9765539169311523,112.0,643.0,-62.08793640136719,-10.005495071411133,0,0,0,40000
210207,3.3112847805023193,1.2602567672729492,41.0,624.0,-63.82456970214844,-10.269865036010742,0,0,0,40000
210217,3.3139359951019287,1.6626149415969849,-4.0,571.0,-66.28385162353516,-10.385247230529785,0,0,0,40000
210227,3.294867753982544,1.899929404258728,-50.0,476.0,-67.76194763183594,-10.3699312210083,0,0,0,40000
210237,3.222724437713623,2.1553955078125,-129.0,321.0,-69.35671997070312,-10.034812927246094,0,0,0,40000
210247,3.157473087310791,2.260129451751709,-172.0,175.0,-70.05172729492188,-9.738834381103516,0,0,0,40000
210257,3.032517671585083,2.2956905364990234,-207.0,-17.0,-70.33396911621094,-9.08166217803955,0,0,0,40000
210267,2.9245717525482178,2.239655017852783,-231.0,-166.0,-70.06566619873047,-8.523002624511719,0,0,0,40000
210277,2.7386934757232666,2.0547378063201904,-261.0,-313.0,-69.02035522460938,-7.492166519165039,0,0,0,40000
210287,2.612764596939087,1.8778363466262817,-266.0,-447.0,-68.01746368408203,-6.816483497619629,0,0,0,40000
210297,2.4226107597351074,1.5361368656158447,-278.0,-538.0,-66.01768493652344,-5.750541687011719,0,0,0,40000
210307,2.2862257957458496,1.2516605854034424,-291.0,-632.0,-64.35182189941406,-5.002458572387695,0,0,0,40000
210317,2.0946435928344727,0.7999823689460754,-275.0,-664.0,-61.67120361328125,-3.9180612564086914,0,0,0,40000
210327,1.9753490686416626,0.500871479511261,-247.0,-621.0,-59.8951301574707,-3.262941360473633,0,0,0,40000
210337,1.7996432781219482,0.06454260647296906,-233.0,-615.0,-57.28422164916992,-2.2647361755371094,0,0,0,40000
210347,1.6869680881500244,-0.20438788831233978,-240.0,-562.0,-55.66771697998047,-1.6406869888305664,0,0,0,40000
210357,1.5362430810928345,-0.558870792388916,-222.0,-458.0,-53.52808380126953,-0.7842683792114258,0,0,0,40000
210367,1.46094810962677,-0.7213512659072876,-173.0,-323.0,-52.533424377441406,-0.3772153854370117,0,0,0,40000
210377,1.3641186952590942,-0.8963755369186401,-116.0,-193.0,-51.45820236206055,0.1618337631225586,0,0,0,40000
210387,1.3158928155899048,-0.960066020488739,-78.0,-67.0,-51.047977447509766,0.41116809844970703,0,0,0,40000
210397,1.2808829545974731,-0.9601404666900635,-39.0,43.0,-51.018516540527344,0.5824470520019531,0,0,0,40000
210407,1.272141695022583,-0.9071899652481079,-10.0,154.0,-51.30830383300781,0.5966334342956543,0,0,0,40000
210417,1.2702724933624268,-0.7621180415153503,-3.0,265.0,-52.15390396118164,0.5696883201599121,0,0,0,40000
210427,1.2824112176895142,-0.6333925127983093,46.0,304.0,-52.90570068359375,0.4585237503051758,0,0,0,40000
210437,1.3306021690368652,-0.3889692425727844,75.0,383.0,-54.357505798339844,0.13014888763427734,0,0,0,40000
210447,1.371809959411621,-0.21647675335407257,104.0,393.0,-55.38390350341797,-0.15771961212158203,0,0,0,40000
210457,1.4460093975067139,0.06328881531953812,121.0,431.0,-57.06096267700195,-0.6453819274902344,0,0,0,40000
210467,1.5065754652023315,0.2709926664829254,135.0,458.0,-58.31283187866211,-1.0532474517822266,0,0,0,40000
210477,1.6041438579559326,0.5805956125259399,129.0,456.0,-60.1840934753418,-1.685654640197754,0,0,0,40000
210487,1.6721149682998657,0.8011548519134521,112.0,476.0,-61.52882385253906,-2.142874240875244,0,0,0,40000
210497,1.748813271522522,1.1024720668792725,135.0,452.0,-63.366207122802734,-2.654515266418457,0,0,0,40000
210507,1.805898904800415,1.2884682416915894,124.0,378.0,-64.51864624023438,-3.0505247116088867,0,0,0,40000
210517,1.877273678779602,1.521005630493164,107.0,306.0,-65.95692443847656,-3.534231185913086,0,0,0,40000
210527,1.9181849956512451,1.6348843574523926,66.0,222.0,-66.68794250488281,-3.8368144035339355,0,0,0,40000
210537,1.9634349346160889,1.7412219047546387,48.0,132.0,-67.37712860107422,-4.166757583618164,0,0,0,40000
210547,1.9818843603134155,1.7721869945526123,18.0,65.0,-67.61573791503906,-4.336731910705566,0,0,0,40000
210557,1.9979768991470337,1.7837414741516113,19.0,-20.0,-67.73860168457031,-4.493067264556885,0,0,0,40000
210567,2.0049855709075928,1.744206190109253,34.0,-94.0,-67.55422973632812,-4.595155715942383,0,0,0,40000
210577,2.0092320442199707,1.6198740005493164,-2.0,-212.0,-66.8585433959961,-4.680909156799316,0,0,0,40000
210587,2.000563144683838,1.490891933441162,-16.0,-320.0,-66.1309814453125,-4.689060688018799,0,0,0,40000
210597,1.9758223295211792,1.243637204170227,-42.0,-390.0,-64.68792724609375,-4.600249290466309,0,0,0,40000
210607,1.9532300233840942,1.0391336679458618,-57.0,-478.0,-63.494590759277344,-4.523582935333252,0,0,0,40000
210617,1.9077616930007935,0.6772996187210083,-61.0,-543.0,-61.34837341308594,-4.308562278747559,0,0,0,40000
210627,1.8756017684936523,0.4085996747016907,-83.0,-599.0,-59.751678466796875,-4.172269821166992,0,0,0,40000
210637,1.8191883563995361,-0.011066206730902195,-78.0,-635.0,-57.238487243652344,-3.889026165008545,0,0,0,40000
210647,1.7737053632736206,-0.29844847321510315,-85.0,-610.0,-55.5086784362793,-3.669860363006592,0,0,0,40000
210657,1.7219268083572388,-0.6958830952644348,-75.0,-553.0,-53.10785675048828,-3.411397933959961,0,0,0,40000
210667,1.6882826089859009,-0.9337984919548035,-61.0,-495.0,-51.65516662597656,-3.260572910308838,0,0,0,40000
210677,1.6406599283218384,-1.2338184118270874,-77.0,-385.0,-49.82140350341797,-3.0246849060058594,0,0,0,40000
210687,1.613207459449768,-1.370498538017273,-56.0,-233.0,-48.96173095703125,-2.908669948577881,0,0,0,40000
210697,1.5767313241958618,-1.482995629310608,-48.0,-118.0,-48.243385314941406,-2.7375059127807617,0,0,0,40000
210707,1.5571736097335815,-1.5069280862808228,-41.0,-2.0,-48.06382369995117,-2.6577768325805664,0,0,0,40000
210717,1.5453882217407227,-1.4702868461608887,-37.0,167.0,-48.239017486572266,-2.633525848388672,0,0,0,40000
210727,1.5416309833526611,-1.319932222366333,-12.0,296.0,-49.0994873046875,-2.657217025756836,0,0,0,40000
210737,1.5382250547409058,-1.1756659746170044,-10.0,361.0,-49.92806625366211,-2.6829705238342285,0,0,0,40000
210747,1.534138560295105,-0.9068840146064758,17.0,445.0,-51.510162353515625,-2.7044286727905273,0,0,0,40000
210757,1.5355465412139893,-0.7113801836967468,7.0,421.0,-52.659515380859375,-2.7589292526245117,0,0,0,40000
210767,1.5496597290039062,-0.4062991440296173,35.0,437.0,-54.474117279052734,-2.8898839950561523,0,0,0,40000
210777,1.5646947622299194,-0.19359102845191956,26.0,456.0,-55.74199676513672,-3.0268683433532715,0,0,0,40000
210787,1.594735026359558,0.10081209242343903,38.0,419.0,-57.50794982910156,-3.254535675048828,0,0,0,40000
210797,1.6233681440353394,0.27859172224998474,42.0,350.0,-58.58086013793945,-3.474669933319092,0,0,0,40000
210807,1.6530953645706177,0.46212247014045715,47.0,200.0,-59.694068908691406,-3.7022323608398438,0,0,0,40000
210817,1.6682854890823364,0.5350385308265686,64.0,104.0,-60.146793365478516,-3.8432459831237793,0,0,0,40000
210827,1.6950877904891968,0.5464475750923157,42.0,-38.0,-60.23184585571289,-4.054691314697266,0,0,0,40000
210837,1.71670663356781,0.5022132992744446,55.0,-146.0,-59.98209762573242,-4.235657691955566,0,0,0,40000
210847,1.7583460807800293,0.3689081072807312,50.0,-232.0,-59.195125579833984,-4.5377726554870605,0,0,0,40000
210857,1.7918208837509155,0.24798473715782166,61.0,-282.0,-58.478492736816406,-4.791950225830078,0,0,0,40000
210867,1.8393534421920776,0.061813026666641235,69.0,-286.0,-57.36555480957031,-5.131761074066162,0,0,0,40000
210877,1.8671855926513672,-0.06877059489488602,79.0,-292.0,-56.58156967163086,-5.3544230461120605,0,0,0,40000
210887,1.9142029285430908,-0.25433850288391113,87.0,-263.0,-55.462650299072266,-5.693352222442627,0,0,0,40000
210897,1.9433943033218384,-0.3613523542881012,47.0,-219.0,-54.81102752685547,-5.926496505737305,0,0,0,40000
210907,1.994679570198059,-0.51279217004776,76.0,-179.0,-53.88871765136719,-6.293322563171387,0,0,0,40000
210917,2.0533950328826904,-0.5946004390716553,89.0,-132.0,-53.38097381591797,-6.706424713134766,0,0,0,40000
210927,2.1007678508758545,-0.6626457571983337,41.0,-76.0,-52.95359420776367,-7.053187370300293,0,0,0,40000
210937,2.1248044967651367,-0.6729745268821716,58.0,31.0,-52.87150192260742,-7.260825157165527,0,0,0,40000
210947,2.1530401706695557,-0.6330891847610474,42.0,83.0,-53.091243743896484,-7.4945268630981445,0,0,0,40000
210957,2.163140296936035,-0.5891227126121521,10.0,130.0,-53.336830139160156,-7.619932651519775,0,0,0,40000
210967,2.161774158477783,-0.5012398958206177,0.0,149.0,-53.84796905517578,-7.676611423492432,0,0,0,40000
210977,2.1561176776885986,-0.42957085371017456,-10.0,188.0,-54.26422119140625,-7.707453727722168,0,0,0,40000
210987,2.1394357681274414,-0.3142848014831543,-36.0,180.0,-54.94508743286133,-7.671845436096191,0,0,0,40000
210997,2.124018430709839,-0.24565844237804413,-54.0,122.0,-55.34865951538086,-7.643271446228027,0,0,0,40000
211007,2.0814359188079834,-0.18686601519584656,-77.0,81.0,-55.69523239135742,-7.450780391693115,0,0,0,40000
211017,2.051210880279541,-0.15896083414554596,-76.0,22.0,-55.857582092285156,-7.331330299377441,0,0,0,40000
211027,1.991063117980957,-0.17076028883457184,-77.0,-38.0,-55.781986236572266,-7.030885219573975,0,0,0,40000
211037,1.9490121603012085,-0.19803425669670105,-79.0,-74.0,-55.61274337768555,-6.837553977966309,0,0,0,40000
211047,1.889029860496521,-0.2697281837463379,-79.0,-118.0,-55.17547607421875,-6.535095691680908,0,0,0,40000
211057,1.8483855724334717,-0.3341253697872162,-95.0,-138.0,-54.77986145019531,-6.347187042236328,0,0,0,40000
211067,1.7837806940078735,-0.4309985041618347,-101.0,-145.0,-54.18683624267578,-6.013843536376953,0,0,0,40000
211077,1.7434072494506836,-0.49265170097351074,-81.0,-107.0,-53.8028564453125,-5.8243818283081055,0,0,0,40000
211087,1.6749106645584106,-0.5534558892250061,-81.0,-55.0,-53.421993255615234,-5.464465141296387,0,0,0,40000
211097,1.6320431232452393,-0.5762069821357727,-104.0,-62.0,-53.268497467041016,-5.256761074066162,0,0,0,40000
211107,1.5679033994674683,-0.6069221496582031,-108.0,-29.0,-53.066307067871094,-4.919753074645996,0,0,0,40000
211117,1.5083245038986206,-0.6215932965278625,-103.0,-14.0,-52.95976257324219,-4.608218669891357,0,0,0,40000
211127,1.4508999586105347,-0.6219239234924316,-107.0,-3.0,-52.939109802246094,-4.307913780212402,0,0,0,40000
211137,1.4066412448883057,-0.6125842928886414,-88.0,53.0,-52.97660827636719,-4.085073471069336,0,0,0,40000
211147,1.3362908363342285,-0.5687111020088196,-95.0,71.0,-53.2221794128418,-3.7039151191711426,0,0,0,40000
211157,1.2885031700134277,-0.5370766520500183,-84.0,107.0,-53.395477294921875,-3.456414222717285,0,0,0,40000
211167,1.2297507524490356,-0.46141448616981506,-73.0,129.0,-53.834625244140625,-3.1415281295776367,0,0,0,40000
211177,1.1968880891799927,-0.39012911915779114,-88.0,178.0,-54.24974060058594,-2.98067045211792,0,0,0,40000
211187,1.1416923999786377,-0.26605767011642456,-63.0,209.0,-54.98463821411133,-2.6843466758728027,0,0,0,40000
211197,1.1138337850570679,-0.15887679159641266,-72.0,276.0,-55.62164306640625,-2.5509462356567383,0,0,0,40000
211207,1.0611878633499146,0.04462210461497307,-69.0,321.0,-56.8414306640625,-2.267551898956299,0,0,0,40000
211217,1.0312920808792114,0.1974887251853943,-72.0,368.0,-57.7626838684082,-2.1194939613342285,0,0,0,40000
211227,0.9873565435409546,0.464320570230484,-59.0,398.0,-59.37431335449219,-1.8859987258911133,0,0,0,40000
211237,0.958639919757843,0.6526688933372498,-57.0,430.0,-60.52168655395508,-1.7427787780761719,0,0,0,40000
211247,0.9174752831459045,0.9470242857933044,-46.0,433.0,-62.31267166137695,-1.5237517356872559,0,0,0,40000
211257,0.8877742886543274,1.1264503002166748,-57.0,386.0,-63.420902252197266,-1.3725404739379883,0,0,0,40000
211267,0.8487898111343384,1.3718143701553345,-64.0,341.0,-64.93144989013672,-1.1646032333374023,0,0,0,40000
211277,0.8192283511161804,1.5200872421264648,-72.0,309.0,-65.86491394042969,-1.0121636390686035,0,0,0,40000
211287,0.7728651762008667,1.7102248668670654,-62.0,266.0,-67.0549087524414,-0.7577004432678223,0,0,0,40000
211297,0.7462158203125,1.8116388320922852,-61.0,199.0,-67.71656036376953,-0.6204943656921387,0,0,0,40000
211307,0.7048167586326599,1.9327784776687622,-51.0,155.0,-68.50006103515625,-0.3936629295349121,0,0,0,40000
211317,0.6911513805389404,1.9798468351364136,-43.0,50.0,-68.84136962890625,-0.3325459957122803,0,0,0,40000
211327,0.6674826741218567,2.004398822784424,-24.0,9.0,-69.04862213134766,-0.21076107025146484,0,0,0,40000
211337,0.6557943820953369,1.9913759231567383,-7.0,-41.0,-69.03041076660156,-0.1604304313659668,0,0,0,40000
211347,0.6478806734085083,1.9366894960403442,-10.0,-124.0,-68.76123046875,-0.1324474811553955,0,0,0,40000
211357,0.6480695605278015,1.863961935043335,15.0,-164.0,-68.3816909790039,-0.15300917625427246,0,0,0,40000
211367,0.6504316329956055,1.718172311782837,17.0,-267.0,-67.56050109863281,-0.18666672706604004,0,0,0,40000
211377,0.6620611548423767,1.5925283432006836,30.0,-286.0,-66.85590362548828,-0.2761561870574951,0,0,0,40000
211387,0.682747483253479,1.3807711601257324,33.0,-314.0,-65.62938690185547,-0.4204864501953125,0,0,0,40000
211397,0.6989176273345947,1.2345987558364868,51.0,-329.0,-64.79118347167969,-0.5382785797119141,0,0,0,40000
211407,0.7244715690612793,1.009803295135498,43.0,-313.0,-63.47532653808594,-0.7130560874938965,0,0,0,40000
211417,0.7421413064002991,0.8743518590927124,38.0,-270.0,-62.69044494628906,-0.8411390781402588,0,0,0,40000
211427,0.7728909850120544,0.6901068091392517,47.0,-241.0,-61.60780334472656,-1.0484609603881836,0,0,0,40000
211437,0.7916066646575928,0.6018171310424805,65.0,-159.0,-61.097129821777344,-1.1842246055603027,0,0,0,40000
211447,0.8299086093902588,0.5008381009101868,67.0,-113.0,-60.50736618041992,-1.4384057521820068,0,0,0,40000
211457,0.8538293838500977,0.4576752781867981,76.0,-68.0,-60.2625846862793,-1.607215404510498,0,0,0,40000
211467,0.888174295425415,0.4243820011615753,75.0,-32.0,-60.075889587402344,-1.8395400047302246,0,0,0,40000
211477,0.9174832105636597,0.4273383617401123,60.0,29.0,-60.10641860961914,-2.042588472366333,0,0,0,40000
211487,0.9639474749565125,0.47433704137802124,48.0,95.0,-60.401954650878906,-2.34977126121521,0,0,0,40000
211497,0.9873673915863037,0.524549126625061,37.0,124.0,-60.71836853027344,-2.519651412963867,0,0,0,40000
211507,1.013457179069519,0.6225036978721619,25.0,178.0,-61.32343292236328,-2.7062854766845703,0,0,0,40000
211517,1.0323907136917114,0.7151174545288086,19.0,185.0,-61.89947509765625,-2.8506290912628174,0,0,0,40000
211527,1.0616068840026855,0.845002293586731,37.0,199.0,-62.70252227783203,-3.05735445022583,0,0,0,40000
211537,1.07091224193573,0.9339942932128906,36.0,197.0,-63.263450622558594,-3.1452009677886963,0,0,0,40000
211547,1.0795716047286987,1.0596262216567993,-5.0,185.0,-64.04756164550781,-3.22957181930542,0,0,0,40000
211557,1.076732873916626,1.138861894607544,-26.0,185.0,-64.5561752319336,-3.244908571243286,0,0,0,40000
211567,1.0657354593276978,1.2442526817321777,-29.0,157.0,-65.22466278076172,-3.2110657691955566,0,0,0,40000
211577,1.0562092065811157,1.3023711442947388,-10.0,124.0,-65.61174774169922,-3.1856906414031982,0,0,0,40000
211587,1.0325943231582642,1.3732739686965942,-38.0,95.0,-66.07759094238281,-3.075310230255127,0,0,0,40000
211597,1.0165817737579346,1.4023919105529785,-27.0,75.0,-66.2940444946289,-3.0099120140075684,0,0,0,40000
211607,0.9946433901786804,1.4464796781539917,-27.0,60.0,-66.60147857666016,-2.9083704948425293,0,0,0,40000
211617,0.9683776497840881,1.464399814605713,-48.0,43.0,-66.7527084350586,-2.7801437377929688,0,0,0,40000
211627,0.9233625531196594,1.4790575504302979,-55.0,11.0,-66.88494873046875,-2.5383405685424805,0,0,0,40000
211637,0.8876092433929443,1.4728437662124634,-55.0,4.0,-66.89190673828125,-2.350876569747925,0,0,0,40000
211647,0.8433603048324585,1.477264642715454,-82.0,6.0,-66.96269226074219,-2.111255645751953,0,0,0,40000
211657,0.8095564246177673,1.4716869592666626,-78.0,-25.0,-66.97347259521484,-1.9331166744232178,0,0,0,40000
211667,0.7502378821372986,1.4544034004211426,-89.0,-2.0,-66.91352844238281,-1.6004376411437988,0,0,0,40000
211677,0.7031764388084412,1.445819616317749,-90.0,21.0,-66.90544128417969,-1.3397231101989746,0,0,0,40000
211687,0.6367913484573364,1.4578560590744019,-109.0,24.0,-67.0212173461914,-0.9613616466522217,0,0,0,40000
211697,0.5882543921470642,1.4668041467666626,-136.0,18.0,-67.11882781982422,-0.6884479522705078,0,0,0,40000
211707,0.5115713477134705,1.4865128993988037,-111.0,31.0,-67.28144073486328,-0.2445821762084961,0,0,0,40000
211717,0.4700451195240021,1.4972765445709229,-101.0,2.0,-67.39081573486328,-0.009999752044677734,0,0,0,40000
211727,0.4028102159500122,1.4961694478988647,-71.0,-6.0,-67.42912292480469,0.38067173957824707,0,0,0,40000
211737,0.3520185649394989,1.467052936553955,-107.0,-50.0,-67.2988052368164,0.6742029190063477,0,0,0,40000
211747,0.291555255651474,1.4115394353866577,-81.0,-91.0,-67.00879669189453,1.0275282859802246,0,0,0,40000
211757,0.26745784282684326,1.3616774082183838,-57.0,-123.0,-66.75110626220703,1.1637957096099854,0,0,0,40000
211767,0.2278633713722229,1.2707493305206299,-40.0,-142.0,-66.24473571777344,1.39413583278656,0,0,0,40000
211777,0.20317575335502625,1.1894950866699219,-36.0,-188.0,-65.79389953613281,1.5358991622924805,0,0,0,40000
211787,0.17865438759326935,1.0502609014511108,-25.0,-192.0,-64.99168395996094,1.677366018295288,0,0,0,40000
211797,0.1802704632282257,0.9469379782676697,-3.0,-237.0,-64.40141296386719,1.6622731685638428,0,0,0,40000
211807,0.1874818354845047,0.7784987688064575,-1.0,-259.0,-63.41623306274414,1.6134390830993652,0,0,0,40000
211817,0.19000166654586792,0.6487552523612976,21.0,-281.0,-62.65882110595703,1.5926793813705444,0,0,0,40000
211827,0.2022751122713089,0.4390089809894562,26.0,-312.0,-61.416019439697266,1.5131535530090332,0,0,0,40000
211837,0.22111162543296814,0.30055350065231323,46.0,-304.0,-60.595985412597656,1.3937485218048096,0,0,0,40000
211847,0.2605103850364685,0.10073672980070114,52.0,-271.0,-59.4024772644043,1.1499875783920288,0,0,0,40000
211857,0.2808462381362915,-0.024657975882291794,49.0,-244.0,-58.650840759277344,1.0197741985321045,0,0,0,40000
211867,0.3247600793838501,-0.17929041385650635,63.0,-225.0,-57.71953201293945,0.747081995010376,0,0,0,40000
211877,0.3526744842529297,-0.26991286873817444,47.0,-167.0,-57.16876220703125,0.5693354606628418,0,0,0,40000
211887,0.39577701687812805,-0.3673456609249115,91.0,-110.0,-56.57417678833008,0.2994725704193115,0,0,0,40000
211897,0.4226053059101105,-0.4046289026737213,82.0,-24.0,-56.3387451171875,0.12616753578186035,0,0,0,40000
211907,0.4690479040145874,-0.40349653363227844,68.0,36.0,-56.3332405090332,-0.16605162620544434,0,0,0,40000
211917,0.5077759623527527,-0.37620359659194946,59.0,78.0,-56.48538589477539,-0.41321444511413574,0,0,0,40000
211927,0.5562208294868469,-0.3083685338497162,68.0,114.0,-56.88226318359375,-0.7199599742889404,0,0,0,40000
211937,0.5882265567779541,-0.23844246566295624,70.0,186.0,-57.29381561279297,-0.92923903465271,0,0,0,40000
211947,0.6248902678489685,-0.0886043906211853,67.0,266.0,-58.18817901611328,-1.1675331592559814,0,0,0,40000
211957,0.6443882584571838,0.04510705545544624,58.0,333.0,-58.99013137817383,-1.3036065101623535,0,0,0,40000
211967,0.6659823060035706,0.27977630496025085,36.0,356.0,-60.40365982055664,-1.4529016017913818,0,0,0,40000
211977,0.6712886691093445,0.4424140751361847,0.0,375.0,-61.39079666137695,-1.5048484802246094,0,0,0,40000
211987,0.6663404107093811,0.7069987654685974,-19.0,385.0,-62.99629211425781,-1.4952504634857178,0,0,0,40000
211997,0.6600552797317505,0.8768829703330994,-20.0,375.0,-64.03985595703125,-1.477388858795166,0,0,0,40000
212007,0.645979106426239,1.1312531232833862,-7.0,392.0,-65.59693145751953,-1.4124507904052734,0,0,0,40000
212017,0.622798502445221,1.2861510515213013,-18.0,306.0,-66.56307983398438,-1.2923064231872559,0,0,0,40000
212027,0.5895264148712158,1.4836280345916748,-46.0,285.0,-67.7901611328125,-1.1108312606811523,0,0,0,40000
212037,0.5608183145523071,1.5816682577133179,-60.0,178.0,-68.42471313476562,-0.9557673931121826,0,0,0,40000
212047,0.5182507038116455,1.6556177139282227,-82.0,65.0,-68.91746520996094,-0.7165219783782959,0,0,0,40000
212057,0.485530287027359,1.6549732685089111,-77.0,-58.0,-68.96331024169922,-0.5351569652557373,0,0,0,40000
212067,0.44048038125038147,1.5745112895965576,-59.0,-125.0,-68.52881622314453,-0.2785675525665283,0,0,0,40000
212077,0.3977036774158478,1.4744285345077515,-70.0,-237.0,-67.97381591796875,-0.0343477725982666,0,0,0,40000
212087,0.3438606262207031,1.2710055112838745,-79.0,-330.0,-66.79410552978516,0.2776620388031006,0,0,0,40000
212097,0.30709993839263916,1.091038703918457,-85.0,-430.0,-65.74923706054688,0.4885435104370117,0,0,0,40000
212107,0.26523178815841675,0.7961752414703369,-46.0,-436.0,-64.00756072998047,0.7314153909683228,0,0,0,40000
212117,0.2357596755027771,0.5905171036720276,-47.0,-470.0,-62.79380416870117,0.9008396863937378,0,0,0,40000
212127,0.20419925451278687,0.2659197151660919,-38.0,-468.0,-60.8581428527832,1.0837091207504272,0,0,0,40000
212137,0.19388456642627716,0.05021687224507332,-29.0,-444.0,-59.5679931640625,1.1396703720092773,0,0,0,40000
212147,0.180779367685318,-0.2346867471933365,-17.0,-419.0,-57.854888916015625,1.2127540111541748,0,0,0,40000
212157,0.1839304268360138,-0.4161543846130371,-1.0,-370.0,-56.7557373046875,1.1883680820465088,0,0,0,40000
212167,0.18683618307113647,-0.6442393660545349,31.0,-298.0,-55.3704719543457,1.165505290031433,0,0,0,40000
212177,0.19908924400806427,-0.7526233196258545,45.0,-203.0,-54.69884490966797,1.0862035751342773,0,0,0,40000
212187,0.22891876101493835,-0.8561579585075378,41.0,-128.0,-54.053009033203125,0.9007084369659424,0,0,0,40000
212197,0.24621433019638062,-0.8874990344047546,53.0,-23.0,-53.838680267333984,0.7897680997848511,0,0,0,40000
212207,0.2814233899116516,-0.8857353329658508,47.0,17.0,-53.822532653808594,0.5704571008682251,0,0,0,40000
212217,0.30541110038757324,-0.8554003238677979,53.0,95.0,-53.97846984863281,0.4176597595214844,0,0,0,40000
212227,0.34093594551086426,-0.7662510275840759,48.0,142.0,-54.48918533325195,0.19467854499816895,0,0,0,40000
212237,0.36897411942481995,-0.6932297945022583,62.0,176.0,-54.90563201904297,0.0157473087310791,0,0,0,40000
212247,0.3963168263435364,-0.5748121738433838,61.0,194.0,-55.597389221191406,-0.15982460975646973,0,0,0,40000
212257,0.41244009137153625,-0.5000470280647278,63.0,176.0,-56.03009796142578,-0.2687356472015381,0,0,0,40000
212267,0.43306639790534973,-0.4234355092048645,21.0,156.0,-56.47914123535156,-0.4028031826019287,0,0,0,40000
212277,0.4544239938259125,-0.3118976056575775,13.0,145.0,-57.13584899902344,-0.547102689743042,0,0,0,40000
212287,0.46089956164360046,-0.24424655735492706,21.0,144.0,-57.535526275634766,-0.5969903469085693,0,0,0,40000
212297,0.4758760631084442,-0.15467509627342224,11.0,114.0,-58.06638717651367,-0.7038273811340332,0,0,0,40000
212307,0.48354271054267883,-0.11876768618822098,6.0,50.0,-58.2787971496582,-0.7613823413848877,0,0,0,40000
212317,0.48899132013320923,-0.09689837694168091,-5.0,10.0,-58.40629577636719,-0.8115663528442383,0,0,0,40000
212327,0.48834604024887085,-0.09276936948299408,-11.0,-20.0,-58.42882537841797,-0.8193917274475098,0,0,0,40000
212337,0.4881274998188019,-0.11731979995965958,-4.0,-46.0,-58.27763366699219,-0.8356044292449951,0,0,0,40000
212347,0.4725130498409271,-0.1401577889919281,-10.0,-69.0,-58.13742446899414,-0.7533659934997559,0,0,0,40000
212357,0.4478517770767212,-0.2179788202047348,-48.0,-117.0,-57.66366195678711,-0.6219358444213867,0,0,0,40000
212367,0.4198773205280304,-0.2795523405075073,-86.0,-139.0,-57.28789520263672,-0.464371919631958,0,0,0,40000
212377,0.37179282307624817,-0.36186695098876953,-77.0,-114.0,-56.78190612792969,-0.18980884552001953,0,0,0,40000
212387,0.33936506509780884,-0.4162760078907013,-62.0,-111.0,-56.44579315185547,-0.0035390853881835938,0,0,0,40000
212397,0.2972407042980194,-0.4846450090408325,-67.0,-75.0,-56.01884841918945,0.23807549476623535,0,0,0,40000
212407,0.2594068646430969,-0.5321846008300781,-81.0,-102.0,-55.721153259277344,0.4585920572280884,0,0,0,40000
212417,0.21222275495529175,-0.6016916036605835,-65.0,-71.0,-55.2832145690918,0.7334848642349243,0,0,0,40000
212427,0.18431933224201202,-0.6342746019363403,-85.0,-82.0,-55.072662353515625,0.8963181972503662,0,0,0,40000
212437,0.1302509605884552,-0.678331196308136,-56.0,-43.0,-54.78433609008789,1.215482234954834,0,0,0,40000
212447,0.10467995703220367,-0.6934934258460999,-51.0,16.0,-54.67679214477539,1.366247534751892,0,0,0,40000
212457,0.07830337435007095,-0.6750637888908386,-48.0,29.0,-54.762855529785156,1.5213847160339355,0,0,0,40000
212467,0.056654248386621475,-0.6548401713371277,-43.0,57.0,-54.86835479736328,1.6497688293457031,0,0,0,40000
212477,0.02309226803481579,-0.6283630728721619,-35.0,66.0,-55.00432586669922,1.8498525619506836,0,0,0,40000
212487,0.005930338054895401,-0.6025180220603943,-39.0,56.0,-55.144771575927734,1.9525582790374756,0,0,0,40000
212497,-0.020364860072731972,-0.5706197619438171,-56.0,25.0,-55.31874465942383,2.1105825901031494,0,0,0,40000
212507,-0.03532913699746132,-0.5612295269966125,-36.0,25.0,-55.358123779296875,2.201260805130005,0,0,0,40000
212517,-0.05553719028830528,-0.5426378846168518,-9.0,43.0,-55.45315170288086,2.3240134716033936,0,0,0,40000
212527,-0.06487858295440674,-0.5262569785118103,7.0,37.0,-55.535457611083984,2.381915807723999,0,0,0,40000
212537,-0.06266200542449951,-0.5105045437812805,1.0,10.0,-55.614585876464844,2.3704540729522705,0,0,0,40000
212547,-0.05914342775940895,-0.51595139503479,-1.0,-19.0,-55.566471099853516,2.3511619567871094,0,0,0,40000
212557,-0.06858939677476883,-0.5206934213638306,-24.0,-12.0,-55.522422790527344,2.409703016281128,0,0,0,40000
212567,-0.06521585583686829,-0.5367687940597534,12.0,-9.0,-55.41004943847656,2.391489028930664,0,0,0,40000
212577,-0.04938734322786331,-0.5576765537261963,31.0,-29.0,-55.2681770324707,2.298194646835327,0,0,0,40000
212587,-0.04097932204604149,-0.5756320953369141,49.0,-53.0,-55.1434440612793,2.2490901947021484,0,0,0,40000
212597,-0.008693846873939037,-0.6282852292060852,51.0,-78.0,-54.809356689453125,2.056008815765381,0,0,0,40000
212607,0.012289470061659813,-0.6703315377235413,45.0,-89.0,-54.53746795654297,1.9299768209457397,0,0,0,40000
212617,0.053472232073545456,-0.7228686213493347,65.0,-68.0,-54.201133728027344,1.6817808151245117,0,0,0,40000
212627,0.09374234825372696,-0.7504178285598755,77.0,-44.0,-54.0136604309082,1.4378677606582642,0,0,0,40000
212637,0.15062592923641205,-0.7686139941215515,92.0,-28.0,-53.88155746459961,1.0927990674972534,0,0,0,40000
212647,0.1896032989025116,-0.7858384251594543,90.0,-2.0,-53.75484085083008,0.8537161350250244,0,0,0,40000
212657,0.25042957067489624,-0.7859445214271545,102.0,45.0,-53.73046112060547,0.48202192783355713,0,0,0,40000
212667,0.2915957570075989,-0.7474402785301208,105.0,99.0,-53.93858337402344,0.22678124904632568,0,0,0,40000
212677,0.3631768524646759,-0.6652280688285828,102.0,133.0,-54.41080093383789,-0.21271920204162598,0,0,0,40000
212687,0.4042656123638153,-0.5931524038314819,92.0,177.0,-54.824554443359375,-0.4708678722381592,0,0,0,40000
212697,0.4650910496711731,-0.4862701892852783,102.0,175.0,-55.44997787475586,-0.8490331172943115,0,0,0,40000
212707,0.5048563480377197,-0.4042978882789612,76.0,179.0,-55.92870330810547,-1.1023480892181396,0,0,0,40000
212717,0.5650708675384521,-0.2738036811351776,79.0,206.0,-56.701847076416016,-1.4798219203948975,0,0,0,40000
212727,0.6021657586097717,-0.1787869930267334,95.0,219.0,-57.265419006347656,-1.7199900150299072,0,0,0,40000
212737,0.6517561078071594,-0.03900192305445671,59.0,198.0,-58.101375579833984,-2.0366039276123047,0,0,0,40000
212747,0.6799457669258118,0.056056614965200424,80.0,203.0,-58.67226028442383,-2.225785970687866,0,0,0,40000
212757,0.7363855242729187,0.1825208216905594,76.0,174.0,-59.43504333496094,-2.5858099460601807,0,0,0,40000
212767,0.760181725025177,0.2640607953071594,26.0,200.0,-59.93120574951172,-2.751150608062744,0,0,0,40000
212777,0.7809154391288757,0.39799895882606506,23.0,198.0,-60.745182037353516,-2.8987364768981934,0,0,0,40000
212787,0.7905747294425964,0.4795718491077423,19.0,173.0,-61.24802780151367,-2.980278968811035,0,0,0,40000
212797,0.7911857962608337,0.5736497044563293,8.0,106.0,-61.82866287231445,-3.0076701641082764,0,0,0,40000
212807,0.7899895906448364,0.6109354496002197,-14.0,50.0,-62.07029724121094,-3.02425217628479,0,0,0,40000
212817,0.7832426428794861,0.6225541830062866,-35.0,-14.0,-62.158660888671875,-3.0074377059936523,0,0,0,40000
212827,0.7709580659866333,0.5880923867225647,-49.0,-109.0,-61.97001266479492,-2.957045316696167,0,0,0,40000
212837,0.7373558878898621,0.48279455304145813,-53.0,-176.0,-61.35407257080078,-2.777953624725342,0,0,0,40000
212847,0.7040806412696838,0.38334977626800537,-47.0,-237.0,-60.7701301574707,-2.5998010635375977,0,0,0,40000
212857,0.6669911742210388,0.19297505915164948,-52.0,-327.0,-59.63611602783203,-2.3977255821228027,0,0,0,40000
212867,0.6328468322753906,0.04160035774111748,-79.0,-334.0,-58.73094177246094,-2.212287187576294,0,0,0,40000
212877,0.5898532867431641,-0.19879169762134552,-57.0,-339.0,-57.28551483154297,-1.972486972808838,0,0,0,40000
212887,0.5653538107872009,-0.3474915325641632,-70.0,-311.0,-56.38467025756836,-1.8427388668060303,0,0,0,40000
212897,0.5150766372680664,-0.5477216839790344,-70.0,-279.0,-55.169227600097656,-1.5571539402008057,0,0,0,40000
212907,0.481945276260376,-0.6668623685836792,-41.0,-222.0,-54.43577575683594,-1.3731975555419922,0,0,0,40000
212917,0.44458165764808655,-0.8135177493095398,-55.0,-204.0,-53.533199310302734,-1.1628432273864746,0,0,0,40000
212927,0.42089658975601196,-0.8867596387863159,-38.0,-100.0,-53.067962646484375,-1.033627986907959,0,0,0,40000
212937,0.397208571434021,-0.9457127451896667,-26.0,-27.0,-52.68638610839844,-0.9036587476730347,0,0,0,40000
212947,0.384725421667099,-0.9347215890884399,-46.0,68.0,-52.724098205566406,-0.8404726982116699,0,0,0,40000
212957,0.36549660563468933,-0.8520666360855103,-20.0,163.0,-53.19325637817383,-0.7362322807312012,0,0,0,40000
212967,0.3565700054168701,-0.7650861144065857,-26.0,213.0,-53.691123962402344,-0.6934969425201416,0,0,0,40000
212977,0.3430539071559906,-0.6147847175598145,-29.0,236.0,-54.572635650634766,-0.6228623390197754,0,0,0,40000
212987,0.3347293734550476,-0.5076950192451477,-13.0,254.0,-55.198665618896484,-0.5830485820770264,0,0,0,40000
212997,0.32317396998405457,-0.32766351103782654,-14.0,289.0,-56.266761779785156,-0.5235193967819214,0,0,0,40000
213007,0.31852662563323975,-0.20781077444553375,-11.0,266.0,-56.97819519042969,-0.505225658416748,0,0,0,40000
213017,0.3090856075286865,-0.025994326919317245,-26.0,261.0,-58.06613540649414,-0.4579993486404419,0,0,0,40000
213027,0.29855144023895264,0.08838791400194168,-3.0,231.0,-58.75377655029297,-0.4038501977920532,0,0,0,40000
213037,0.2935273051261902,0.23978003859519958,1.0,215.0,-59.66752243041992,-0.3825629949569702,0,0,0,40000
213047,0.2891909182071686,0.3166062831878662,-9.0,156.0,-60.137081146240234,-0.36528313159942627,0,0,0,40000
213057,0.2786913514137268,0.3928692936897278,-22.0,69.0,-60.605735778808594,-0.3108137845993042,0,0,0,40000
213067,0.2742074728012085,0.4091227650642395,-13.0,14.0,-60.715362548828125,-0.2921864986419678,0,0,0,40000
213077,0.26499149203300476,0.41685232520103455,-13.0,18.0,-60.774131774902344,-0.2449207305908203,0,0,0,40000
213087,0.25947022438049316,0.41807273030281067,-23.0,7.0,-60.793983459472656,-0.219649076461792,0,0,0,40000
213097,0.23423214256763458,0.39597782492637634,-31.0,-17.0,-60.67359161376953,-0.07559812068939209,0,0,0,40000
213107,0.21333931386470795,0.3811222016811371,-27.0,-33.0,-60.59608840942383,0.04308617115020752,0,0,0,40000
213117,0.19548773765563965,0.3660939037799835,-28.0,-34.0,-60.517066955566406,0.14411604404449463,0,0,0,40000
213127,0.16868504881858826,0.3457678556442261,-54.0,-57.0,-60.405731201171875,0.2994997501373291,0,0,0,40000
213137,0.13470551371574402,0.3020716607570648,-64.0,-69.0,-60.15316390991211,0.4988817572593689,0,0,0,40000
213147,0.1172754243016243,0.2694786787033081,-46.0,-62.0,-59.96609878540039,0.5997441411018372,0,0,0,40000
213157,0.08815919607877731,0.20793882012367249,-32.0,-94.0,-59.603843688964844,0.7715056538581848,0,0,0,40000
213167,0.06513065099716187,0.15986686944961548,-48.0,-136.0,-59.32078170776367,0.9074496030807495,0,0,0,40000
213177,0.02267291583120823,0.05566369369626045,-42.0,-161.0,-58.698490142822266,1.161040186882019,0,0,0,40000
213187,0.002600664971396327,-0.029016196727752686,-41.0,-193.0,-58.19059371948242,1.2811342477798462,0,0,0,40000
213197,-0.019943606108427048,-0.16140083968639374,-33.0,-196.0,-57.39301681518555,1.416774868965149,0,0,0,40000
213207,-0.03600168973207474,-0.24484698474407196,-7.0,-168.0,-56.8859748840332,1.5140409469604492,0,0,0,40000
213217,-0.03636406734585762,-0.3544638454914093,12.0,-129.0,-56.218807220458984,1.5173580646514893,0,0,0,40000
213227,-0.03964632377028465,-0.4089452028274536,11.0,-88.0,-55.88026809692383,1.5381892919540405,0,0,0,40000
213237,-0.03239991143345833,-0.46441540122032166,5.0,-40.0,-55.53407669067383,1.4957375526428223,0,0,0,40000
213247,-0.011510074138641357,-0.4697287678718567,26.0,-11.0,-55.48814392089844,1.3709913492202759,0,0,0,40000
213257,0.01920860819518566,-0.47158539295196533,59.0,3.0,-55.46287536621094,1.1865679025650024,0,0,0,40000
213267,0.04638483002781868,-0.4707094430923462,75.0,8.0,-55.45398712158203,1.0224775075912476,0,0,0,40000
213277,0.10564705729484558,-0.47481027245521545,104.0,14.0,-55.41517639160156,0.6645235419273376,0,0,0,40000
213287,0.15474243462085724,-0.4778905510902405,102.0,4.0,-55.38241195678711,0.3658759593963623,0,0,0,40000
213297,0.23265701532363892,-0.46510201692581177,109.0,24.0,-55.44506072998047,-0.10764408111572266,0,0,0,40000
213307,0.28438615798950195,-0.4484296143054962,107.0,51.0,-55.531429290771484,-0.4259294271469116,0,0,0,40000
213317,0.3602479100227356,-0.41559359431266785,104.0,32.0,-55.71562957763672,-0.8909986019134521,0,0,0,40000
213327,0.40768665075302124,-0.40600353479385376,129.0,20.0,-55.7608642578125,-1.1872692108154297,0,0,0,40000
213337,0.4848857820034027,-0.3819662034511566,109.0,38.0,-55.893306732177734,-1.664151906967163,0,0,0,40000
213347,0.5306723117828369,-0.37660661339759827,95.0,12.0,-55.914127349853516,-1.9542607069015503,0,0,0,40000
213357,0.598554253578186,-0.3769015669822693,93.0,-6.0,-55.90108108520508,-2.3786895275115967,0,0,0,40000
213367,0.6436411738395691,-0.382101833820343,96.0,-1.0,-55.85846710205078,-2.6679725646972656,0,0,0,40000
213377,0.6982410550117493,-0.40373557806015015,78.0,-35.0,-55.716835021972656,-3.015937328338623,0,0,0,40000
213387,0.7322710752487183,-0.4310635030269623,67.0,-49.0,-55.540306091308594,-3.241694450378418,0,0,0,40000
213397,0.7841799855232239,-0.45808517932891846,63.0,-34.0,-55.364707946777344,-3.576045513153076,0,0,0,40000
213407,0.8073175549507141,-0.47201505303382874,47.0,-30.0,-55.26710510253906,-3.738800525665283,0,0,0,40000
213417,0.8455025553703308,-0.5081211924552917,49.0,-39.0,-55.03557586669922,-3.9927992820739746,0,0,0,40000
213427,0.8565304279327393,-0.5312243700027466,7.0,-65.0,-54.88129425048828,-4.084571361541748,0,0,0,40000
213437,0.8574111461639404,-0.5979524850845337,-17.0,-104.0,-54.46389389038086,-4.115677833557129,0,0,0,40000
213447,0.8528169989585876,-0.6562429070472717,-14.0,-143.0,-54.09518051147461,-4.113725185394287,0,0,0,40000
213457,0.844555675983429,-0.7869759202003479,-22.0,-191.0,-53.2888298034668,-4.089616775512695,0,0,0,40000
213467,0.8277612328529358,-0.876162052154541,-26.0,-189.0,-52.728485107421875,-4.013885974884033,0,0,0,40000
213477,0.803488552570343,-1.01935875415802,-36.0,-202.0,-51.84046936035156,-3.8926613330841064,0,0,0,40000
213487,0.786372184753418,-1.102452278137207,-54.0,-157.0,-51.309814453125,-3.81379771232605,0,0,0,40000
213497,0.7454981803894043,-1.207102656364441,-80.0,-152.0,-50.64696502685547,-3.591491222381592,0,0,0,40000
213507,0.708871603012085,-1.271371603012085,-85.0,-133.0,-50.22395706176758,-3.393434524536133,0,0,0,40000
213517,0.6417269110679626,-1.353332757949829,-91.0,-115.0,-49.69256591796875,-3.0106592178344727,0,0,0,40000
213527,0.5929128527641296,-1.3885520696640015,-82.0,-68.0,-49.44000244140625,-2.7361419200897217,0,0,0,40000
213537,0.5315233469009399,-1.430600881576538,-89.0,-56.0,-49.14527893066406,-2.3845319747924805,0,0,0,40000
213547,0.48817622661590576,-1.4526947736740112,-105.0,-34.0,-48.96938705444336,-2.1396377086639404,0,0,0,40000
213557,0.4227490723133087,-1.4643349647521973,-103.0,-12.0,-48.85570526123047,-1.760555386543274,0,0,0,40000
213567,0.3828256130218506,-1.4653726816177368,-81.0,23.0,-48.80547332763672,-1.5329636335372925,0,0,0,40000
213577,0.32519471645355225,-1.44478178024292,-82.0,38.0,-48.885353088378906,-1.1976436376571655,0,0,0,40000
213587,0.2835937738418579,-1.435058832168579,-82.0,23.0,-48.900543212890625,-0.9570320248603821,0,0,0,40000
213597,0.22229571640491486,-1.4112155437469482,-97.0,51.0,-49.000946044921875,-0.5967113971710205,0,0,0,40000
213607,0.17564146220684052,-1.3739948272705078,-95.0,92.0,-49.18258285522461,-0.32260942459106445,0,0,0,40000
213617,0.11563082784414291,-1.2959100008010864,-82.0,131.0,-49.611167907714844,0.033333659172058105,0,0,0,40000
213627,0.08338756859302521,-1.2304185628890991,-70.0,151.0,-49.966434478759766,0.2239115834236145,0,0,0,40000
213637,0.03189745172858238,-1.1196061372756958,-77.0,185.0,-50.59632873535156,0.5312575101852417,0,0,0,40000
213647,0.0029364631045609713,-1.0369881391525269,-65.0,152.0,-51.0599479675293,0.7045880556106567,0,0,0,40000
213657,-0.04384051263332367,-0.9432786703109741,-73.0,129.0,-51.59287643432617,0.9859869480133057,0,0,0,40000
213667,-0.06542552262544632,-0.8906727433204651,-36.0,123.0,-51.88114547729492,1.1172423362731934,0,0,0,40000
213677,-0.08723920583724976,-0.8044186234474182,-23.0,136.0,-52.373497009277344,1.2505671977996826,0,0,0,40000
213687,-0.10696699470281601,-0.759003758430481,-9.0,107.0,-52.62268829345703,1.3719297647476196,0,0,0,40000
213697,-0.1256653368473053,-0.6947809457778931,-26.0,98.0,-52.986427307128906,1.487636685371399,0,0,0,40000
213707,-0.13862602412700653,-0.6597269177436829,-11.0,69.0,-53.1765251159668,1.5694059133529663,0,0,0,40000
213717,-0.1439761072397232,-0.6036373972892761,-8.0,71.0,-53.494354248046875,1.6057393550872803,0,0,0,40000
213727,-0.1360451877117157,-0.5779693126678467,15.0,62.0,-53.63071060180664,1.5623552799224854,0,0,0,40000
213737,-0.13716185092926025,-0.5405322313308716,16.0,58.0,-53.83867645263672,1.5732276439666748,0,0,0,40000
213747,-0.12980413436889648,-0.5160343050956726,34.0,48.0,-53.96990203857422,1.533058524131775,0,0,0,40000
213757,-0.1051618680357933,-0.4872685372829437,24.0,41.0,-54.127601623535156,1.3886040449142456,0,0,0,40000
213767,-0.08694247156381607,-0.4701186418533325,26.0,32.0,-54.216190338134766,1.2821199893951416,0,0,0,40000
213777,-0.06270409375429153,-0.4464225172996521,46.0,38.0,-54.34468078613281,1.1389098167419434,0,0,0,40000
213787,-0.052155740559101105,-0.4365164339542389,25.0,39.0,-54.390872955322266,1.0772852897644043,0,0,0,40000
213797,-0.028898773714900017,-0.41474649310112,34.0,30.0,-54.508819580078125,0.9388926029205322,0,0,0,40000
213807,-0.015464263036847115,-0.4058450162410736,22.0,10.0,-54.54995346069336,0.8588858842849731,0,0,0,40000
213817,0.008157185278832912,-0.40284568071365356,36.0,19.0,-54.555809020996094,0.7172442078590393,0,0,0,40000
213827,0.03053019754588604,-0.39951908588409424,43.0,-7.0,-54.563777923583984,0.5823743343353271,0,0,0,40000
213837,0.057158857583999634,-0.3998109996318817,46.0,6.0,-54.550025939941406,0.4212166666984558,0,0,0,40000
213847,0.07439125329256058,-0.4060201048851013,48.0,-4.0,-54.500633239746094,0.31579238176345825,0,0,0,40000
213857,0.10847499966621399,-0.40227869153022766,38.0,0.0,-54.51099395751953,0.1083945631980896,0,0,0,40000
213867,0.13391715288162231,-0.4179256558418274,60.0,-33.0,-54.40479278564453,-0.04795122146606445,0,0,0,40000
213877,0.17365700006484985,-0.44508734345436096,62.0,-23.0,-54.228755950927734,-0.2910952568054199,0,0,0,40000
213887,0.19964663684368134,-0.4760516881942749,63.0,-62.0,-54.029056549072266,-0.4527050852775574,0,0,0,40000
213897,0.23079951107501984,-0.5134713649749756,37.0,-53.0,-53.78959274291992,-0.6462453603744507,0,0,0,40000
213907,0.25232335925102234,-0.5441169142723083,51.0,-79.0,-53.589805603027344,-0.7827223539352417,0,0,0,40000
213917,0.2779232859611511,-0.6017712354660034,31.0,-80.0,-53.22650146484375,-0.9444202780723572,0,0,0,40000
213927,0.2890275716781616,-0.6423367857933044,20.0,-64.0,-52.96430206298828,-1.0195951461791992,0,0,0,40000
213937,0.30482056736946106,-0.6910215020179749,21.0,-75.0,-52.652042388916016,-1.1233140230178833,0,0,0,40000
213947,0.30989399552345276,-0.7254184484481812,14.0,-68.0,-52.424339294433594,-1.1630111932754517,0,0,0,40000
213957,0.3129803240299225,-0.7722715735435486,1.0,-55.0,-52.12054443359375,-1.190922737121582,0,0,0,40000
213967,0.30844417214393616,-0.7891895771026611,-15.0,-6.0,-51.995521545410156,-1.17302668094635,0,30,0,40000
213977,0.3024437725543976,-0.783953845500946,-27.0,30.0,-232.72320556640625,-1.1462717056274414,0,30,0,40000
213987,0.2936991751194,-0.7657132744789124,-25.0,14.0,-233.70950317382812,-1.102726697921753,0,30,0,40000
213997,0.276112824678421,-0.8141648173332214,-26.0,-143.0,-234.29530334472656,-1.005692481994629,0,30,0,40000
214007,0.2582813501358032,-0.9612372517585754,-31.0,-425.0,-234.23257446289062,-0.9066622853279114,0,30,0,40000
214017,0.22147652506828308,-1.4003219604492188,-55.0,-775.0,-231.5980682373047,-0.6930087804794312,0,30,0,40000
214027,0.1935296505689621,-1.8866370916366577,-60.0,-1238.0,-228.68017578125,-0.5314640998840332,0,30,0,40000
214037,0.15578241646289825,-2.958796501159668,-55.0,-1770.0,-222.24722290039062,-0.31012165546417236,0,30,0,40000
214047,0.12863649427890778,-3.9178383350372314,-67.0,-2291.0,-216.4929656982422,-0.15142202377319336,0,30,0,40000
214057,0.09529267251491547,-5.708090305328369,-50.0,-2808.0,-205.75146484375,0.04540222883224487,0,30,0,40000
214067,0.07823330909013748,-7.130053520202637,-35.0,-3284.0,-197.21966552734375,0.14527177810668945,0,30,0,40000
214077,0.05197837948799133,-9.530427932739258,-26.0,-3651.0,-182.8174285888672,0.3008730411529541,0,30,0,40000
214087,0.03070097602903843,-11.286112785339355,-41.0,-3926.0,-172.2833251953125,0.42737141251564026,0,30,0,40000
214097,0.023599877953529358,-14.044224739074707,10.0,-4091.0,-155.73464965820312,0.46923044323921204,0,30,0,40000
214107,0.01660390943288803,-15.931640625,6.0,-4115.0,-144.41015625,0.5106997489929199,0,30,0,40000
214117,0.014663415029644966,-18.70108413696289,22.0,-3962.0,-127.79349517822266,0.5219178795814514,0,30,0,40000
214127,0.023750752210617065,-20.447877883911133,54.0,-3694.0,-117.31272888183594,0.4668044447898865,0,30,0,40000
214137,0.042072370648384094,-22.835477828979492,-14.0,-3331.0,-102.98713684082031,0.3556872308254242,0,30,0,40000
214147,0.05394892767071724,-24.21234130859375,31.0,-2812.0,-94.7259521484375,0.28300100564956665,0,30,0,40000
214157,0.08010272681713104,-25.900970458984375,48.0,-2228.0,-84.59417724609375,0.12412115931510925,0,30,0,40000
214167,0.09501361846923828,-26.75943946838379,40.0,-1640.0,-79.443359375,0.03198176622390747,0,30,0,40000
214177,0.1200757622718811,-27.646652221679688,13.0,-1041.0,-74.12008666992188,-0.12171846628189087,0,30,0,40000
214187,0.13923631608486176,-27.975582122802734,21.0,-486.0,-72.1465072631836,-0.2406206727027893,0,30,0,40000
214197,0.1677599400281906,-28.097370147705078,28.0,27.0,-71.41577911376953,-0.4165078401565552,0,30,0,40000
214207,0.1865103393793106,-27.9569091796875,19.0,473.0,-72.258544921875,-0.5343209505081177,0,30,0,40000
214217,0.2156808078289032,-27.46808433532715,34.0,843.0,-75.19149780273438,-0.7154204845428467,0,30,0,40000
214227,0.22918730974197388,-27.007890701293945,39.0,1108.0,-77.95265197753906,-0.803165078163147,0,30,0,40000
214237,0.2569935619831085,-26.179948806762695,4.0,1275.0,-82.92030334472656,-0.9775206446647644,0,30,0,40000
214247,0.27820083498954773,-25.57769203186035,28.0,1351.0,-86.53384399414062,-1.1111958026885986,0,30,0,40000
214257,0.29698482155799866,-24.97503662109375,4.0,1283.0,-90.1497802734375,-1.2325326204299927,0,30,0,40000
214267,0.30989912152290344,-24.124351501464844,56.0,1194.0,-95.25389099121094,-1.3190518617630005,0,30,0,40000
214277,0.32411783933639526,-23.635459899902344,25.0,979.0,-98.18724060058594,-1.4139628410339355,0,30,0,40000
214287,0.33875763416290283,-23.059249877929688,8.0,690.0,-101.64450073242188,-1.51192045211792,0,30,0,40000
214297,0.35100531578063965,-22.816795349121094,20.0,375.0,-103.09922790527344,-1.5957857370376587,0,30,0,40000
214307,0.3614104986190796,-22.684688568115234,-6.0,2.0,-103.8918685913086,-1.6688706874847412,0,30,0,40000
214317,0.35966265201568604,-22.776676177978516,7.0,-397.0,-103.3399429321289,-1.6691654920578003,0,30,0,40000
214327,0.358432799577713,-23.176132202148438,-2.0,-747.0,-100.94320678710938,-1.6726375818252563,0,30,0,40000
214337,0.348098486661911,-23.5958251953125,-14.0,-1054.0,-98.425048828125,-1.6212360858917236,0,30,0,40000
214347,0.34660348296165466,-24.406957626342773,-27.0,-1291.0,-93.55825805664062,-1.6227482557296753,0,30,0,40000
214357,0.33907705545425415,-25.057750701904297,-24.0,-1513.0,-89.65349578857422,-1.587831974029541,0,30,0,40000
214367,0.3187263607978821,-26.15283203125,-16.0,-1666.0,-83.0830078125,-1.4755291938781738,0,30,0,40000
214377,0.30274516344070435,-26.933603286743164,-4.0,-1752.0,-78.39837646484375,-1.3889026641845703,0,30,0,40000
214387,0.2934373915195465,-28.140066146850586,6.0,-1743.0,-71.15960693359375,-1.3420417308807373,0,30,0,40000
214397,0.2898653745651245,-28.928258895874023,-2.0,-1664.0,-66.43045043945312,-1.3293938636779785,0,30,0,40000
214407,0.2776365280151367,-30.014883041381836,-22.0,-1488.0,-59.91061019897461,-1.2645198106765747,0,30,0,40000
214417,0.2693093419075012,-30.660661697387695,-32.0,-1307.0,-56.02375030517578,-1.2227132320404053,0,30,0,40000
214427,0.24045708775520325,-31.469837188720703,44.0,-1042.0,-51.13368225097656,-1.0570241212844849,0,30,0,40000
214437,0.23641227185726166,-31.890806198120117,-19.0,-790.0,-48.55604553222656,-1.039955496788025,0,30,0,40000
214447,0.22628401219844818,-32.32283020019531,-12.0,-488.0,-45.898681640625,-0.9861747026443481,0,30,0,40000
214457,0.2158498913049698,-32.48354721069336,-39.0,-214.0,-44.861629486083984,-0.9301642179489136,0,30,0,40000
214467,0.19871757924556732,-32.535911560058594,-11.0,60.0,-44.47135925292969,-0.8334170579910278,0,30,0,40000
214477,0.17690591514110565,-32.43600845336914,2.0,339.0,-44.9963493347168,-0.7081090211868286,0,30,0,40000
