timestamp,stabilizer.roll,stabilizer.pitch,stateEstimateZ.rateRoll,stateEstimateZ.ratePitch,controller.pitchRate,controller.rollRate,roll,pitch,yawdot,thrust
930686,-40.20545196533203,64.28572082519531,1.0,-2.0,-387.6429138183594,242.43885803222656,0,0,0,40000
930696,-40.22840118408203,64.27880096435547,-3.0,11.0,-389.5298156738281,243.782958984375,0,0,0,40000
930706,-40.25867462158203,64.26136016845703,-25.0,-60.0,-391.3533020019531,245.17198181152344,0,0,0,40000
930716,-40.25068664550781,64.1890640258789,16.0,-132.0,-392.8461608886719,246.33187866210938,0,0,0,40000
930726,-40.21824264526367,64.108154296875,56.0,-288.0,-394.2849426269531,247.34417724609375,0,0,0,40000
930736,-39.896427154541016,63.8354377746582,-10.0,-579.0,-394.5674743652344,246.6148681640625,0,0,0,40000
930746,-39.50804901123047,63.5637092590332,-33.0,-915.0,-394.8474426269531,245.4747314453125,0,0,0,40000
930756,-38.504486083984375,62.90039825439453,46.0,-1506.0,-392.7634582519531,240.62229919433594,0,0,0,40000
930766,-37.55612564086914,62.2672004699707,25.0,-2083.0,-390.84014892578125,236.0706329345703,0,0,0,40000
930776,-35.62003707885742,60.931758880615234,27.0,-2831.0,-384.6728210449219,225.54727172851562,0,0,0,40000
930786,-34.03882598876953,59.74798583984375,100.0,-3686.0,-379.3772277832031,217.10047912597656,0,0,0,40000
930796,-31.307695388793945,57.433998107910156,155.0,-4568.0,-367.245849609375,201.68667602539062,0,0,0,40000
930806,-29.352294921875,55.50357437133789,186.0,-5511.0,-357.35205078125,190.85836791992188,0,0,0,40000
930816,-26.327241897583008,51.96329116821289,247.0,-6496.0,-337.7138977050781,173.53421020507812,0,0,0,40000
930826,-24.325714111328125,49.154014587402344,383.0,-7435.0,-322.3670654296875,162.27883911132812,0,0,0,40000
930836,-21.454618453979492,44.34283447265625,564.0,-8168.0,-294.8897399902344,145.7298126220703,0,0,0,40000
930846,-19.69240951538086,40.84229278564453,731.0,-8596.0,-275.15399169921875,135.76821899414062,0,0,0,40000
930856,-17.265296936035156,35.31828689575195,922.0,-8815.0,-243.1365203857422,121.75187683105469,0,0,0,40000
930866,-15.796638488769531,31.553741455078125,1168.0,-8799.0,-221.54112243652344,113.43122863769531,0,0,0,40000
930876,-13.76465129852295,25.961196899414062,1420.0,-8529.0,-188.83135986328125,101.67620849609375,0,0,0,40000
930886,-12.480447769165039,22.37013816833496,1699.0,-8007.0,-167.99899291992188,94.3607406616211,0,0,0,40000
930896,-10.599672317504883,17.32867431640625,2015.0,-7339.0,-138.32916259765625,83.41674041748047,0,0,0,40000
930906,-9.36152172088623,14.290342330932617,2290.0,-6438.0,-120.56388092041016,76.28362274169922,0,0,0,40000
930916,-7.492952823638916,10.376991271972656,2507.0,-5318.0,-97.43977355957031,65.31945037841797,0,0,0,40000
930926,-6.220248699188232,8.286412239074707,2675.0,-4033.0,-85.16930389404297,57.885101318359375,0,0,0,40000
930936,-4.2653374671936035,6.0377912521362305,2791.0,-2648.0,-71.88278198242188,46.3071174621582,0,0,0,40000
930946,-2.9467546939849854,5.182067394256592,2840.0,-1193.0,-66.91339111328125,38.4998664855957,0,0,0,40000
930956,-0.9773954749107361,4.929556369781494,2843.0,405.0,-65.5457763671875,26.73664665222168,0,0,0,40000
930966,0.32779359817504883,5.419011116027832,2798.0,1681.0,-68.63851165771484,18.911338806152344,0,0,0,40000
930976,2.2429280281066895,6.906294345855713,2712.0,2636.0,-77.74948120117188,7.376137733459473,0,0,0,40000
930986,3.4890310764312744,8.26430606842041,2604.0,3308.0,-86.12884521484375,-0.19022178649902344,0,0,0,40000
930996,5.285932540893555,10.696939468383789,2414.0,3804.0,-101.01531982421875,-11.10898208618164,0,0,0,40000
931006,6.431126117706299,12.466724395751953,2221.0,4020.0,-111.9866943359375,-18.15940284729004,0,0,0,40000
931016,8.034117698669434,15.201123237609863,1983.0,4095.0,-128.81622314453125,-27.999488830566406,0,0,0,40000
931026,9.0199556350708,17.005645751953125,1740.0,4028.0,-140.13192749023438,-34.173377990722656,0,0,0,40000
931036,10.372101783752441,19.605701446533203,1472.0,3843.0,-156.28970336914062,-42.58160400390625,0,0,0,40000
931046,11.174368858337402,21.205913543701172,1192.0,3484.0,-166.50816345214844,-47.721012115478516,0,0,0,40000
931056,12.212501525878906,23.33033561706543,911.0,3023.0,-179.93011474609375,-54.30430603027344,0,0,0,40000
931066,12.792840003967285,24.50661849975586,684.0,2456.0,-187.70919799804688,-58.16331100463867,0,0,0,40000
931076,13.417974472045898,25.85272789001465,439.0,1743.0,-196.54678344726562,-62.30986022949219,0,0,0,40000
931086,13.673466682434082,26.432523727416992,238.0,999.0,-200.81198120117188,-64.2501449584961,0,0,0,40000
931096,13.832951545715332,26.800697326660156,-15.0,161.0,-203.82237243652344,-65.62100219726562,0,0,0,40000
931106,13.776023864746094,26.6661376953125,-211.0,-783.0,-203.81707763671875,-65.693603515625,0,0,0,40000
931116,13.42850399017334,25.834774017333984,-421.0,-1756.0,-199.61595153808594,-64.01618194580078,0,0,0,40000
931126,13.041386604309082,24.84455108642578,-576.0,-2765.0,-194.43235778808594,-62.089500427246094,0,0,0,40000
931136,12.281732559204102,22.674591064453125,-770.0,-3837.0,-182.12115478515625,-57.90968704223633,0,0,0,40000
931146,11.666622161865234,20.749086380004883,-951.0,-4814.0,-171.2142333984375,-54.57656478881836,0,0,0,40000
931156,10.638806343078613,17.3198299407959,-1160.0,-5415.0,-151.20077514648438,-48.74149703979492,0,0,0,40000
931166,9.899253845214844,14.83258056640625,-1330.0,-5672.0,-136.75225830078125,-44.610084533691406,0,0,0,40000
931176,8.746405601501465,11.03703784942627,-1473.0,-5617.0,-114.35557556152344,-37.969200134277344,0,0,0,40000
931186,7.947803497314453,8.568352699279785,-1598.0,-5303.0,-99.82996368408203,-33.425575256347656,0,0,0,40000
931196,6.731146335601807,5.146471977233887,-1703.0,-4797.0,-79.49308776855469,-26.342208862304688,0,0,0,40000
931206,5.911011695861816,3.1224238872528076,-1792.0,-4137.0,-67.46640014648438,-21.608657836914062,0,0,0,40000
931216,4.650686264038086,0.5864509344100952,-1846.0,-3304.0,-52.296791076660156,-14.201436996459961,0,0,0,40000
931226,3.822133779525757,-0.7043667435646057,-1812.0,-2383.0,-44.54573440551758,-9.354679107666016,0,0,0,40000
931236,2.594088077545166,-1.9810478687286377,-1757.0,-1351.0,-36.83927917480469,-2.0788450241088867,0,0,0,40000
931246,1.797064185142517,-2.358081817626953,-1708.0,-287.0,-34.51026916503906,2.639866828918457,0,0,0,40000
931256,0.6611357927322388,-2.182133913040161,-1597.0,667.0,-35.49610137939453,9.422272682189941,0,0,0,40000
931266,-0.053506579250097275,-1.6340994834899902,-1489.0,1497.0,-38.72825622558594,13.703256607055664,0,0,0,40000
931276,-1.0315020084381104,-0.3622337281703949,-1378.0,2065.0,-46.33209991455078,19.59068489074707,0,0,0,40000
931286,-1.6199405193328857,0.6849215626716614,-1226.0,2427.0,-52.622802734375,23.162931442260742,0,0,0,40000
931296,-2.404484987258911,2.431542158126831,-1086.0,2606.0,-63.15421676635742,27.93317413330078,0,0,0,40000
931306,-2.843897581100464,3.6402645111083984,-899.0,2658.0,-70.50123596191406,30.6497802734375,0,0,0,40000
931316,-3.395782709121704,5.413697719573975,-686.0,2543.0,-81.28327941894531,34.05687713623047,0,0,0,40000
931326,-3.6734795570373535,6.514685153961182,-483.0,2340.0,-88.07156372070312,35.83010482788086,0,0,0,40000
931336,-3.968618154525757,7.966419696807861,-321.0,2006.0,-97.00424194335938,37.71685028076172,0,0,0,40000
931346,-4.078037261962891,8.760266304016113,-152.0,1568.0,-102.02084350585938,38.49447250366211,0,0,0,40000
931356,-4.121450424194336,9.631467819213867,33.0,1065.0,-107.52761840820312,38.878562927246094,0,0,0,40000
931366,-4.062368869781494,9.953518867492676,203.0,469.0,-109.75501251220703,38.646751403808594,0,0,0,40000
931376,-3.849867343902588,10.004293441772461,359.0,-204.0,-110.36070251464844,37.49021911621094,0,0,0,40000
931386,-3.6326498985290527,9.697746276855469,525.0,-974.0,-108.81645965576172,36.29861831665039,0,0,0,40000
931396,-3.1834797859191895,8.708102226257324,673.0,-1761.0,-103.15339660644531,33.704833984375,0,0,0,40000
931406,-2.819459915161133,7.674900054931641,799.0,-2619.0,-97.19733428955078,31.609725952148438,0,0,0,40000
931416,-2.1967153549194336,5.6016621589660645,914.0,-3254.0,-84.95211791992188,27.94683265686035,0,0,0,40000
931426,-1.7337722778320312,4.032649517059326,1029.0,-3524.0,-75.677978515625,25.226802825927734,0,0,0,40000
931436,-0.9936568737030029,1.6137281656265259,1117.0,-3505.0,-61.24177169799805,20.825021743774414,0,0,0,40000
931446,-0.4734633266925812,0.08090459555387497,1173.0,-3211.0,-52.065452575683594,17.72433853149414,0,0,0,40000
931456,0.35006842017173767,-1.8972595930099487,1188.0,-2647.0,-40.16197204589844,12.78250789642334,0,0,0,40000
931466,0.8970884084701538,-2.8998687267303467,1175.0,-1892.0,-34.07094192504883,9.480037689208984,0,0,0,40000
931476,1.7115693092346191,-3.815216064453125,1160.0,-936.0,-28.47319793701172,4.55155086517334,0,0,0,40000
931486,2.241117238998413,-3.9463415145874023,1133.0,131.0,-27.56903648376465,1.313405990600586,0,0,0,40000
931496,2.999603748321533,-3.411849021911621,1092.0,1142.0,-30.66510581970215,-3.318431854248047,0,0,0,40000
931506,3.469644069671631,-2.6861984729766846,997.0,1825.0,-34.92935562133789,-6.237189292907715,0,0,0,40000
931516,4.135105609893799,-1.2501055002212524,911.0,2239.0,-43.49030303955078,-10.34628677368164,0,0,0,40000
931526,4.5298686027526855,-0.17300719022750854,827.0,2398.0,-49.9347038269043,-12.846049308776855,0,0,0,40000
931536,5.054043769836426,1.4662851095199585,733.0,2388.0,-59.79481887817383,-16.13656997680664,0,0,0,40000
931546,5.347026348114014,2.5058798789978027,601.0,2191.0,-66.09520721435547,-18.051406860351562,0,0,0,40000
931556,5.714844226837158,3.855266809463501,476.0,1837.0,-74.29178619384766,-20.425630569458008,0,0,0,40000
931566,5.903691291809082,4.565677642822266,324.0,1339.0,-78.68297576904297,-21.733680725097656,0,0,0,40000
931576,6.095261096954346,5.246356010437012,212.0,754.0,-82.91767883300781,-23.063932418823242,0,0,0,40000
931586,6.158923625946045,5.430500507354736,95.0,166.0,-84.18357849121094,-23.629959106445312,0,0,0,40000
931596,6.179912567138672,5.228899002075195,-22.0,-588.0,-83.13489532470703,-23.941326141357422,0,0,0,40000
931606,6.134429454803467,4.7486443519592285,-140.0,-1393.0,-80.40205383300781,-23.853073120117188,0,0,0,40000
931616,5.989359378814697,3.446776866912842,-241.0,-2226.0,-72.71165466308594,-23.164325714111328,0,0,0,40000
931626,5.852784156799316,2.245574951171875,-335.0,-2841.0,-65.58655548095703,-22.522146224975586,0,0,0,40000
931636,5.580731391906738,0.19994378089904785,-406.0,-3064.0,-53.34374237060547,-21.06060028076172,0,0,0,40000
931646,5.3806233406066895,-1.19455885887146,-454.0,-3015.0,-44.95756912231445,-20.023794174194336,0,0,0,40000
931656,5.039977550506592,-3.1283340454101562,-535.0,-2690.0,-33.28350067138672,-18.135337829589844,0,0,0,40000
931666,4.793242931365967,-4.214420795440674,-589.0,-2204.0,-26.653324127197266,-16.801761627197266,0,0,0,40000
931676,4.367284774780273,-5.432729721069336,-660.0,-1479.0,-19.19351577758789,-14.382303237915039,0,0,0,40000
931686,4.066349029541016,-5.885916709899902,-685.0,-633.0,-16.302772521972656,-12.702308654785156,0,0,0,40000
931696,3.5767159461975098,-5.9281110763549805,-709.0,339.0,-15.870132446289062,-9.877786636352539,0,0,0,40000
931706,3.2451438903808594,-5.508039951324463,-709.0,1248.0,-18.21978759765625,-7.989704132080078,0,0,0,40000
931716,2.7475388050079346,-4.3966851234436035,-719.0,1838.0,-24.741477966308594,-5.092528343200684,0,0,0,40000
931726,2.422785758972168,-3.4415643215179443,-687.0,2200.0,-30.357358932495117,-3.2205543518066406,0,0,0,40000
931736,1.9563206434249878,-1.878035545349121,-664.0,2318.0,-39.66315460205078,-0.48597145080566406,0,0,0,40000
931746,1.6597148180007935,-0.8331549763679504,-619.0,2223.0,-45.89501190185547,1.2403249740600586,0,0,0,40000
931756,1.2481739521026611,0.6199515461921692,-590.0,2026.0,-54.61530303955078,3.667208194732666,0,0,0,40000
931766,1.0015857219696045,1.4472942352294922,-506.0,1644.0,-59.61307144165039,5.113763332366943,0,0,0,40000
931776,0.6652759909629822,2.376711845397949,-472.0,1149.0,-65.2508316040039,7.107706546783447,0,0,0,40000
931786,0.4703364968299866,2.753854990005493,-390.0,602.0,-67.59208679199219,8.260931015014648,0,0,0,40000
931796,0.23188462853431702,2.9183785915374756,-299.0,-22.0,-68.6662368774414,9.682079315185547,0,0,0,40000
931806,0.11300747096538544,2.7143361568450928,-219.0,-725.0,-67.5262680053711,10.390554428100586,0,0,0,40000
931816,-0.006268942728638649,1.9071496725082397,-154.0,-1487.0,-62.7516975402832,11.105064392089844,0,0,0,40000
931826,-0.04841715469956398,1.015323519706726,-90.0,-2228.0,-57.44232940673828,11.358905792236328,0,0,0,40000
931836,-0.062276728451251984,-0.6885970234870911,4.0,-2606.0,-47.21935272216797,11.443970680236816,0,0,0,40000
931846,-0.03985338285565376,-1.9084725379943848,103.0,-2665.0,-39.857505798339844,11.310983657836914,0,0,0,40000
931856,0.04320039600133896,-3.663644790649414,168.0,-2472.0,-29.23715591430664,10.812582015991211,0,0,0,40000
931866,0.12612850964069366,-4.67295503616333,228.0,-2020.0,-23.052967071533203,10.312271118164062,0,0,0,40000
931876,0.296394944190979,-5.787909507751465,266.0,-1350.0,-16.201419830322266,9.283866882324219,0,0,0,40000
931886,0.4305626153945923,-6.175555229187012,298.0,-502.0,-13.694473266601562,8.467582702636719,0,0,0,40000
931896,0.6473003625869751,-6.123237609863281,309.0,470.0,-13.82186508178711,7.150386810302734,0,0,0,40000
931906,0.7980771660804749,-5.66779088973999,363.0,1290.0,-16.37865447998047,6.223642826080322,0,0,0,40000
931916,1.050888180732727,-4.551380634307861,382.0,1824.0,-22.926090240478516,4.678293228149414,0,0,0,40000
931926,1.228877305984497,-3.6431543827056885,377.0,2080.0,-28.255125045776367,3.5756077766418457,0,0,0,40000
931936,1.507522702217102,-2.1839771270751953,395.0,2140.0,-36.9269905090332,1.8618412017822266,0,0,0,40000
931946,1.701303482055664,-1.2206776142120361,411.0,2030.0,-42.65869903564453,0.6504325866699219,0,0,0,40000
931956,1.992148518562317,0.06301044672727585,423.0,1750.0,-50.34794235229492,-1.1509056091308594,0,0,0,40000
931966,2.1814119815826416,0.7465468645095825,427.0,1314.0,-54.46360397338867,-2.3496360778808594,0,0,0,40000
931976,2.454458713531494,1.4036320447921753,393.0,732.0,-58.44158935546875,-4.058333396911621,0,0,0,40000
931986,2.637112855911255,1.569312572479248,370.0,112.0,-59.48111343383789,-5.231199264526367,0,0,0,40000
931996,2.886491060256958,1.3512170314788818,361.0,-592.0,-58.21722412109375,-6.81108283996582,0,0,0,40000
932006,3.0398104190826416,0.8793838620185852,317.0,-1332.0,-55.4186897277832,-7.820376396179199,0,0,0,40000
932016,3.255258560180664,-0.3410830795764923,294.0,-2062.0,-48.101871490478516,-9.208207130432129,0,0,0,40000
932026,3.38368558883667,-1.402405858039856,269.0,-2412.0,-41.70477294921875,-10.078742027282715,0,0,0,40000
932036,3.545441150665283,-3.09352707862854,207.0,-2477.0,-31.485597610473633,-11.15383243560791,0,0,0,40000
932046,3.6272571086883545,-4.181533336639404,149.0,-2273.0,-24.845020294189453,-11.752626419067383,0,0,0,40000
932056,3.722895622253418,-5.554905414581299,91.0,-1811.0,-16.453590393066406,-12.437149047851562,0,0,0,40000
932066,3.75885272026062,-6.227900505065918,51.0,-1186.0,-12.236503601074219,-12.765176773071289,0,0,0,40000
932076,3.7631187438964844,-6.699354648590088,-18.0,-351.0,-9.210647583007812,-12.903773307800293,0,0,0,40000
932086,3.719219923019409,-6.604341506958008,-93.0,584.0,-9.580921173095703,-12.752535820007324,0,0,0,40000
932096,3.666168212890625,-6.168394565582275,-142.0,1334.0,-12.045494079589844,-12.522577285766602,0,0,0,40000
932106,3.5531198978424072,-5.0665154457092285,-195.0,1851.0,-18.490421295166016,-11.95241928100586,0,0,0,40000
932116,3.3880372047424316,-3.6934680938720703,-247.0,2077.0,-26.57061767578125,-11.086947441101074,0,0,0,40000
932126,3.261537551879883,-2.731747627258301,-257.0,2128.0,-32.26380920410156,-10.407712936401367,0,0,0,40000
932136,3.130129814147949,-1.7711516618728638,-310.0,2007.0,-37.96279525756836,-9.714749336242676,0,0,0,40000
932146,2.9039645195007324,-0.49667033553123474,-305.0,1721.0,-45.58008575439453,-8.447535514831543,0,0,0,40000
932156,2.755134105682373,0.19912810623645782,-331.0,1306.0,-49.752742767333984,-7.639004707336426,0,0,0,40000
932166,2.521953821182251,0.9042937159538269,-334.0,742.0,-54.00363540649414,-6.31843376159668,0,0,0,40000
932176,2.3645551204681396,1.0986957550048828,-355.0,103.0,-55.20103073120117,-5.446935653686523,0,0,0,40000
932186,2.1388373374938965,0.9202420711517334,-346.0,-617.0,-54.161624908447266,-4.159501075744629,0,0,0,40000
932196,1.9930920600891113,0.45875856280326843,-298.0,-1404.0,-51.41244888305664,-3.34652042388916,0,0,0,40000
932206,1.79427969455719,-0.7619534730911255,-258.0,-2096.0,-44.081451416015625,-2.2097434997558594,0,0,0,40000
932216,1.6741324663162231,-1.82042396068573,-225.0,-2428.0,-37.68892288208008,-1.5405187606811523,0,0,0,40000
932226,1.5182281732559204,-3.503230571746826,-238.0,-2433.0,-27.507125854492188,-0.6526002883911133,0,0,0,40000
932236,1.4340507984161377,-4.5755181312561035,-202.0,-2206.0,-20.948883056640625,-0.19155311584472656,0,0,0,40000
932246,1.3061987161636353,-5.925196647644043,-176.0,-1723.0,-12.68819808959961,0.5349369049072266,0,0,0,40000
932256,1.2332202196121216,-6.560240268707275,-100.0,-1019.0,-8.688369750976562,0.9350042343139648,0,0,0,40000
932266,1.145426630973816,-6.981447696685791,-111.0,-167.0,-5.954856872558594,1.4262847900390625,0,0,0,40000
932276,1.095441460609436,-6.837708950042725,-98.0,798.0,-6.609893798828125,1.6927518844604492,0,0,0,40000
932286,1.0521024465560913,-6.015847206115723,-42.0,1550.0,-11.349098205566406,1.9207630157470703,0,0,0,40000
932296,1.0442085266113281,-5.169493198394775,-43.0,2047.0,-16.261680603027344,1.936680793762207,0,0,0,40000
932306,1.0314183235168457,-3.6659512519836426,1.0,2294.0,-25.15438461303711,1.9824647903442383,0,0,0,40000
932316,1.0327715873718262,-2.5963430404663086,37.0,2287.0,-31.481298446655273,1.9433908462524414,0,0,0,40000
932326,1.0650664567947388,-1.0696076154708862,63.0,2172.0,-40.59157943725586,1.7180776596069336,0,0,0,40000
932336,1.0977392196655273,-0.1458970606327057,59.0,1856.0,-46.118534088134766,1.489471435546875,0,0,0,40000
932346,1.1510452032089233,0.9771785140037537,81.0,1415.0,-52.873817443847656,1.1358528137207031,0,0,0,40000
932356,1.1965183019638062,1.504861831665039,112.0,894.0,-56.07900619506836,0.8276882171630859,0,0,0,40000
932366,1.2809823751449585,1.8937724828720093,128.0,228.0,-58.466094970703125,0.28351402282714844,0,0,0,40000
932376,1.3447684049606323,1.8334795236587524,150.0,-517.0,-58.16047668457031,-0.1387615203857422,0,0,0,40000
932386,1.4500700235366821,1.2023036479949951,162.0,-1322.0,-54.41884994506836,-0.8127760887145996,0,0,0,40000
932396,1.5216947793960571,0.4070618748664856,178.0,-2081.0,-49.66958999633789,-1.28731107711792,0,0,0,40000
932406,1.6252055168151855,-1.1863142251968384,188.0,-2493.0,-40.09376907348633,-1.9558629989624023,0,0,0,40000
932416,1.7061172723770142,-2.3607003688812256,160.0,-2582.0,-32.990753173828125,-2.4916186332702637,0,0,0,40000
932426,1.8182522058486938,-4.063426494598389,128.0,-2354.0,-22.672386169433594,-3.2177228927612305,0,0,0,40000
932436,1.8912367820739746,-5.031671047210693,129.0,-1867.0,-16.723323822021484,-3.711460590362549,0,0,0,40000
932446,1.970717191696167,-6.088827133178711,111.0,-1192.0,-10.208934783935547,-4.24649715423584,0,0,0,40000
932456,2.01353120803833,-6.437637805938721,109.0,-311.0,-7.926654815673828,-4.563285827636719,0,0,0,40000
932466,2.062260389328003,-6.326371669769287,46.0,635.0,-8.401016235351562,-4.917102813720703,0,0,0,40000
932476,2.0881166458129883,-5.82733678817749,23.0,1445.0,-11.213981628417969,-5.1346235275268555,0,0,0,40000
932486,2.109976053237915,-4.637009143829346,23.0,1994.0,-18.201358795166016,-5.328765869140625,0,0,0,40000
932496,2.1137025356292725,-3.6568210124969482,25.0,2259.0,-23.96086883544922,-5.414453983306885,0,0,0,40000
932506,2.112535238265991,-2.0783843994140625,0.0,2326.0,-33.35007095336914,-5.4708967208862305,0,0,0,40000
932516,2.0941927433013916,-1.033731460571289,-21.0,2229.0,-39.57448196411133,-5.42390775680542,0,0,0,40000
932526,2.059723377227783,0.4038531482219696,-61.0,1944.0,-48.19547653198242,-5.279407024383545,0,0,0,40000
932536,2.0234248638153076,1.2007561922073364,-81.0,1551.0,-53.00359344482422,-5.122766971588135,0,0,0,40000
932546,1.9682118892669678,2.0969128608703613,-80.0,1041.0,-58.43381118774414,-4.851158142089844,0,0,0,40000
932556,1.9271535873413086,2.4447247982025146,-93.0,449.0,-60.590187072753906,-4.66307258605957,0,0,0,40000
932566,1.8565595149993896,2.5224974155426025,-72.0,-200.0,-61.132972717285156,-4.295995712280273,0,0,0,40000
932576,1.8066091537475586,2.248955726623535,-90.0,-971.0,-59.562904357910156,-4.0511369705200195,0,0,0,40000
932586,1.7410110235214233,1.309989094734192,-111.0,-1782.0,-53.98146438598633,-3.7106704711914062,0,0,0,40000
932596,1.7009555101394653,0.3445884585380554,-98.0,-2378.0,-48.2112922668457,-3.5218000411987305,0,0,0,40000
932606,1.6417731046676636,-1.3804470300674438,-58.0,-2589.0,-37.84081268310547,-3.216508388519287,0,0,0,40000
932616,1.5983010530471802,-2.565997362136841,-63.0,-2557.0,-30.664737701416016,-3.0041494369506836,0,0,0,40000
932626,1.5325613021850586,-4.223165988922119,-94.0,-2240.0,-20.614242553710938,-2.656567096710205,0,0,0,40000
932636,1.4886765480041504,-5.128368377685547,-132.0,-1689.0,-15.039745330810547,-2.438481330871582,0,0,0,40000
932646,1.405186653137207,-6.039185047149658,-122.0,-943.0,-9.402950286865234,-1.980659008026123,0,0,0,40000
932656,1.3568470478057861,-6.264096260070801,-112.0,-16.0,-7.8677520751953125,-1.7318663597106934,0,0,0,40000
932666,1.2602030038833618,-5.92524528503418,-108.0,969.0,-9.71683120727539,-1.1909427642822266,0,0,0,40000
932676,1.194446325302124,-5.308692455291748,-125.0,1648.0,-13.249114990234375,-0.8330655097961426,0,0,0,40000
932686,1.096307396888733,-4.0286030769348145,-163.0,2048.0,-20.792552947998047,-0.27844858169555664,0,0,0,40000
932696,1.035408854484558,-3.0376944541931152,-144.0,2238.0,-26.634872436523438,0.05515575408935547,0,0,0,40000
932706,0.9445366859436035,-1.4822237491607666,-104.0,2265.0,-35.90449523925781,0.5710897445678711,0,0,0,40000
932716,0.8845111131668091,-0.48561057448387146,-99.0,2069.0,-41.8577766418457,0.9040036201477051,0,0,0,40000
932726,0.8097282648086548,0.8162814974784851,-93.0,1707.0,-49.67878723144531,1.3274950981140137,0,0,0,40000
932736,0.774603545665741,1.4930747747421265,-105.0,1252.0,-53.77647399902344,1.5145330429077148,0,0,0,40000
932746,0.7176901698112488,2.1702420711517334,-77.0,704.0,-57.897682189941406,1.833846092224121,0,0,0,40000
932756,0.6944031715393066,2.334496021270752,-26.0,58.0,-58.95161819458008,1.952500820159912,0,0,0,40000
932766,0.6716339588165283,2.1263482570648193,-18.0,-677.0,-57.770591735839844,2.0686826705932617,0,0,0,40000
932776,0.6690205931663513,1.6431218385696411,-13.0,-1459.0,-54.92676544189453,2.0642614364624023,0,0,0,40000
932786,0.6790404915809631,0.3808607757091522,17.0,-2198.0,-47.38138198852539,1.9839916229248047,0,0,0,40000
932796,0.6995053291320801,-0.7268171906471252,58.0,-2581.0,-40.727046966552734,1.840517520904541,0,0,0,40000
932806,0.7369299530982971,-2.524378538131714,80.0,-2596.0,-29.88754653930664,1.5944018363952637,0,0,0,40000
932816,0.7641225457191467,-3.6733059883117676,80.0,-2359.0,-22.897438049316406,1.4086427688598633,0,0,0,40000
932826,0.8193292617797852,-5.136599540710449,77.0,-1872.0,-13.98005485534668,1.0533952713012695,0,0,0,40000
932836,0.8625659942626953,-5.848971366882324,69.0,-1212.0,-9.538555145263672,0.7685751914978027,0,0,0,40000
932846,0.9233319759368896,-6.415990352630615,58.0,-409.0,-5.949024200439453,0.37697792053222656,0,0,0,40000
932856,0.9541072249412537,-6.3742594718933105,76.0,610.0,-6.007106781005859,0.16411733627319336,0,0,0,40000
932866,0.9870644807815552,-5.642825126647949,47.0,1466.0,-10.21579360961914,-0.06296348571777344,0,0,0,40000
932876,1.013796091079712,-4.820547103881836,17.0,2031.0,-14.994667053222656,-0.25352048873901367,0,0,0,40000
932886,1.0441478490829468,-3.315095901489258,12.0,2317.0,-23.90927505493164,-0.4666452407836914,0,0,0,40000
932896,1.0602792501449585,-2.220329523086548,45.0,2407.0,-30.398061752319336,-0.5950088500976562,0,0,0,40000
932906,1.0788298845291138,-0.6101818680763245,53.0,2279.0,-40.0215950012207,-0.7384185791015625,0,0,0,40000
932916,1.0925697088241577,0.35904887318611145,44.0,1987.0,-45.8362922668457,-0.8534708023071289,0,0,0,40000
932926,1.1169871091842651,1.5753637552261353,2.0,1556.0,-53.16781234741211,-1.033259391784668,0,0,0,40000
932936,1.13074791431427,2.177821397781372,19.0,1069.0,-56.84091567993164,-1.1495599746704102,0,0,0,40000
932946,1.1395913362503052,2.7035279273986816,3.0,465.0,-60.071311950683594,-1.2367658615112305,0,0,0,40000
932956,1.142196536064148,2.763068675994873,13.0,-233.0,-60.5111198425293,-1.2866153717041016,0,0,0,40000
932966,1.1565850973129272,2.354548692703247,37.0,-934.0,-58.1370735168457,-1.4073948860168457,0,0,0,40000
932976,1.1627349853515625,1.7327511310577393,61.0,-1755.0,-54.466182708740234,-1.4790687561035156,0,0,0,40000
932986,1.1867655515670776,0.28186866641044617,39.0,-2406.0,-45.78817367553711,-1.6586604118347168,0,0,0,40000
932996,1.2098459005355835,-0.8948729038238525,26.0,-2672.0,-38.715152740478516,-1.8332128524780273,0,0,0,40000
933006,1.2379041910171509,-2.720954179763794,10.0,-2632.0,-27.698856353759766,-2.038386344909668,0,0,0,40000
933016,1.2529188394546509,-3.868792772293091,16.0,-2323.0,-20.709362030029297,-2.1658267974853516,0,0,0,40000
933026,1.2570534944534302,-5.293121814727783,42.0,-1856.0,-12.020511627197266,-2.228209972381592,0,0,0,40000
933036,1.2647147178649902,-5.955991744995117,13.0,-1147.0,-7.872158050537109,-2.312026023864746,0,0,0,40000
933046,1.254935622215271,-6.378476619720459,-29.0,-238.0,-5.148937225341797,-2.2912540435791016,0,0,0,40000
933056,1.247854471206665,-6.194753170013428,-44.0,801.0,-6.0626678466796875,-2.2863011360168457,0,0,0,40000
933066,1.2295680046081543,-5.287996292114258,-26.0,1613.0,-11.331989288330078,-2.2136340141296387,0,0,0,40000
933076,1.2010648250579834,-4.4139299392700195,-55.0,2108.0,-16.433252334594727,-2.079019546508789,0,0,0,40000
933086,1.1608221530914307,-2.833251953125,-75.0,2421.0,-25.81268310546875,-1.8729591369628906,0,0,0,40000
933096,1.1285085678100586,-1.704411268234253,-70.0,2472.0,-32.52104568481445,-1.7132892608642578,0,0,0,40000
933106,1.0782725811004639,-0.06633666157722473,-67.0,2332.0,-42.32816696166992,-1.4447884559631348,0,0,0,40000
933116,1.0404067039489746,0.9235036373138428,-73.0,2017.0,-48.28319549560547,-1.2492785453796387,0,0,0,40000
933126,0.9901201128959656,2.1276893615722656,-82.0,1564.0,-55.55869674682617,-0.9779253005981445,0,0,0,40000
933136,0.9593512415885925,2.6904451847076416,-59.0,1017.0,-59.009498596191406,-0.8224706649780273,0,0,0,40000
933146,0.9132809042930603,3.1189441680908203,-69.0,359.0,-61.67041015625,-0.5740480422973633,0,0,0,40000
933156,0.890090823173523,3.0899364948272705,-39.0,-369.0,-61.58980941772461,-0.46188831329345703,0,0,0,40000
933166,0.8646471500396729,2.5089428424835205,-24.0,-1161.0,-58.18784713745117,-0.33542394638061523,0,0,0,40000
933176,0.8629132509231567,1.738508701324463,9.0,-2006.0,-53.6270866394043,-0.3509025573730469,0,0,0,40000
933186,0.8602712750434875,0.12680867314338684,25.0,-2546.0,-43.98112487792969,-0.3607606887817383,0,0,0,40000
933196,0.8604831695556641,-1.0963821411132812,30.0,-2731.0,-36.62384796142578,-0.38781023025512695,0,0,0,40000
933206,0.8742590546607971,-2.9433746337890625,9.0,-2628.0,-25.475513458251953,-0.4966754913330078,0,0,0,40000
933216,0.8872601389884949,-4.069074630737305,-6.0,-2300.0,-18.61252212524414,-0.6011943817138672,0,0,0,40000
933226,0.905352771282196,-5.435489654541016,29.0,-1763.0,-10.26608657836914,-0.7365975379943848,0,0,0,40000
933236,0.9264916777610779,-6.044299602508545,62.0,-1041.0,-6.438785552978516,-0.8909153938293457,0,0,0,40000
933246,0.9496189951896667,-6.392784118652344,35.0,-155.0,-4.158329010009766,-1.0579042434692383,0,0,0,40000
933256,0.9638842344284058,-6.190135478973389,31.0,832.0,-5.185539245605469,-1.1722536087036133,0,0,0,40000
933266,0.9825857281684875,-5.307037353515625,2.0,1564.0,-10.312789916992188,-1.3137474060058594,0,0,0,40000
933276,1.0024242401123047,-4.446080684661865,20.0,2030.0,-15.334571838378906,-1.4626049995422363,0,0,0,40000
933286,1.0143918991088867,-2.958911657333374,33.0,2256.0,-24.1505069732666,-1.5646629333496094,0,0,0,40000
933296,1.0198758840560913,-1.9035595655441284,36.0,2299.0,-30.412826538085938,-1.6281089782714844,0,0,0,40000
933306,1.035035252571106,-0.3999825716018677,15.0,2102.0,-39.40471649169922,-1.7500123977661133,0,0,0,40000
933316,1.0587843656539917,0.48311153054237366,41.0,1782.0,-44.70737075805664,-1.9239721298217773,0,0,0,40000
933326,1.07870614528656,1.4977971315383911,29.0,1294.0,-50.829307556152344,-2.075626850128174,0,0,0,40000
933336,1.0960897207260132,1.9278230667114258,38.0,673.0,-53.462486267089844,-2.212588310241699,0,0,0,40000
933346,1.1213233470916748,2.106868267059326,42.0,-4.0,-54.59933853149414,-2.397292137145996,0,0,0,40000
933356,1.1359459161758423,1.8890048265457153,67.0,-781.0,-53.35188293457031,-2.518901824951172,0,0,0,40000
933366,1.1729319095611572,1.010040521621704,44.0,-1619.0,-48.120819091796875,-2.7756619453430176,0,0,0,40000
933376,1.2048336267471313,0.08203860372304916,53.0,-2269.0,-42.56676483154297,-3.0028467178344727,0,0,0,40000
933386,1.2530635595321655,-1.587599515914917,82.0,-2533.0,-32.52190399169922,-3.3291430473327637,0,0,0,40000
933396,1.2734273672103882,-2.743281602859497,79.0,-2495.0,-25.519351959228516,-3.4892520904541016,0,0,0,40000
933406,1.3088301420211792,-4.35080623626709,52.0,-2211.0,-15.762258529663086,-3.740579605102539,0,0,0,40000
933416,1.3278664350509644,-5.226475715637207,17.0,-1679.0,-10.361650466918945,-3.8944807052612305,0,0,0,40000
933426,1.342841386795044,-6.115244388580322,0.0,-1014.0,-4.854743957519531,-4.024509429931641,0,0,0,40000
933436,1.3547208309173584,-6.343133449554443,22.0,-142.0,-3.2993698120117188,-4.136273384094238,0,0,0,40000
933446,1.359643578529358,-6.025371551513672,18.0,851.0,-5.019195556640625,-4.2064666748046875,0,0,0,40000
933456,1.352624535560608,-5.428069591522217,-6.0,1572.0,-8.432594299316406,-4.205002307891846,0,0,0,40000
933466,1.3335436582565308,-4.144546031951904,-5.0,2025.0,-15.993099212646484,-4.130734920501709,0,0,0,40000
933476,1.3250190019607544,-3.1624016761779785,-48.0,2191.0,-21.779251098632812,-4.119494438171387,0,0,0,40000
933486,1.2979553937911987,-1.6561285257339478,-71.0,2176.0,-30.749237060546875,-3.9964990615844727,0,0,0,40000
933496,1.2775083780288696,-0.7031620144844055,-65.0,1990.0,-36.43459701538086,-3.9123804569244385,0,0,0,40000
933506,1.2403005361557007,0.5109012722969055,-45.0,1630.0,-43.720516204833984,-3.72672700881958,0,0,0,40000
933516,1.202356219291687,1.1233913898468018,-67.0,1129.0,-47.42209243774414,-3.535576105117798,0,0,0,40000
933526,1.1469560861587524,1.6573678255081177,-88.0,519.0,-50.67060470581055,-3.2382965087890625,0,0,0,40000
933536,1.1136940717697144,1.7117736339569092,-92.0,-176.0,-51.04813766479492,-3.0725574493408203,0,0,0,40000
933546,1.0551464557647705,1.2863966226577759,-79.0,-930.0,-48.5412483215332,-2.7536001205444336,0,0,0,40000
933556,1.0175914764404297,0.6318426728248596,-93.0,-1767.0,-44.64120864868164,-2.5592851638793945,0,0,0,40000
933566,0.963876485824585,-0.8230692148208618,-74.0,-2321.0,-35.90564727783203,-2.2664976119995117,0,0,0,40000
933576,0.9358157515525818,-1.9598726034164429,-40.0,-2540.0,-29.03976058959961,-2.126502752304077,0,0,0,40000
933586,0.9006431102752686,-3.678616523742676,-45.0,-2459.0,-18.6373233795166,-1.9429163932800293,0,0,0,40000
933596,0.8699206709861755,-4.7122039794921875,-86.0,-2089.0,-12.306625366210938,-1.7850983142852783,0,0,0,40000
933606,0.8169295191764832,-5.915175437927246,-84.0,-1511.0,-4.924461364746094,-1.492347002029419,0,0,0,40000
933616,0.7914999723434448,-6.40601921081543,-63.0,-771.0,-1.7927169799804688,-1.3637864589691162,0,0,0,40000
933626,0.7479636669158936,-6.5683794021606445,-49.0,130.0,-0.6214218139648438,-1.125493049621582,0,0,0,40000
933636,0.7086277604103088,-6.24452018737793,-69.0,1101.0,-2.372821807861328,-0.9112076759338379,0,0,0,40000
933646,0.6504313349723816,-5.196776390075684,-85.0,1787.0,-8.489400863647461,-0.5823729038238525,0,0,0,40000
933656,0.6103556752204895,-4.246046543121338,-120.0,2224.0,-14.05478286743164,-0.3607940673828125,0,0,0,40000
933666,0.5667183995246887,-2.6328067779541016,-77.0,2435.0,-23.635417938232422,-0.11642909049987793,0,0,0,40000
933676,0.5417779684066772,-1.5242382287979126,-72.0,2382.0,-30.22782325744629,0.01668834686279297,0,0,0,40000
933686,0.4832988977432251,0.034214992076158524,-73.0,2171.0,-39.561431884765625,0.3524158000946045,0,0,0,40000
933696,0.4492148160934448,0.9330187439918518,-64.0,1815.0,-44.971656799316406,0.5430307388305664,0,0,0,40000
933706,0.40159863233566284,1.9721770286560059,-54.0,1323.0,-51.25434112548828,0.816155195236206,0,0,0,40000
933716,0.3749966621398926,2.4084348678588867,-72.0,713.0,-53.939247131347656,0.9641661643981934,0,0,0,40000
933726,0.3376803994178772,2.6040022373199463,-66.0,-5.0,-55.190032958984375,1.1774482727050781,0,0,0,40000
933736,0.3228018283843994,2.3973443508148193,-38.0,-748.0,-54.02491760253906,1.2568717002868652,0,0,0,40000
933746,0.3088972568511963,1.5191234350204468,9.0,-1610.0,-48.813560485839844,1.3310229778289795,0,0,0,40000
933756,0.2974555194377899,0.5836984515190125,-17.0,-2274.0,-43.23008728027344,1.3905603885650635,0,0,0,40000
933766,0.2955302596092224,-1.1252728700637817,-28.0,-2586.0,-32.96359634399414,1.3930567502975464,0,0,0,40000
933776,0.3052045404911041,-2.324026584625244,-24.0,-2614.0,-25.715721130371094,1.325939416885376,0,0,0,40000
933786,0.3141549229621887,-4.00924825668335,18.0,-2322.0,-15.503612518310547,1.2630144357681274,0,0,0,40000
933796,0.31634706258773804,-4.9500508308410645,52.0,-1847.0,-9.721302032470703,1.240481972694397,0,0,0,40000
933806,0.3241131007671356,-5.939186096191406,28.0,-1155.0,-3.61865234375,1.184213399887085,0,0,0,40000
933816,0.32068371772766113,-6.237199783325195,-4.0,-285.0,-1.6465644836425781,1.1950714588165283,0,0,0,40000
933826,0.3186382055282593,-6.027139186859131,-20.0,706.0,-2.7213592529296875,1.1976370811462402,0,0,0,40000
933836,0.322112500667572,-5.467790126800537,-10.0,1545.0,-5.906242370605469,1.1671518087387085,0,0,0,40000
933846,0.3258027732372284,-4.170960426330566,9.0,2074.0,-13.545499801635742,1.1352834701538086,0,0,0,40000
933856,0.3189978003501892,-3.1434597969055176,-5.0,2310.0,-19.603782653808594,1.166472315788269,0,0,0,40000
933866,0.30941468477249146,-1.5265504121780396,-6.0,2378.0,-29.239971160888672,1.214584469795227,0,0,0,40000
933876,0.2985316514968872,-0.4594287574291229,-34.0,2277.0,-35.61617660522461,1.2707576751708984,0,0,0,40000
933886,0.28626304864883423,0.9688310623168945,-33.0,1952.0,-44.19843292236328,1.335567593574524,0,0,0,40000
933896,0.27694347500801086,1.7408521175384521,-36.0,1510.0,-48.873756408691406,1.3830561637878418,0,0,0,40000
933906,0.26565730571746826,2.5483198165893555,-1.0,946.0,-53.78660583496094,1.4382681846618652,0,0,0,40000
933916,0.25793352723121643,2.808682680130005,5.0,371.0,-55.413414001464844,1.4828553199768066,0,0,0,40000
933926,0.2630701959133148,2.8128151893615723,14.0,-369.0,-55.5229377746582,1.4441909790039062,0,0,0,40000
933936,0.2798115611076355,2.2746376991271973,40.0,-1205.0,-52.37034606933594,1.3356674909591675,0,0,0,40000
933946,0.296205997467041,1.5317771434783936,64.0,-2014.0,-47.96852493286133,1.2286412715911865,0,0,0,40000
933956,0.33752524852752686,-0.040978141129016876,90.0,-2518.0,-38.55070877075195,0.971165657043457,0,0,0,40000
933966,0.3670726418495178,-1.24326491355896,68.0,-2686.0,-31.3142147064209,0.78316330909729,0,0,0,40000
933976,0.4273740351200104,-3.0481982231140137,76.0,-2554.0,-20.414520263671875,0.40923500061035156,0,0,0,40000
933986,0.45787447690963745,-4.140652656555176,50.0,-2164.0,-13.748453140258789,0.2128443717956543,0,0,0,40000
933996,0.5070680975914001,-5.437025547027588,106.0,-1594.0,-5.821372985839844,-0.09677767753601074,0,0,0,40000
934006,0.5416435599327087,-6.004128456115723,67.0,-851.0,-2.2450103759765625,-0.3200812339782715,0,0,0,40000
934016,0.5805731415748596,-6.247224807739258,75.0,143.0,-0.5997123718261719,-0.5705990791320801,0,0,0,40000
934026,0.6001431345939636,-5.949021339416504,6.0,1174.0,-2.2063560485839844,-0.7058537006378174,0,0,0,40000
934036,0.6123217940330505,-4.887694835662842,12.0,1908.0,-8.41329574584961,-0.797189474105835,0,0,0,40000
934046,0.6114023327827454,-3.9026482105255127,30.0,2352.0,-14.194416046142578,-0.8100051879882812,0,0,0,40000
934056,0.6236205697059631,-2.207932710647583,18.0,2564.0,-24.275623321533203,-0.9019014835357666,0,0,0,40000
934066,0.6245009303092957,-1.0126080513000488,5.0,2590.0,-31.40285873413086,-0.9259142875671387,0,0,0,40000
934076,0.6345073580741882,0.7102533578872681,21.0,2440.0,-41.740966796875,-1.00484299659729,0,0,0,40000
934086,0.6446006894111633,1.745579719543457,8.0,2058.0,-47.993072509765625,-1.0846304893493652,0,0,0,40000
934096,0.6581263542175293,2.996889114379883,15.0,1589.0,-55.57685089111328,-1.1853728294372559,0,0,0,40000
934106,0.668204128742218,3.5947697162628174,19.0,1011.0,-59.2651252746582,-1.2657716274261475,0,0,0,40000
934116,0.6791398525238037,4.052487850189209,25.0,307.0,-62.12906265258789,-1.3516864776611328,0,0,0,40000
934126,0.7002332806587219,4.023656368255615,33.0,-464.0,-62.077552795410156,-1.4990079402923584,0,0,0,40000
934136,0.7413632273674011,3.436415910720825,73.0,-1277.0,-58.666053771972656,-1.7674055099487305,0,0,0,40000
934146,0.7650530338287354,2.6540141105651855,83.0,-2140.0,-54.06113052368164,-1.9322116374969482,0,0,0,40000
934156,0.8129651546478271,1.0010180473327637,92.0,-2632.0,-44.19414520263672,-2.2435216903686523,0,0,0,40000
934166,0.8576721549034119,-0.26017361879348755,54.0,-2808.0,-36.634429931640625,-2.5370090007781982,0,0,0,40000
934176,0.9094070792198181,-2.1591134071350098,37.0,-2683.0,-25.19855499267578,-2.8741259574890137,0,0,0,40000
934186,0.9475579857826233,-3.31445050239563,46.0,-2297.0,-18.18075180053711,-3.1309456825256348,0,0,0,40000
934196,0.9851281046867371,-4.699126720428467,80.0,-1727.0,-9.7470703125,-3.3852999210357666,0,0,0,40000
934206,1.0062731504440308,-5.32305383682251,59.0,-971.0,-5.85089111328125,-3.5421717166900635,0,0,0,40000
934216,1.0153908729553223,-5.6470866203308105,-4.0,6.0,-3.7390365600585938,-3.627470016479492,0,0,0,40000
934226,1.0286362171173096,-5.397946834564209,-38.0,1054.0,-5.068351745605469,-3.737694263458252,0,0,0,40000
934236,1.0273082256317139,-4.413906574249268,-49.0,1797.0,-10.826744079589844,-3.7606024742126465,0,0,0,40000
934246,1.0150086879730225,-3.4654083251953125,-42.0,2308.0,-16.40207290649414,-3.7173330783843994,0,0,0,40000
934256,0.9764554500579834,-1.7874953746795654,-35.0,2550.0,-26.395286560058594,-3.515707492828369,0,0,0,40000
934266,0.9360929727554321,-0.6049228310585022,-83.0,2578.0,-33.458351135253906,-3.3021488189697266,0,0,0,40000
934276,0.8831691145896912,1.1143003702163696,-87.0,2428.0,-43.7868537902832,-3.0117900371551514,0,0,0,40000
934286,0.850337028503418,2.1508564949035645,-106.0,2077.0,-50.058475494384766,-2.8406991958618164,0,0,0,40000
934296,0.7929609417915344,3.4198601245880127,-70.0,1614.0,-57.76088333129883,-2.52083158493042,0,0,0,40000
934306,0.7622959017753601,4.034571170806885,-64.0,1056.0,-61.563133239746094,-2.360089063644409,0,0,0,40000
934316,0.7192203998565674,4.540445804595947,-69.0,413.0,-64.72993469238281,-2.1237454414367676,0,0,0,40000
934326,0.7032536268234253,4.571890830993652,-27.0,-292.0,-65.05574035644531,-2.049161434173584,0,0,0,40000
934336,0.6807467341423035,4.085070610046387,20.0,-1121.0,-62.26499938964844,-1.9346485137939453,0,0,0,40000
934346,0.6648517847061157,3.3733954429626465,18.0,-1987.0,-58.10517120361328,-1.859429121017456,0,0,0,40000
934356,0.670691192150116,1.7783890962600708,-7.0,-2620.0,-48.608978271484375,-1.9146904945373535,0,0,0,40000
934366,0.6875914335250854,0.5070936679840088,-17.0,-2857.0,-41.011802673339844,-2.0365498065948486,0,0,0,40000
934376,0.7028520107269287,-1.4523158073425293,-1.0,-2801.0,-29.235179901123047,-2.1489248275756836,0,0,0,40000
934386,0.7104758024215698,-2.682037830352783,32.0,-2523.0,-21.79098129272461,-2.2158288955688477,0,0,0,40000
934396,0.71477872133255,-4.244607448577881,35.0,-1989.0,-12.305839538574219,-2.26306414604187,0,0,0,40000
934406,0.7113630175590515,-4.996692180633545,-3.0,-1279.0,-7.652057647705078,-2.263986825942993,0,0,0,40000
934416,0.6940693259239197,-5.583678722381592,-49.0,-388.0,-3.9677505493164062,-2.1814193725585938,0,0,0,40000
934426,0.6831623315811157,-5.526996612548828,-21.0,656.0,-4.140758514404297,-2.136542320251465,0,0,0,40000
934436,0.6707559823989868,-4.778582572937012,23.0,1506.0,-8.477018356323242,-2.082207202911377,0,0,0,40000
934446,0.6602590680122375,-3.952871084213257,-5.0,2073.0,-13.30250358581543,-2.0391972064971924,0,0,0,40000
934456,0.6486976742744446,-2.394742488861084,-16.0,2434.0,-22.559913635253906,-1.9895665645599365,0,0,0,40000
934466,0.6543078422546387,-1.2366524934768677,-15.0,2566.0,-29.45738983154297,-2.042820692062378,0,0,0,40000
934476,0.6550595760345459,0.5126907825469971,0.0,2497.0,-39.94797134399414,-2.066917896270752,0,0,0,40000
934486,0.6597850322723389,1.6125757694244385,14.0,2232.0,-46.58259582519531,-2.1150095462799072,0,0,0,40000
934496,0.6629548668861389,3.010965347290039,27.0,1832.0,-55.047306060791016,-2.1538758277893066,0,0,0,40000
934506,0.6660926938056946,3.723102569580078,30.0,1300.0,-59.4235954284668,-2.192706823348999,0,0,0,40000
934516,0.6797349452972412,4.398882865905762,-3.0,678.0,-63.60344696044922,-2.294964075088501,0,0,0,40000
934526,0.7023870348930359,4.541554927825928,10.0,-36.0,-64.59440612792969,-2.4516761302948,0,0,0,40000
934536,0.7302456498146057,4.209676742553711,52.0,-900.0,-62.735286712646484,-2.6402361392974854,0,0,0,40000
934546,0.7434631586074829,3.5916309356689453,87.0,-1791.0,-59.14266586303711,-2.7416601181030273,0,0,0,40000
934556,0.7753523588180542,2.0971810817718506,70.0,-2506.0,-50.25836181640625,-2.9560515880584717,0,0,0,40000
934566,0.8064365386962891,0.8637127876281738,14.0,-2821.0,-42.8984489440918,-3.1665027141571045,0,0,0,40000
934576,0.8479871153831482,-1.0811738967895508,18.0,-2821.0,-31.219995498657227,-3.4407503604888916,0,0,0,40000
934586,0.878764808177948,-2.341594696044922,67.0,-2604.0,-23.602237701416016,-3.6513302326202393,0,0,0,40000
934596,0.9190797209739685,-3.982639789581299,67.0,-2146.0,-13.655193328857422,-3.920259714126587,0,0,0,40000
934606,0.9317941069602966,-4.8198676109313965,47.0,-1463.0,-8.496917724609375,-4.024380683898926,0,0,0,40000
934616,0.9532918334007263,-5.522341728210449,-4.0,-569.0,-4.1228485107421875,-4.181949138641357,0,0,0,40000
934626,0.9741955995559692,-5.537064075469971,-12.0,489.0,-3.867961883544922,-4.336356163024902,0,0,0,40000
934636,0.9764924645423889,-4.859853267669678,-1.0,1404.0,-7.775337219238281,-4.379303932189941,0,0,0,40000
934646,0.9492286443710327,-4.062707901000977,-26.0,2037.0,-12.426403045654297,-4.244537353515625,0,0,0,40000
934656,0.9118962287902832,-2.533446788787842,-64.0,2405.0,-21.506790161132812,-4.048480987548828,0,0,0,40000
934666,0.8799928426742554,-1.3955210447311401,-78.0,2538.0,-28.278751373291016,-3.8839030265808105,0,0,0,40000
934676,0.8229783773422241,0.33041492104530334,-105.0,2460.0,-38.62373352050781,-3.5672740936279297,0,0,0,40000
934686,0.7938651442527771,1.4019298553466797,-101.0,2213.0,-45.082149505615234,-3.4167230129241943,0,0,0,40000
934696,0.7308918237686157,2.781916618347168,-85.0,1797.0,-53.42987823486328,-3.0615224838256836,0,0,0,40000
934706,0.6815135478973389,3.4942357540130615,-85.0,1286.0,-57.80033874511719,-2.7863104343414307,0,0,0,40000
934716,0.6095179319381714,4.183163642883301,-111.0,697.0,-62.05242919921875,-2.373615264892578,0,0,0,40000
934726,0.5604099631309509,4.336513042449951,-117.0,-10.0,-63.10116958618164,-2.096405506134033,0,0,0,40000
934736,0.4961341619491577,4.041262149810791,-125.0,-831.0,-61.45622253417969,-1.7264280319213867,0,0,0,40000
934746,0.4576246440410614,3.456221103668213,-83.0,-1738.0,-58.05717468261719,-1.5094866752624512,0,0,0,40000
934756,0.40202033519744873,1.996584415435791,-28.0,-2466.0,-49.378334045410156,-1.1883167028427124,0,0,0,40000
934766,0.3641071021556854,0.7720721960067749,-5.0,-2821.0,-42.069297790527344,-0.9721720218658447,0,0,0,40000
934776,0.33488932251930237,-1.1760008335113525,-32.0,-2850.0,-30.36900520324707,-0.8074355125427246,0,0,0,40000
934786,0.3141924738883972,-2.4390690326690674,-82.0,-2637.0,-22.732460021972656,-0.6930438280105591,0,0,0,40000
934796,0.27669838070869446,-4.109982013702393,-87.0,-2190.0,-12.602752685546875,-0.4768155813217163,0,0,0,40000
934806,0.24494580924510956,-4.961851596832275,-43.0,-1557.0,-7.352508544921875,-0.29395925998687744,0,0,0,40000
934816,0.19924969971179962,-5.701575756072998,-51.0,-738.0,-2.75018310546875,-0.026248693466186523,0,0,0,40000
934826,0.15588337182998657,-5.75095796585083,-102.0,327.0,-2.281360626220703,0.22867083549499512,0,0,0,40000
934836,0.08720272779464722,-5.101247310638428,-141.0,1303.0,-6.016731262207031,0.637184739112854,0,0,0,40000
934846,0.06239672750234604,-4.281787395477295,-107.0,2025.0,-10.794811248779297,0.7838380336761475,0,0,0,40000
934856,0.00011179437569808215,-2.7168378829956055,-83.0,2420.0,-20.08338737487793,1.1568766832351685,0,0,0,40000
934866,-0.03860118240118027,-1.5514028072357178,-44.0,2613.0,-27.0153751373291,1.3899072408676147,0,0,0,40000
934876,-0.0889311209321022,0.21377529203891754,-54.0,2564.0,-37.591800689697266,1.6939500570297241,0,0,0,40000
934886,-0.10834725201129913,1.3131204843521118,-69.0,2324.0,-44.214195251464844,1.813422441482544,0,0,0,40000
934896,-0.14847901463508606,2.7253005504608154,-75.0,1885.0,-52.75303649902344,2.0581488609313965,0,0,0,40000
934906,-0.16190142929553986,3.4422993659973145,-49.0,1342.0,-57.150001525878906,2.143380880355835,0,0,0,40000
934916,-0.17812134325504303,4.138095378875732,2.0,759.0,-61.441898345947266,2.246029853820801,0,0,0,40000
934926,-0.1878533661365509,4.296367168426514,33.0,45.0,-62.5189208984375,2.310004234313965,0,0,0,40000
934936,-0.18075338006019592,3.990955114364624,44.0,-784.0,-60.81169891357422,2.272972345352173,0,0,0,40000
934946,-0.16409580409526825,3.3776142597198486,38.0,-1702.0,-57.24085235595703,2.1780881881713867,0,0,0,40000
934956,-0.11130647361278534,1.8896647691726685,46.0,-2443.0,-48.38927459716797,1.8652420043945312,0,0,0,40000
934966,-0.06358944624662399,0.6472241282463074,99.0,-2822.0,-40.96910095214844,1.5814611911773682,0,0,0,40000
934976,0.00650833360850811,-1.3222497701644897,134.0,-2876.0,-29.136268615722656,1.1616746187210083,0,0,0,40000
934986,0.0537591315805912,-2.585920572280884,157.0,-2663.0,-21.4917049407959,0.8771476745605469,0,0,0,40000
934996,0.13021785020828247,-4.231525897979736,94.0,-2207.0,-11.509807586669922,0.4152311086654663,0,0,0,40000
935006,0.19104476273059845,-5.05999755859375,76.0,-1534.0,-6.396751403808594,0.04521536827087402,0,0,0,40000
935016,0.24959957599639893,-5.779775619506836,86.0,-709.0,-1.9115333557128906,-0.3128310441970825,0,0,0,40000
935026,0.28433793783187866,-5.823076248168945,82.0,353.0,-1.4769706726074219,-0.529341459274292,0,0,0,40000
935036,0.32541850209236145,-5.149559497833252,61.0,1399.0,-5.353172302246094,-0.7850980758666992,0,0,0,40000
935046,0.3409680426120758,-4.310144424438477,-18.0,2073.0,-10.249946594238281,-0.8885276317596436,0,0,0,40000
935056,0.35456058382987976,-2.6938493251800537,17.0,2498.0,-19.84669303894043,-0.9805176258087158,0,0,0,40000
935066,0.3629625141620636,-1.4869654178619385,21.0,2688.0,-27.028799057006836,-1.041701316833496,0,0,0,40000
935076,0.37020739912986755,0.35394683480262756,24.0,2668.0,-38.0628776550293,-1.0961530208587646,0,0,0,40000
935086,0.37362587451934814,1.5174914598464966,-11.0,2445.0,-45.075836181640625,-1.1278471946716309,0,0,0,40000
935096,0.3666425347328186,3.0426156520843506,-17.0,2079.0,-54.300392150878906,-1.0970478057861328,0,0,0,40000
935106,0.36505359411239624,3.863795757293701,-20.0,1616.0,-59.333797454833984,-1.098502516746521,0,0,0,40000
935116,0.35434284806251526,4.7325663566589355,2.0,1051.0,-64.67919921875,-1.0449098348617554,0,0,0,40000
935126,0.3377733826637268,5.023042678833008,-6.0,358.0,-66.56966400146484,-0.9557921886444092,0,0,0,40000
935136,0.3293052315711975,4.936131954193115,10.0,-455.0,-66.19908142089844,-0.9149374961853027,0,0,0,40000
935146,0.3346400856971741,4.486843585968018,-31.0,-1337.0,-63.64384078979492,-0.9570138454437256,0,0,0,40000
935156,0.34817028045654297,3.2090165615081787,-8.0,-2206.0,-56.090415954589844,-1.0484938621520996,0,0,0,40000
935166,0.3636264503002167,2.034416675567627,28.0,-2722.0,-49.11820602416992,-1.1518638134002686,0,0,0,40000
935176,0.36678701639175415,0.07001945376396179,50.0,-2920.0,-37.35786437988281,-1.1816400289535522,0,0,0,40000
935186,0.35535597801208496,-1.2482690811157227,-1.0,-2825.0,-29.426408767700195,-1.1238832473754883,0,0,0,40000
935196,0.3456527888774872,-3.067739725112915,-42.0,-2530.0,-18.438722610473633,-1.0763370990753174,0,0,0,40000
935206,0.3398599326610565,-4.082292079925537,-49.0,-2013.0,-12.240791320800781,-1.0518591403961182,0,0,0,40000
935216,0.31856265664100647,-5.171477794647217,2.0,-1301.0,-5.562023162841797,-0.9336727261543274,0,0,0,40000
935226,0.2922900319099426,-5.541959285736084,-38.0,-448.0,-3.1768417358398438,-0.7851185202598572,0,0,0,40000
935236,0.24369589984416962,-5.425290584564209,-91.0,566.0,-3.7105178833007812,-0.5016248226165771,0,0,0,40000
935246,0.21190068125724792,-4.90537691116333,-106.0,1503.0,-6.676097869873047,-0.31768202781677246,0,0,0,40000
935256,0.15096670389175415,-3.614030599594116,-121.0,2122.0,-14.298990249633789,0.0425339937210083,0,0,0,40000
935266,0.10964567959308624,-2.5288665294647217,-106.0,2487.0,-20.720890045166016,0.2866895794868469,0,0,0,40000
935276,0.03338282182812691,-0.7699741125106812,-90.0,2603.0,-31.2298641204834,0.7424730658531189,0,0,0,40000
935286,-0.015090813860297203,0.39332640171051025,-87.0,2503.0,-38.20755386352539,1.0331977605819702,0,0,0,40000
935296,-0.07575219124555588,2.000864028930664,-102.0,2224.0,-47.89418411254883,1.3986506462097168,0,0,0,40000
935306,-0.11665155738592148,2.9007716178894043,-94.0,1794.0,-53.37008285522461,1.6470215320587158,0,0,0,40000
935316,-0.1723441779613495,3.9022457599639893,-78.0,1245.0,-59.48519515991211,1.9856932163238525,0,0,0,40000
935326,-0.2017233967781067,4.2825140953063965,-62.0,548.0,-61.89109802246094,2.167637825012207,0,0,0,40000
935336,-0.2331613004207611,4.347960948944092,-38.0,-215.0,-62.41514587402344,2.362931728363037,0,0,0,40000
935346,-0.24582165479660034,4.0194315910339355,0.0,-1069.0,-60.56896209716797,2.4461469650268555,0,0,0,40000
935356,-0.25063562393188477,2.9326493740081787,3.0,-1945.0,-54.15119934082031,2.482497215270996,0,0,0,40000
935366,-0.2499660700559616,1.8471715450286865,-2.0,-2607.0,-47.707130432128906,2.4859516620635986,0,0,0,40000
935376,-0.23773916065692902,-0.06570406258106232,-3.0,-2888.0,-36.25144958496094,2.419767141342163,0,0,0,40000
935386,-0.22004295885562897,-1.3927148580551147,16.0,-2878.0,-28.263500213623047,2.3203980922698975,0,0,0,40000
935396,-0.19822950661182404,-3.263273000717163,36.0,-2609.0,-16.96405601501465,2.195779800415039,0,0,0,40000
935406,-0.19730205833911896,-4.331869602203369,-4.0,-2115.0,-10.435043334960938,2.196136951446533,0,0,0,40000
935416,-0.20510661602020264,-5.51132869720459,-11.0,-1442.0,-3.205596923828125,2.248973846435547,0,0,0,40000
935426,-0.2065284103155136,-5.948863983154297,-28.0,-639.0,-0.40671539306640625,2.263636589050293,0,0,0,40000
935436,-0.2258799523115158,-5.985689163208008,-42.0,338.0,-0.0044708251953125,2.3862409591674805,0,0,0,40000
935446,-0.23604921996593475,-5.5591206550598145,-26.0,1299.0,-2.3914756774902344,2.454259157180786,0,0,0,40000
935456,-0.26992112398147583,-4.399460792541504,-48.0,1921.0,-9.202245712280273,2.6651196479797363,0,0,0,40000
935466,-0.2860727906227112,-3.3891570568084717,-40.0,2346.0,-15.150066375732422,2.770406723022461,0,0,0,40000
935476,-0.30824223160743713,-1.712632417678833,-48.0,2474.0,-25.13754653930664,2.912362813949585,0,0,0,40000
935486,-0.3084060847759247,-0.5852653980255127,-19.0,2415.0,-31.870689392089844,2.9226300716400146,0,0,0,40000
935496,-0.3282278776168823,0.9652906656265259,-28.0,2140.0,-41.185001373291016,3.0512142181396484,0,0,0,40000
935506,-0.3339883089065552,1.8332178592681885,6.0,1717.0,-46.43737030029297,3.0957634449005127,0,0,0,40000
935516,-0.33771729469299316,2.7986249923706055,-12.0,1185.0,-52.30339050292969,3.1281681060791016,0,0,0,40000
935526,-0.33289825916290283,3.163862466812134,-5.0,555.0,-54.585670471191406,3.1092982292175293,0,0,0,40000
935536,-0.3194204568862915,3.22344970703125,42.0,-225.0,-55.040897369384766,3.0383410453796387,0,0,0,40000
935546,-0.29640814661979675,2.877418279647827,91.0,-1108.0,-53.055686950683594,2.909486770629883,0,0,0,40000
935556,-0.2481951266527176,1.731616735458374,66.0,-2039.0,-46.24859619140625,2.6281356811523438,0,0,0,40000
935566,-0.20764990150928497,0.6203070878982544,61.0,-2629.0,-39.61300277709961,2.3915023803710938,0,0,0,40000
935576,-0.14071105420589447,-1.2878773212432861,59.0,-2865.0,-28.148616790771484,1.9948124885559082,0,0,0,40000
935586,-0.09090396016836166,-2.587747812271118,106.0,-2818.0,-20.287355422973633,1.6993625164031982,0,0,0,40000
935596,-0.03806544840335846,-4.398840427398682,118.0,-2503.0,-9.309825897216797,1.384238362312317,0,0,0,40000
935606,-0.013210409320890903,-5.397331237792969,67.0,-1957.0,-3.16864013671875,1.2357677221298218,0,0,0,40000
935616,0.01907457411289215,-6.439596176147461,31.0,-1218.0,3.267284393310547,1.0417250394821167,0,0,0,40000
935626,0.03638229891657829,-6.758749008178711,-7.0,-308.0,5.381629943847656,0.9369627237319946,0,0,0,40000
935636,0.05107907950878143,-6.537542819976807,23.0,754.0,4.255523681640625,0.8475295305252075,0,0,0,40000
935646,0.044297389686107635,-5.944899559020996,8.0,1619.0,0.8856163024902344,0.8868541121482849,0,0,0,40000
935656,0.040732789784669876,-4.571130275726318,-4.0,2233.0,-7.202064514160156,0.9069716334342957,0,0,0,40000
935666,0.03963794186711311,-3.4601662158966064,-8.0,2563.0,-13.75052261352539,0.912301778793335,0,0,0,40000
935676,0.03392113000154495,-1.6602911949157715,-28.0,2671.0,-24.47811508178711,0.945410430431366,0,0,0,40000
935686,0.03458631411194801,-0.4304628074169159,-13.0,2625.0,-31.829458236694336,0.9403982162475586,0,30,0,40000
935696,0.02001224271953106,0.7303460836410522,-24.0,2390.0,-219.34498596191406,1.0272642374038696,0,30,0,40000
935706,0.009897543117403984,2.2420990467071533,0.0,2009.0,-229.365478515625,1.0876206159591675,0,30,0,40000
935716,0.005029305815696716,3.0517489910125732,-7.0,1499.0,-235.20550537109375,1.1166033744812012,0,30,0,40000
935726,0.006523060612380505,3.8592488765716553,-2.0,861.0,-241.0579833984375,1.1074405908584595,0,30,0,40000
935736,0.01595129258930683,4.0907301902771,35.0,141.0,-243.46719360351562,1.0505564212799072,0,30,0,40000
935746,0.03383245691657066,3.880812406539917,53.0,-735.0,-243.2285614013672,0.9425185918807983,0,30,0,40000
935756,0.05735187605023384,3.348883628845215,67.0,-1625.0,-241.04434204101562,0.799945056438446,0,30,0,40000
935766,0.10766211897134781,1.9039361476898193,61.0,-2586.0,-233.3511962890625,0.49543333053588867,0,30,0,40000
935776,0.14483094215393066,0.4934597611427307,81.0,-3590.0,-225.8206329345703,0.26853322982788086,0,30,0,40000
935786,0.2088359296321869,-2.3228564262390137,119.0,-4639.0,-209.78912353515625,-0.12090778350830078,0,30,0,40000
935796,0.260966420173645,-4.6630730628967285,130.0,-5505.0,-196.53646850585938,-0.44091176986694336,0,30,0,40000
935806,0.3538195788860321,-8.610198020935059,130.0,-5970.0,-173.54379272460938,-1.0075771808624268,0,30,0,40000
935816,0.4133691191673279,-11.381771087646484,70.0,-6144.0,-157.50625610351562,-1.376603364944458,0,30,0,40000
935826,0.48565781116485596,-15.540088653564453,86.0,-5979.0,-133.0396270751953,-1.8239619731903076,0,30,0,40000
935836,0.5375214219093323,-18.194698333740234,125.0,-5618.0,-117.49778747558594,-2.1505284309387207,0,30,0,40000
935846,0.6075427532196045,-21.829410552978516,112.0,-4975.0,-95.976806640625,-2.5880367755889893,0,30,0,40000
935856,0.648731529712677,-23.916730880737305,70.0,-4173.0,-83.65998840332031,-2.8541603088378906,0,30,0,40000
935866,0.7056024670600891,-26.451866149902344,11.0,-3223.0,-68.58396911621094,-3.216108798980713,0,30,0,40000
935876,0.7358928322792053,-27.67144775390625,1.0,-2081.0,-61.350341796875,-3.4195339679718018,0,30,0,40000
935886,0.7558842897415161,-28.685585021972656,34.0,-857.0,-55.31443786621094,-3.5619218349456787,0,30,0,40000
935896,0.7594664096832275,-28.772287368774414,-17.0,430.0,-54.831390380859375,-3.6061086654663086,0,30,0,40000
935906,0.7293599247932434,-28.116071701049805,-28.0,1462.0,-58.81503677368164,-3.4477694034576416,0,30,0,40000
935916,0.7179576754570007,-27.256696701049805,-17.0,2170.0,-64.04289245605469,-3.401062250137329,0,30,0,40000
935926,0.6787203550338745,-25.606595993041992,-87.0,2621.0,-74.05453491210938,-3.1865289211273193,0,30,0,40000
935936,0.6473822593688965,-24.359054565429688,-63.0,2823.0,-81.69392395019531,-3.0182971954345703,0,30,0,40000
935946,0.5774873495101929,-22.416410446166992,-85.0,2826.0,-93.55398559570312,-2.6171212196350098,0,30,0,40000
935956,0.5225239396095276,-21.162885665893555,-72.0,2672.0,-101.32527160644531,-2.3036861419677734,0,30,0,40000
935966,0.44054484367370605,-19.454471588134766,-122.0,2332.0,-111.8724136352539,-1.826141357421875,0,30,0,40000
935976,0.3827296793460846,-18.495563507080078,-121.0,1846.0,-117.95975494384766,-1.4914429187774658,0,30,0,40000
935986,0.29475337266921997,-17.410133361816406,-119.0,1295.0,-124.83824157714844,-0.9734760522842407,0,30,0,40000
935996,0.23553432524204254,-16.978008270263672,-112.0,560.0,-127.8168716430664,-0.6259273886680603,0,30,0,40000
936006,0.14359073340892792,-16.868635177612305,-147.0,-233.0,-128.8675079345703,-0.07973551750183105,0,30,0,40000
936016,0.0809149220585823,-17.180583953857422,-128.0,-1140.0,-127.38462829589844,0.29315322637557983,0,30,0,40000
936026,-0.009214328601956367,-18.292367935180664,-94.0,-2093.0,-121.0805435180664,0.83319491147995,0,30,0,40000
936036,-0.06415510922670364,-19.484434127807617,-72.0,-3086.0,-114.25845336914062,1.1641156673431396,0,30,0,40000
936046,-0.13900630176067352,-21.88135528564453,-79.0,-3855.0,-100.15087890625,1.616451621055603,0,30,0,40000
936056,-0.18991737067699432,-23.730777740478516,-51.0,-4197.0,-89.26481628417969,1.9270071983337402,0,30,0,40000
936066,-0.2664467990398407,-26.638566970825195,-64.0,-4237.0,-71.95390319824219,2.3933234214782715,0,30,0,40000
936076,-0.3150688111782074,-28.51755142211914,-43.0,-3955.0,-60.746856689453125,2.6939501762390137,0,30,0,40000
936086,-0.3880440890789032,-31.044458389282227,-48.0,-3419.0,-45.58323669433594,3.142634391784668,0,30,0,40000
936096,-0.4428609013557434,-32.45853042602539,-68.0,-2709.0,-37.0416259765625,3.484131097793579,0,30,0,40000
936106,-0.5269394516944885,-34.00672149658203,-64.0,-1771.0,-27.648834228515625,4.003459930419922,0,30,0,40000
936116,-0.568376362323761,-34.581451416015625,-84.0,-711.0,-24.069320678710938,4.268667221069336,0,30,0,40000
936126,-0.6432936787605286,-34.66178512573242,-65.0,498.0,-23.445770263671875,4.736635208129883,0,30,0,40000
936136,-0.6784793734550476,-34.19303894042969,-34.0,1502.0,-26.12627410888672,4.96765661239624,0,30,0,40000
936146,-0.7175005078315735,-32.929691314697266,-74.0,2147.0,-33.60194396972656,5.222720146179199,0,30,0,40000
936156,-0.732329249382019,-31.845130920410156,-58.0,2542.0,-40.040733337402344,5.333505153656006,0,30,0,40000
936166,-0.756852388381958,-30.05756187438965,-57.0,2666.0,-50.74271011352539,5.503098011016846,0,30,0,40000
