timestamp,stabilizer.roll,stabilizer.pitch,stateEstimateZ.rateRoll,stateEstimateZ.ratePitch,controller.pitchRate,controller.rollRate,roll,pitch,yawdot,thrust
751426,-42.14715576171875,67.15180206298828,2.0,3.0,-2.4174575805664062,254.40025329589844,0,0,0,40000
751436,-42.1314582824707,67.15438842773438,9.0,1.0,-4.432050704956055,255.57025146484375,0,0,0,40000
751446,-42.12640380859375,67.17017364501953,21.0,54.0,-6.446933746337891,256.8036804199219,0,0,0,40000
751456,-42.12601852416992,67.1921615600586,4.0,57.0,-8.462373733520508,258.0650634765625,0,0,0,40000
751466,-42.10417938232422,67.21205139160156,5.0,106.0,-10.47844123840332,259.197265625,0,0,0,40000
751476,-42.07803726196289,67.2576675415039,45.0,44.0,-12.495657920837402,260.30322265625,0,0,0,40000
751486,-42.03904342651367,67.30183410644531,34.0,75.0,-14.514150619506836,261.33087158203125,0,0,0,40000
751496,-41.988407135009766,67.38601684570312,32.0,107.0,-16.534595489501953,262.28741455078125,0,0,0,40000
751506,-41.9267463684082,67.45370483398438,95.0,117.0,-18.557369232177734,263.1758728027344,0,0,0,40000
751516,-41.770301818847656,67.55281066894531,121.0,32.0,-20.58285140991211,263.49267578125,0,0,0,40000
751526,-41.63650131225586,67.61927032470703,75.0,11.0,-22.610637664794922,263.9406433105469,0,0,0,40000
751536,-41.297855377197266,67.70747375488281,73.0,-14.0,-24.64082908630371,263.15203857421875,0,0,0,40000
751546,-40.97053527832031,67.76152801513672,182.0,-58.0,-26.672992706298828,262.42120361328125,0,0,0,40000
751556,-40.36172103881836,67.83699798583984,240.0,-104.0,-28.707212448120117,259.98687744140625,0,0,0,40000
751566,-39.91202163696289,67.89665222167969,224.0,-106.0,-30.743427276611328,258.4914245605469,0,0,0,40000
751576,-39.105289459228516,67.96442413330078,245.0,-156.0,-32.781654357910156,254.8339385986328,0,0,0,40000
751586,-38.481956481933594,68.00495910644531,374.0,-189.0,-34.82129669189453,252.25604248046875,0,0,0,40000
751596,-37.38112258911133,68.04863739013672,445.0,-278.0,-36.86225128173828,246.78627014160156,0,0,0,40000
751606,-36.5258674621582,68.0551986694336,423.0,-354.0,-38.9037971496582,242.76092529296875,0,0,0,40000
751616,-35.10292434692383,68.03363037109375,480.0,-406.0,-40.94518280029297,235.29376220703125,0,0,0,40000
751626,-33.996612548828125,67.99401092529297,615.0,-469.0,-42.98550033569336,229.6891326904297,0,0,0,40000
751636,-32.24509811401367,67.91902160644531,655.0,-517.0,-45.023956298828125,220.16903686523438,0,0,0,40000
751646,-30.992414474487305,67.85435485839844,675.0,-546.0,-47.060401916503906,213.597900390625,0,0,0,40000
751656,-29.007984161376953,67.7467041015625,706.0,-564.0,-49.09418487548828,202.58547973632812,0,0,0,40000
751666,-27.59058952331543,67.65596008300781,883.0,-608.0,-51.125,194.9259490966797,0,0,0,40000
751676,-25.37893295288086,67.48379516601562,982.0,-656.0,-53.151641845703125,182.44430541992188,0,0,0,40000
751686,-23.827421188354492,67.34449005126953,1003.0,-725.0,-55.173667907714844,173.86874389648438,0,0,0,40000
751696,-21.40393829345703,67.0997543334961,1042.0,-727.0,-57.18965148925781,159.99920654296875,0,0,0,40000
751706,-19.732685089111328,66.91096496582031,1201.0,-762.0,-59.19933319091797,150.5838165283203,0,0,0,40000
751716,-17.156301498413086,66.59300994873047,1299.0,-783.0,-60.0,135.6712188720703,0,0,0,40000
751726,-15.42001724243164,66.35794830322266,1316.0,-796.0,-60.0,125.73703002929688,0,0,0,40000
751736,-12.762633323669434,65.96049499511719,1402.0,-840.0,-60.0,110.20734405517578,0,0,0,40000
751746,-10.97018051147461,65.67041778564453,1526.0,-876.0,-60.0,99.80329895019531,0,0,0,40000
751756,-8.26517105102539,65.17256927490234,1606.0,-928.0,-60.0,83.85363006591797,0,0,0,40000
751766,-6.4639573097229,64.79961395263672,1634.0,-963.0,-60.0,73.26167297363281,0,0,0,40000
751776,-3.8085172176361084,64.18281555175781,1696.0,-1005.0,-60.0,57.47523498535156,0,0,0,40000
751786,-2.100954055786133,63.735660552978516,1774.0,-1017.0,-60.0,47.31341552734375,0,0,0,40000
751796,0.4083922505378723,63.03616714477539,1770.0,-1040.0,-60.0,32.27466583251953,0,0,0,40000
751806,2.015998363494873,62.56411361694336,1690.0,-1023.0,-60.0,22.587783813476562,0,0,0,40000
751816,4.306700229644775,61.849971771240234,1730.0,-1014.0,-60.0,8.7410888671875,0,0,0,40000
751826,5.773551940917969,61.357940673828125,1647.0,-1007.0,-60.0,-0.215850830078125,0,0,0,40000
751836,7.769829750061035,60.604942321777344,1559.0,-1012.0,-60.0,-12.402976989746094,0,0,0,40000
751846,9.003296852111816,60.10095977783203,1508.0,-996.0,-60.0,-20.05919647216797,0,0,0,40000
751856,10.717680931091309,59.35995101928711,1425.0,-948.0,-60.0,-30.64657211303711,0,0,0,40000
751866,11.70937728881836,58.87691879272461,1321.0,-901.0,-60.0,-36.936153411865234,0,0,0,40000
751876,13.057798385620117,58.17705535888672,1215.0,-886.0,-60.0,-45.403316497802734,0,0,0,40000
751886,13.848758697509766,57.73243713378906,1017.0,-855.0,-60.0,-50.55526351928711,0,0,0,40000
751896,14.830795288085938,57.08429718017578,888.0,-858.0,-60.0,-56.881412506103516,0,0,0,40000
751906,15.369043350219727,56.65244674682617,752.0,-855.0,-60.0,-60.565677642822266,0,0,0,40000
751916,15.943863868713379,56.023250579833984,550.0,-858.0,-60.0,-64.48643493652344,0,0,0,40000
751926,16.191530227661133,55.59373474121094,371.0,-899.0,-60.0,-66.45539855957031,0,0,0,40000
751936,16.352476119995117,54.934410095214844,182.0,-945.0,-60.0,-67.91024780273438,0,0,0,40000
751946,16.31537628173828,54.47868347167969,6.0,-969.0,-60.0,-68.1777114868164,0,0,0,40000
751956,16.095733642578125,53.80779266357422,-85.0,-998.0,-60.0,-67.34574127197266,0,0,0,40000
751966,15.830979347229004,53.36009216308594,-194.0,-1016.0,-60.0,-66.2354965209961,0,0,0,40000
751976,15.297722816467285,52.693992614746094,-278.0,-1061.0,-60.0,-63.50187301635742,0,0,0,40000
751986,14.847793579101562,52.263423919677734,-349.0,-1055.0,-60.0,-61.253238677978516,0,0,0,40000
751996,14.079655647277832,51.632179260253906,-361.0,-1013.0,-60.0,-57.076141357421875,0,0,0,40000
752006,13.48751449584961,51.23107147216797,-419.0,-994.0,-60.0,-53.93500518798828,0,0,0,40000
752016,12.523388862609863,50.6453857421875,-468.0,-976.0,-60.0,-48.53783416748047,0,0,0,40000
752026,11.830798149108887,50.28612518310547,-558.0,-927.0,-60.0,-44.674652099609375,0,0,0,40000
752036,11.09298324584961,49.93195724487305,-598.0,-947.0,-60.0,-40.5894660949707,0,0,0,40000
752046,9.952618598937988,49.391658782958984,-644.0,-929.0,-60.0,-34.05958938598633,0,0,0,40000
752056,9.159685134887695,49.03889846801758,-690.0,-893.0,-60.0,-29.58627700805664,0,0,0,40000
752066,7.941435813903809,48.505977630615234,-752.0,-924.0,-60.0,-22.529808044433594,0,0,0,40000
752076,7.120218276977539,48.126922607421875,-789.0,-938.0,-60.0,-17.826000213623047,0,0,0,40000
752086,5.849319934844971,47.536293029785156,-795.0,-965.0,-60.0,-10.39133071899414,0,0,0,40000
752096,5.0202317237854,47.12673568725586,-804.0,-1002.0,-60.0,-5.577312469482422,0,0,0,40000
752106,3.781126022338867,46.474945068359375,-810.0,-1024.0,-60.0,1.7291603088378906,0,0,0,40000
752116,2.9784820079803467,46.0258674621582,-810.0,-1079.0,-60.0,6.446022033691406,0,0,0,40000
752126,1.8195627927780151,45.30569076538086,-817.0,-1093.0,-60.0,13.331147193908691,0,0,0,40000
752136,1.079098105430603,44.812904357910156,-788.0,-1113.0,-60.0,17.73271369934082,0,0,0,40000
752146,0.05429043620824814,44.05477523803711,-779.0,-1106.0,-60.0,23.867826461791992,0,0,0,40000
752156,-0.5912569761276245,43.54484939575195,-700.0,-1103.0,-60.0,27.751220703125,0,0,0,40000
752166,-1.4575527906417847,42.786014556884766,-648.0,-1062.0,-60.0,32.98255920410156,0,0,0,40000
752176,-1.976849913597107,42.289039611816406,-602.0,-1066.0,-60.0,36.15153503417969,0,0,0,40000
752186,-2.645277261734009,41.57912063598633,-529.0,-1000.0,-60.0,40.23384094238281,0,0,0,40000
752196,-3.0110626220703125,41.12644958496094,-450.0,-962.0,-60.0,42.51459884643555,0,0,0,40000
752206,-3.4435195922851562,40.46428680419922,-341.0,-929.0,-60.0,45.207942962646484,0,0,0,40000
752216,-3.647937536239624,40.042564392089844,-212.0,-858.0,-60.0,46.54158020019531,0,0,0,40000
752226,-3.8263425827026367,39.45222854614258,-126.0,-819.0,-60.0,47.725067138671875,0,0,0,40000
752236,-3.865673065185547,39.084197998046875,-11.0,-749.0,-60.0,48.076576232910156,0,0,0,40000
752246,-3.7852425575256348,38.5661506652832,100.0,-751.0,-60.0,47.70893096923828,0,0,0,40000
752256,-3.6374456882476807,38.228755950927734,231.0,-744.0,-60.0,46.933143615722656,0,0,0,40000
752266,-3.304065465927124,37.71524429321289,339.0,-772.0,-60.0,45.03630065917969,0,0,0,40000
752276,-2.9925403594970703,37.375667572021484,461.0,-740.0,-60.0,43.26075744628906,0,0,0,40000
752286,-2.4233505725860596,36.85914611816406,574.0,-780.0,-60.0,39.92548370361328,0,0,0,40000
752296,-1.972334384918213,36.50764846801758,666.0,-791.0,-60.0,37.284027099609375,0,0,0,40000
752306,-1.2090198993682861,35.95915985107422,758.0,-801.0,-60.0,32.74986267089844,0,0,0,40000
752316,-0.6470792293548584,35.57876968383789,859.0,-838.0,-60.0,29.404455184936523,0,0,0,40000
752326,0.26614412665367126,35.011810302734375,940.0,-825.0,-60.0,23.928342819213867,0,0,0,40000
752336,0.9055579900741577,34.61289978027344,968.0,-894.0,-60.0,20.072378158569336,0,0,0,40000
752346,1.9087719917297363,33.98381805419922,1029.0,-910.0,-60.0,14.008069038391113,0,0,0,40000
752356,2.592047929763794,33.552947998046875,1098.0,-915.0,-60.0,9.83892822265625,0,0,0,40000
752366,3.637352705001831,32.88855743408203,1102.0,-936.0,-60.0,3.4705162048339844,0,0,0,40000
752376,4.316586017608643,32.426666259765625,1117.0,-953.0,-60.0,-0.7262649536132812,0,0,0,40000
752386,5.330999374389648,31.73193359375,1081.0,-914.0,-60.0,-6.960636138916016,0,0,0,40000
752396,5.980237007141113,31.286636352539062,1040.0,-906.0,-60.0,-11.02774429321289,0,0,0,40000
752406,6.894237518310547,30.631423950195312,977.0,-888.0,-60.0,-16.707679748535156,0,0,0,40000
752416,7.4716010093688965,30.19874382019043,971.0,-886.0,-60.0,-20.389102935791016,0,0,0,40000
752426,8.245523452758789,29.545490264892578,873.0,-878.0,-60.0,-25.270885467529297,0,0,0,40000
752436,8.712486267089844,29.10662841796875,759.0,-896.0,-60.0,-28.328567504882812,0,0,0,40000
752446,9.310065269470215,28.449695587158203,679.0,-899.0,-60.0,-32.18640899658203,0,0,0,40000
752456,9.644051551818848,28.013124465942383,558.0,-915.0,-60.0,-34.47570037841797,0,0,0,40000
752466,10.021953582763672,27.36423110961914,449.0,-908.0,-60.0,-37.039451599121094,0,0,0,40000
752476,10.193567276000977,26.941009521484375,325.0,-893.0,-60.0,-38.37294387817383,0,0,0,40000
752486,10.342276573181152,26.308734893798828,195.0,-899.0,-60.0,-39.57416534423828,0,0,0,40000
752496,10.36656379699707,25.899112701416016,18.0,-900.0,-60.0,-40.03075408935547,0,0,0,40000
752506,10.292040824890137,25.277122497558594,-111.0,-926.0,-60.0,-39.893646240234375,0,0,0,40000
752516,10.16813850402832,24.855194091796875,-250.0,-957.0,-60.0,-39.45683288574219,0,0,0,40000
752526,9.880884170532227,24.217390060424805,-339.0,-965.0,-60.0,-38.0333251953125,0,0,0,40000
752536,9.628067970275879,23.789020538330078,-438.0,-986.0,-60.0,-36.80835723876953,0,0,0,40000
752546,9.180495262145996,23.13895606994629,-515.0,-975.0,-60.0,-34.40386199951172,0,0,0,40000
752556,8.83803653717041,22.705320358276367,-636.0,-1029.0,-60.0,-32.61847686767578,0,0,0,40000
752566,8.27742862701416,22.03619956970215,-705.0,-1037.0,-60.0,-29.510112762451172,0,0,0,40000
752576,7.869978904724121,21.580060958862305,-755.0,-1067.0,-60.0,-27.306415557861328,0,0,0,40000
752586,7.228784084320068,20.88779067993164,-768.0,-1052.0,-60.0,-23.683765411376953,0,0,0,40000
752596,6.793578624725342,20.414796829223633,-743.0,-1078.0,-60.0,-21.281551361083984,0,0,0,40000
752606,6.151744365692139,19.70766830444336,-785.0,-1038.0,-60.0,-17.622833251953125,0,0,0,40000
752616,5.731553554534912,19.239477157592773,-792.0,-1026.0,-60.0,-15.278711318969727,0,0,0,40000
752626,5.118988513946533,18.573471069335938,-776.0,-977.0,-60.0,-11.764202117919922,0,0,0,40000
752636,4.729293346405029,18.14603042602539,-720.0,-942.0,-60.0,-9.572559356689453,0,0,0,40000
752646,4.181477069854736,17.506385803222656,-660.0,-948.0,-60.0,-6.417568206787109,0,0,0,40000
752656,3.8520686626434326,17.087934494018555,-623.0,-908.0,-60.0,-4.560596466064453,0,0,0,40000
752666,3.411416530609131,16.48000717163086,-527.0,-868.0,-60.0,-2.0240745544433594,0,0,0,40000
752676,3.1596457958221436,16.093521118164062,-469.0,-852.0,-60.0,-0.611236572265625,0,0,0,40000
752686,2.8459367752075195,15.520475387573242,-377.0,-829.0,-60.0,1.1820449829101562,0,0,0,40000
752696,2.685741901397705,15.139554023742676,-279.0,-840.0,-60.0,2.060802459716797,0,0,0,40000
752706,2.516505002975464,14.560745239257812,-171.0,-841.0,-60.0,2.9989967346191406,0,0,0,40000
752716,2.4438040256500244,14.177728652954102,-67.0,-867.0,-60.0,3.361093521118164,0,0,0,40000
752726,2.4096806049346924,13.58963680267334,28.0,-849.0,-60.0,3.493316650390625,0,0,0,40000
752736,2.430910587310791,13.199877738952637,66.0,-865.0,-60.0,3.2932519912719727,0,0,0,40000
752746,2.5246951580047607,12.595437049865723,162.0,-878.0,-60.0,2.6561546325683594,0,0,0,40000
752756,2.638347864151001,12.192353248596191,231.0,-884.0,-60.0,1.8965091705322266,0,0,0,40000
752766,2.823962926864624,11.556747436523438,328.0,-910.0,-60.0,0.7005157470703125,0,0,0,40000
752776,2.966099739074707,11.130160331726074,360.0,-910.0,-60.0,-0.23957061767578125,0,0,0,40000
752786,3.227480411529541,10.490406036376953,383.0,-944.0,-60.0,-1.9015121459960938,0,0,0,40000
752796,3.4202325344085693,10.0619478225708,412.0,-948.0,-60.0,-3.158355712890625,0,0,0,40000
752806,3.7145721912384033,9.407994270324707,405.0,-962.0,-60.0,-5.032312393188477,0,0,0,40000
752816,3.9066967964172363,8.963506698608398,410.0,-965.0,-60.0,-6.299924850463867,0,0,0,40000
752826,4.1890950202941895,8.294707298278809,428.0,-972.0,-60.0,-8.116525650024414,0,0,0,40000
752836,4.369478225708008,7.84775972366333,408.0,-981.0,-60.0,-9.327789306640625,0,0,0,40000
752846,4.626170635223389,7.175657272338867,348.0,-976.0,-60.0,-11.003860473632812,0,0,0,40000
752856,4.784416198730469,6.731685638427734,322.0,-973.0,-60.0,-12.094991683959961,0,0,0,40000
752866,5.000977993011475,6.073366165161133,317.0,-958.0,-60.0,-13.541824340820312,0,0,0,40000
752876,5.125058174133301,5.636198997497559,261.0,-944.0,-60.0,-14.438573837280273,0,0,0,40000
752886,5.278634548187256,4.995545864105225,215.0,-928.0,-60.0,-15.516633987426758,0,0,0,40000
752896,5.352929592132568,4.562323570251465,159.0,-953.0,-60.0,-16.12213134765625,0,0,0,40000
752906,5.43464469909668,3.906003475189209,84.0,-958.0,-60.0,-16.774654388427734,0,0,0,40000
752916,5.475997447967529,3.4562437534332275,50.0,-960.0,-60.0,-17.186555862426758,0,0,0,40000
752926,5.487502098083496,2.77001690864563,9.0,-1006.0,-60.0,-17.42009735107422,0,0,0,40000
752936,5.466098785400391,2.3021392822265625,-25.0,-1031.0,-60.0,-17.455896377563477,0,0,0,40000
752946,5.41489839553833,1.5913581848144531,-77.0,-1037.0,-60.0,-17.311851501464844,0,0,0,40000
752956,5.368483543395996,1.1098589897155762,-127.0,-1037.0,-60.0,-17.195026397705078,0,0,0,40000
752966,5.268463611602783,0.38621675968170166,-172.0,-1069.0,-60.0,-16.754302978515625,0,0,0,40000
752976,5.187562465667725,-0.11560520529747009,-183.0,-1096.0,-59.99861526489258,-16.42547607421875,0,0,0,40000
752986,5.050849914550781,-0.8693156242370605,-211.0,-1100.0,-59.98160934448242,-15.758403778076172,0,0,0,40000
752996,4.9465203285217285,-1.3800746202468872,-235.0,-1110.0,-59.94635009765625,-15.282097816467285,0,0,0,40000
753006,4.7762322425842285,-2.1476967334747314,-255.0,-1086.0,-59.89100646972656,-14.405755996704102,0,0,0,40000
753016,4.665946960449219,-2.641171932220459,-253.0,-1085.0,-59.81770706176758,-13.885379791259766,0,0,0,40000
753026,4.490401268005371,-3.3919308185577393,-256.0,-1085.0,-59.724945068359375,-12.968908309936523,0,0,0,40000
753036,4.378416061401367,-3.88724946975708,-254.0,-1055.0,-59.61426544189453,-12.429685592651367,0,0,0,40000
753046,4.206955432891846,-4.609897136688232,-247.0,-1023.0,-59.48456954956055,-11.52920150756836,0,0,0,40000
753056,4.095064640045166,-5.070457458496094,-228.0,-978.0,-59.33792495727539,-10.98202896118164,0,0,0,40000
753066,3.9367787837982178,-5.714959144592285,-225.0,-913.0,-59.17408752441406,-10.152275085449219,0,0,0,40000
753076,3.8366239070892334,-6.12443733215332,-209.0,-850.0,-58.99523162841797,-9.667652130126953,0,0,0,40000
753086,3.702078104019165,-6.701339244842529,-197.0,-834.0,-58.801109313964844,-8.973045349121094,0,0,0,40000
753096,3.6174144744873047,-7.09474515914917,-177.0,-854.0,-58.592994689941406,-8.574603080749512,0,0,0,40000
753106,3.508143424987793,-7.706943511962891,-143.0,-910.0,-58.36927795410156,-8.025461196899414,0,0,0,40000
753116,3.4428672790527344,-8.151511192321777,-132.0,-995.0,-58.130104064941406,-7.737845420837402,0,0,0,40000
753126,3.365103006362915,-8.854994773864746,-108.0,-1039.0,-57.87299346923828,-7.373072624206543,0,0,0,40000
753136,3.3226170539855957,-9.338441848754883,-87.0,-1056.0,-57.59865188598633,-7.218321800231934,0,0,0,40000
753146,3.2859127521514893,-10.061139106750488,-24.0,-1049.0,-57.305477142333984,-7.0969696044921875,0,0,0,40000
753156,3.2805473804473877,-10.53434944152832,-27.0,-1020.0,-56.99509048461914,-7.163250923156738,0,0,0,40000
753166,3.289067268371582,-11.21767520904541,-6.0,-1000.0,-56.66674041748047,-7.312955856323242,0,0,0,40000
753176,3.3056044578552246,-11.668408393859863,23.0,-985.0,-56.322086334228516,-7.511142730712891,0,0,0,40000
753186,3.3387675285339355,-12.353180885314941,36.0,-997.0,-55.95972442626953,-7.809833526611328,0,0,0,40000
753196,3.3692924976348877,-12.820269584655762,67.0,-1028.0,-55.58071517944336,-8.093667030334473,0,0,0,40000
753206,3.421534538269043,-13.535840034484863,70.0,-1039.0,-55.18324279785156,-8.509092330932617,0,0,0,40000
753216,3.451144218444824,-14.008040428161621,61.0,-1007.0,-54.76863098144531,-8.789936065673828,0,0,0,40000
753226,3.5014305114746094,-14.679248809814453,40.0,-966.0,-54.33626174926758,-9.196211814880371,0,0,0,40000
753236,3.5451488494873047,-15.10223388671875,46.0,-893.0,-53.88822555541992,-9.564352035522461,0,0,0,40000
753246,3.5856173038482666,-15.703097343444824,46.0,-859.0,-53.4243049621582,-9.914253234863281,0,0,0,40000
753256,3.6092967987060547,-16.08468246459961,40.0,-821.0,-52.946319580078125,-10.164297103881836,0,0,0,40000
753266,3.640591859817505,-16.640029907226562,36.0,-816.0,-52.45381164550781,-10.46103286743164,0,0,0,40000
753276,3.6523995399475098,-17.001768112182617,-25.0,-769.0,-51.948062896728516,-10.641342163085938,0,0,0,40000
753286,3.6645374298095703,-17.508426666259766,12.0,-740.0,-51.42884063720703,-10.823973655700684,0,0,0,40000
753296,3.6700778007507324,-17.85204315185547,-36.0,-767.0,-50.89742660522461,-10.967266082763672,0,0,0,40000
753306,3.656090497970581,-18.38279914855957,-16.0,-773.0,-50.352298736572266,-10.993270874023438,0,0,0,40000
753316,3.6379523277282715,-18.75044059753418,-76.0,-810.0,-49.79423904418945,-10.993831634521484,0,0,0,40000
753326,3.603726625442505,-19.29799461364746,-55.0,-799.0,-49.22187042236328,-10.897066116333008,0,0,0,40000
753336,3.5764498710632324,-19.67177391052246,-79.0,-808.0,-48.63622283935547,-10.84100341796875,0,0,0,40000
753346,3.524963617324829,-20.2225399017334,-60.0,-794.0,-48.036109924316406,-10.638435363769531,0,0,0,40000
753356,3.481520414352417,-20.5969181060791,-91.0,-811.0,-47.42267990112305,-10.482734680175781,0,0,0,40000
753366,3.422708511352539,-21.15239715576172,-102.0,-770.0,-46.794517517089844,-10.233243942260742,0,0,0,40000
753376,3.378025770187378,-21.5190486907959,-102.0,-782.0,-46.15333557128906,-10.067054748535156,0,0,0,40000
753386,3.308626651763916,-22.0540771484375,-108.0,-771.0,-45.49810791015625,-9.750809669494629,0,0,0,40000
753396,3.2625925540924072,-22.411230087280273,-74.0,-729.0,-44.83002471923828,-9.572994232177734,0,0,0,40000
753406,3.2036030292510986,-22.92244529724121,-92.0,-716.0,-44.148406982421875,-9.315963745117188,0,0,0,40000
753416,3.1617133617401123,-23.24663543701172,-71.0,-706.0,-43.454856872558594,-9.159933090209961,0,0,0,40000
753426,3.110806941986084,-23.7101993560791,-59.0,-649.0,-42.749000549316406,-8.948368072509766,0,0,0,40000
753436,3.0781056880950928,-23.998716354370117,-88.0,-594.0,-42.032470703125,-8.844926834106445,0,0,0,40000
753446,3.0382888317108154,-24.390409469604492,-53.0,-551.0,-41.30533218383789,-8.697598457336426,0,0,0,40000
753456,3.0146970748901367,-24.65172004699707,-54.0,-565.0,-40.56892395019531,-8.646787643432617,0,0,0,40000
753466,2.982691526412964,-25.039445877075195,-24.0,-550.0,-39.82233810424805,-8.54455852508545,0,0,0,40000
753476,2.955936908721924,-25.314592361450195,-60.0,-590.0,-39.066200256347656,-8.473069190979004,0,0,0,40000
753486,2.939558506011963,-25.727134704589844,-42.0,-606.0,-38.29936981201172,-8.463153839111328,0,0,0,40000
753496,2.9278011322021484,-26.010421752929688,1.0,-600.0,-37.522422790527344,-8.48050308227539,0,0,0,40000
753506,2.9186668395996094,-26.427213668823242,-23.0,-634.0,-36.73472595214844,-8.513505935668945,0,0,0,40000
753516,2.9067718982696533,-26.71785545349121,-37.0,-641.0,-35.936702728271484,-8.52950382232666,0,0,0,40000
753526,2.8904988765716553,-27.16939926147461,-56.0,-659.0,-35.12706756591797,-8.518821716308594,0,0,0,40000
753536,2.8988006114959717,-27.4650821685791,-1.0,-651.0,-34.30665588378906,-8.655458450317383,0,0,0,40000
753546,2.892024278640747,-27.91149139404297,-1.0,-644.0,-33.47468566894531,-8.70151138305664,0,0,0,40000
753556,2.875200033187866,-28.212427139282227,-13.0,-633.0,-32.631900787353516,-8.687028884887695,0,0,0,40000
753566,2.871562957763672,-28.498794555664062,-45.0,-589.0,-31.94963836669922,-8.734179496765137,0,0,0,40000
753576,2.846906900405884,-28.922935485839844,-82.0,-636.0,-30.913576126098633,-8.689170837402344,0,0,0,40000
753586,2.824364185333252,-29.216354370117188,-23.0,-605.0,-30.214136123657227,-8.621745109558105,0,0,0,40000
753596,2.7921245098114014,-29.619295120239258,-13.0,-562.0,-29.152542114257812,-8.529159545898438,0,0,0,40000
753606,2.766152858734131,-29.873563766479492,-33.0,-543.0,-28.437103271484375,-8.439901351928711,0,0,0,40000
753616,2.7454586029052734,-30.2511043548584,-3.0,-527.0,-27.352449417114258,-8.414803504943848,0,0,0,40000
753626,2.712418556213379,-30.499893188476562,-159.0,-550.0,-26.621938705444336,-8.281951904296875,0,0,0,40000
753636,2.6294703483581543,-30.850238800048828,-60.0,-460.0,-25.515329360961914,-7.879640579223633,0,0,0,40000
753646,2.5847840309143066,-31.05325698852539,-66.0,-425.0,-24.7712459564209,-7.673811435699463,0,0,0,40000
753656,2.516080379486084,-31.343799591064453,-63.0,-374.0,-23.64623260498047,-7.353132247924805,0,0,0,40000
753666,2.4666457176208496,-31.516260147094727,-95.0,-365.0,-22.89093017578125,-7.116030693054199,0,0,0,40000
753676,2.3968989849090576,-31.75139045715332,-85.0,-303.0,-21.750621795654297,-6.784783840179443,0,0,0,40000
753686,2.3354599475860596,-31.89275360107422,-106.0,-278.0,-20.986021041870117,-6.4725542068481445,0,0,0,40000
753696,2.2469608783721924,-32.07616424560547,-113.0,-227.0,-19.833351135253906,-6.023500919342041,0,0,0,40000
753706,2.1779918670654297,-32.186038970947266,-106.0,-224.0,-19.061546325683594,-5.662370681762695,0,0,0,40000
753716,2.085606336593628,-32.36870574951172,-95.0,-280.0,-17.89851951599121,-5.184387683868408,0,0,0,40000
753726,2.0220654010772705,-32.50102233886719,-100.0,-289.0,-17.11930274963379,-4.852062225341797,0,0,0,40000
753736,1.9340732097625732,-32.73195266723633,-126.0,-351.0,-15.94383430480957,-4.394743919372559,0,0,0,40000
753746,1.8649142980575562,-32.89552688598633,-79.0,-365.0,-15.155313491821289,-4.024906158447266,0,0,0,40000
753756,1.7743470668792725,-33.1604118347168,-83.0,-393.0,-13.964741706848145,-3.5464863777160645,0,0,0,40000
753766,1.6943840980529785,-33.344818115234375,-84.0,-375.0,-13.165586471557617,-3.1078763008117676,0,0,0,40000
753776,1.6042200326919556,-33.61418151855469,-110.0,-351.0,-12.16032886505127,-2.6161909103393555,0,0,0,40000
753786,1.5460034608840942,-33.75746536254883,-86.0,-275.0,-11.149283409118652,-2.3139920234680176,0,0,0,40000
753796,1.4661364555358887,-33.93553924560547,-99.0,-230.0,-10.133254051208496,-1.8795700073242188,0,0,0,40000
753806,1.4039698839187622,-34.03490447998047,-54.0,-221.0,-9.113363265991211,-1.5493993759155273,0,0,0,40000
753816,1.330862045288086,-34.18000030517578,-82.0,-201.0,-8.089658737182617,-1.151451587677002,0,0,0,40000
753826,1.2774556875228882,-34.265995025634766,-43.0,-170.0,-7.062678337097168,-0.8699932098388672,0,0,0,40000
753836,1.2075011730194092,-34.38743591308594,-64.0,-158.0,-6.032525062561035,-0.48745203018188477,0,0,0,40000
753846,1.1809406280517578,-34.46114730834961,-70.0,-156.0,-4.9995436668396,-0.36385345458984375,0,0,0,40000
753856,1.1346986293792725,-34.57673645019531,-58.0,-162.0,-3.9636483192443848,-0.12093782424926758,0,0,0,40000
753866,1.108724594116211,-34.64531707763672,-20.0,-142.0,-2.9251322746276855,0.0014090538024902344,0,0,0,40000
753876,1.0720152854919434,-34.738037109375,-22.0,-104.0,-1.8840417861938477,0.18918132781982422,0,0,0,40000
753886,1.0439399480819702,-34.7716178894043,-8.0,-50.0,-0.8412677049636841,0.32595300674438477,0,0,0,40000
753896,1.0318235158920288,-34.8029899597168,-3.0,-45.0,0.2024596929550171,0.36749935150146484,0,0,0,40000
753906,1.0236637592315674,-34.80525588989258,-12.0,31.0,1.246610164642334,0.3856229782104492,0,0,0,40000
753916,1.022213101387024,-34.770599365234375,-3.0,101.0,2.2902793884277344,0.3637533187866211,0,0,0,40000
753926,1.026934266090393,-34.705810546875,23.0,180.0,3.3322935104370117,0.3047337532043457,0,0,0,40000
753936,1.0303963422775269,-34.58173751831055,-7.0,201.0,4.371260166168213,0.25301551818847656,0,0,0,40000
753946,1.0298291444778442,-34.489253997802734,-15.0,205.0,5.407044410705566,0.22548913955688477,0,0,0,40000
753956,1.025208592414856,-34.3563232421875,0.0,166.0,6.439206123352051,0.2224750518798828,0,0,0,40000
753966,1.0289126634597778,-34.2962532043457,21.0,126.0,7.4687957763671875,0.1694188117980957,0,0,0,40000
753976,1.0207396745681763,-34.2210693359375,-16.0,113.0,8.49623966217041,0.18774032592773438,0,0,0,40000
753986,1.0196905136108398,-34.173030853271484,-15.0,109.0,9.522032737731934,0.163421630859375,0,0,0,40000
753996,1.0267736911773682,-34.09130096435547,-6.0,137.0,10.545806884765625,0.09037065505981445,0,0,0,40000
754006,1.027562141418457,-34.02610397338867,39.0,160.0,11.567383766174316,0.05480146408081055,0,0,0,40000
754016,1.0222245454788208,-33.91676712036133,-16.0,189.0,12.586179733276367,0.055939674377441406,0,0,0,40000
754026,1.039579153060913,-33.821929931640625,-6.0,199.0,13.601938247680664,-0.07915592193603516,0,0,0,40000
754036,1.0550048351287842,-33.67372512817383,25.0,220.0,14.613967895507812,-0.2031841278076172,0,0,0,40000
754046,1.065112590789795,-33.58316421508789,8.0,203.0,15.622489929199219,-0.29567527770996094,0,0,0,40000
754056,1.0679068565368652,-33.44063949584961,23.0,224.0,16.62748146057129,-0.34444427490234375,0,0,0,40000
754066,1.0781168937683105,-33.33774948120117,9.0,267.0,17.628864288330078,-0.43797826766967773,0,0,0,40000
754076,1.0818830728530884,-33.139732360839844,-3.0,298.0,18.62551498413086,-0.49304914474487305,0,0,0,40000
754086,1.0821675062179565,-32.99307632446289,5.0,335.0,19.61711311340332,-0.5272188186645508,0,0,0,40000
754096,1.0990021228790283,-32.7716064453125,19.0,338.0,20.602928161621094,-0.6608719825744629,0,0,0,40000
754106,1.0988496541976929,-32.60374069213867,0.0,372.0,21.58306121826172,-0.6929397583007812,0,0,0,40000
754116,1.1113203763961792,-32.34476852416992,-9.0,388.0,22.556507110595703,-0.8009858131408691,0,0,0,40000
754126,1.105470061302185,-32.149864196777344,24.0,458.0,23.52334976196289,-0.7991151809692383,0,0,0,40000
754136,1.1151725053787231,-31.838624954223633,0.0,480.0,24.482276916503906,-0.8908238410949707,0,0,0,40000
754146,1.123013973236084,-31.618553161621094,-13.0,468.0,25.433486938476562,-0.9714474678039551,0,0,0,40000
754156,1.116031289100647,-31.2961368560791,8.0,480.0,26.376304626464844,-0.9631633758544922,0,0,0,40000
754166,1.1110354661941528,-31.073360443115234,-7.0,486.0,27.311176300048828,-0.9665851593017578,0,0,0,40000
754176,1.1033538579940796,-30.758119583129883,-19.0,476.0,28.23768424987793,-0.9537229537963867,0,0,0,40000
754186,1.1032782793045044,-30.536710739135742,-17.0,459.0,29.156410217285156,-0.9863567352294922,0,0,0,40000
754196,1.0925148725509644,-30.21938705444336,-11.0,463.0,30.06682586669922,-0.9545502662658691,0,0,0,40000
754206,1.0782793760299683,-29.999935150146484,22.0,510.0,30.969486236572266,-0.9016618728637695,0,0,0,40000
754216,1.0580408573150635,-29.653249740600586,-27.0,528.0,31.863296508789062,-0.8122725486755371,0,0,0,40000
754226,1.0396533012390137,-29.407316207885742,-42.0,544.0,32.748512268066406,-0.7333364486694336,0,0,0,40000
754236,1.018890619277954,-29.02305030822754,-14.0,599.0,33.62397766113281,-0.639678955078125,0,0,0,40000
754246,1.0056103467941284,-28.750513076782227,-35.0,601.0,34.48976135253906,-0.5902810096740723,0,0,0,40000
754256,0.9870501160621643,-28.34363555908203,-19.0,591.0,35.344947814941406,-0.5087571144104004,0,0,0,40000
754266,0.9638962745666504,-28.08194923400879,-4.0,572.0,36.19053268432617,-0.3990354537963867,0,0,0,40000
754276,0.9461259245872498,-27.69087791442871,-19.0,582.0,37.02600860595703,-0.32097578048706055,0,0,0,40000
754286,0.929898202419281,-27.426755905151367,-38.0,589.0,37.851985931396484,-0.2517409324645996,0,0,0,40000
754296,0.8977013826370239,-27.015050888061523,-56.0,617.0,38.66749954223633,-0.08586502075195312,0,0,0,40000
754306,0.8785101175308228,-26.72665786743164,-5.0,652.0,39.47278594970703,0.0027322769165039062,0,0,0,40000
754316,0.8643283843994141,-26.277795791625977,-6.0,678.0,40.26655960083008,0.06166982650756836,0,0,0,40000
754326,0.8444165587425232,-25.963485717773438,-48.0,704.0,41.04924011230469,0.1555333137512207,0,0,0,40000
754336,0.8141081929206848,-25.468036651611328,-44.0,724.0,41.819252014160156,0.3125605583190918,0,0,0,40000
754346,0.7971384525299072,-25.145933151245117,-35.0,708.0,42.57748031616211,0.39031219482421875,0,0,0,40000
754356,0.7641925811767578,-24.65108871459961,-12.0,731.0,43.32297897338867,0.5647435188293457,0,0,0,40000
754366,0.737287163734436,-24.327499389648438,-33.0,726.0,44.056678771972656,0.703770637512207,0,0,0,40000
754376,0.7081363201141357,-23.82801055908203,-37.0,741.0,44.7775993347168,0.8570542335510254,0,0,0,40000
754386,0.6937514543533325,-23.491682052612305,-51.0,763.0,45.486385345458984,0.9223899841308594,0,0,0,40000
754396,0.6639217734336853,-22.97269058227539,-18.0,772.0,46.181800842285156,1.0810818672180176,0,0,0,40000
754406,0.6434863805770874,-22.61928939819336,-51.0,763.0,46.86461639404297,1.1841332912445068,0,0,0,40000
754416,0.6168308258056641,-22.08131217956543,-13.0,801.0,47.533599853515625,1.325282096862793,0,0,0,40000
754426,0.601040780544281,-21.71461296081543,-43.0,819.0,48.18944549560547,1.4017977714538574,0,0,0,40000
754436,0.5817792415618896,-21.15129280090332,-4.0,855.0,48.83087921142578,1.499786376953125,0,0,0,40000
754446,0.5710186958312988,-20.770658493041992,-19.0,823.0,49.458526611328125,1.5470952987670898,0,0,0,40000
754456,0.5579851865768433,-20.192617416381836,-13.0,841.0,50.07130432128906,1.60835862159729,0,0,0,40000
754466,0.5496950745582581,-19.807598114013672,-13.0,838.0,50.67015838623047,1.641526699066162,0,0,0,40000
754476,0.5553008913993835,-19.227550506591797,9.0,864.0,51.25401306152344,1.591355323791504,0,0,0,40000
754486,0.5585873126983643,-18.8257999420166,0.0,885.0,51.8235969543457,1.5549283027648926,0,0,0,40000
754496,0.5634565353393555,-18.22285270690918,1.0,895.0,52.37754821777344,1.5089125633239746,0,0,0,40000
754506,0.5615075826644897,-17.805952072143555,10.0,931.0,52.9167594909668,1.5037429332733154,0,0,0,40000
754516,0.5596902370452881,-17.164743423461914,-14.0,982.0,53.439544677734375,1.4977688789367676,0,0,0,40000
754526,0.571592390537262,-16.698156356811523,8.0,1040.0,53.946109771728516,1.4093236923217773,0,0,0,40000
754536,0.5799766778945923,-15.968891143798828,-17.0,1096.0,54.43402099609375,1.3417332172393799,0,0,0,40000
754546,0.579838216304779,-15.462240219116211,32.0,1123.0,54.90400314331055,1.3251795768737793,0,0,0,40000
754556,0.5847411155700684,-14.69266414642334,-9.0,1113.0,55.35392761230469,1.2782087326049805,0,0,0,40000
754566,0.5872935056686401,-14.195140838623047,6.0,1096.0,55.785736083984375,1.2453057765960693,0,0,0,40000
754576,0.5907683372497559,-13.489663124084473,-2.0,1001.0,56.198646545410156,1.206869125366211,0,0,0,40000
754586,0.5995293259620667,-13.046134948730469,19.0,964.0,56.5953369140625,1.1364364624023438,0,0,0,40000
754596,0.6036523580551147,-12.397910118103027,-15.0,943.0,56.97496032714844,1.0935990810394287,0,0,0,40000
754606,0.6062472462654114,-11.965563774108887,19.0,947.0,57.339134216308594,1.0598640441894531,0,0,0,40000
754616,0.6214098930358887,-11.319781303405762,15.0,945.0,57.68645095825195,0.9504070281982422,0,0,0,40000
754626,0.6310469508171082,-10.887948036193848,11.0,971.0,58.01829528808594,0.8737707138061523,0,0,0,40000
754636,0.6350129246711731,-10.21651554107666,20.0,992.0,58.332862854003906,0.8310346603393555,0,0,0,40000
754646,0.640475869178772,-9.763206481933594,13.0,1036.0,58.631229400634766,0.7791368961334229,0,0,0,40000
754656,0.6397659182548523,-9.049128532409668,-17.0,1049.0,58.91127014160156,0.7640876770019531,0,0,0,40000
754666,0.6421634554862976,-8.56171989440918,0.0,1099.0,59.173988342285156,0.7304916381835938,0,0,0,40000
754676,0.6455090641975403,-7.803032398223877,3.0,1130.0,59.417301177978516,0.6910457611083984,0,0,0,40000
754686,0.6494693756103516,-7.290678024291992,2.0,1126.0,59.64217758178711,0.6478548049926758,0,0,0,40000
754696,0.6472089886665344,-6.514744281768799,8.0,1124.0,59.84693145751953,0.6420078277587891,0,0,0,40000
754706,0.6507488489151001,-6.019489288330078,-2.0,1066.0,60.0,0.6012842655181885,0,0,0,40000
754716,0.6384903788566589,-5.311895847320557,-33.0,1029.0,60.0,0.6554288864135742,0,0,0,40000
754726,0.6314412355422974,-4.855040073394775,-21.0,996.0,60.0,0.6787126064300537,0,0,0,40000
754736,0.6139405965805054,-4.164222717285156,-21.0,1020.0,60.0,0.7651312351226807,0,0,0,40000
754746,0.5945809483528137,-3.7034354209899902,-36.0,1023.0,60.0,0.8632326126098633,0,0,0,40000
754756,0.5713702440261841,-2.991258382797241,-29.0,1053.0,60.0,0.9851028919219971,0,0,0,40000
754766,0.5551738142967224,-2.4843685626983643,-27.0,1131.0,60.0,1.065436840057373,0,0,0,40000
754776,0.5288958549499512,-1.6864335536956787,-37.0,1170.0,60.0,1.2068700790405273,0,0,0,40000
754786,0.5042456984519958,-1.1520658731460571,-54.0,1177.0,60.0,1.3393397331237793,0,0,0,40000
754796,0.4762876331806183,-0.337581604719162,-40.0,1186.0,60.0,1.4925148487091064,0,0,0,40000
754806,0.4550195634365082,0.1931871473789215,-40.0,1163.0,59.997676849365234,1.606213092803955,0,0,0,40000
754816,0.42313650250434875,0.9809996485710144,-47.0,1129.0,59.977630615234375,1.784425973892212,0,0,0,40000
754826,0.40518131852149963,1.4867509603500366,-37.0,1079.0,59.93903732299805,1.879798412322998,0,0,0,40000
754836,0.37067773938179016,2.200255870819092,-41.0,1033.0,59.88152313232422,2.0752780437469482,0,0,0,40000
754846,0.3492676615715027,2.647034168243408,-30.0,946.0,59.807395935058594,2.1930036544799805,0,0,0,40000
754856,0.322259783744812,3.292203903198242,-32.0,930.0,59.71635818481445,2.3450887203216553,0,0,0,40000
754866,0.3149024546146393,3.7116057872772217,-18.0,942.0,59.610042572021484,2.379685401916504,0,0,0,40000
754876,0.3050844669342041,4.350939750671387,-13.0,950.0,59.48723602294922,2.4293088912963867,0,0,0,40000
754886,0.30464619398117065,4.808097839355469,0.0,1031.0,59.3485221862793,2.42281436920166,0,0,0,40000
754896,0.30432137846946716,5.54398775100708,21.0,1113.0,59.19121551513672,2.4156947135925293,0,0,0,40000
754906,0.3028218150138855,6.070287704467773,0.0,1167.0,59.01545333862305,2.4155702590942383,0,0,0,40000
754916,0.30363020300865173,6.877435684204102,7.0,1174.0,58.81879806518555,2.4016737937927246,0,0,0,40000
754926,0.3076556622982025,7.408746242523193,11.0,1162.0,58.60287094116211,2.368342399597168,0,0,0,40000
754936,0.32116174697875977,8.186673164367676,14.0,1137.0,58.36659622192383,2.277787208557129,0,0,0,40000
754946,0.3297644555568695,8.686238288879395,28.0,1080.0,58.11199951171875,2.216409683227539,0,0,0,40000
754956,0.347809374332428,9.403945922851562,16.0,1032.0,57.83837890625,2.097883701324463,0,0,0,40000
754966,0.36253437399864197,9.86131477355957,50.0,1002.0,57.54800033569336,1.998854637145996,0,0,0,40000
754976,0.39549267292022705,10.54708194732666,48.0,997.0,57.239830017089844,1.7896530628204346,0,0,0,40000
754986,0.4174852967262268,11.00830364227295,39.0,1026.0,56.91514205932617,1.6454005241394043,0,0,0,40000
754996,0.4536696970462799,11.700525283813477,52.0,1030.0,56.57250213623047,1.4150900840759277,0,0,0,40000
755006,0.4787111282348633,12.1681547164917,39.0,1007.0,56.21305847167969,1.2507867813110352,0,0,0,40000
755016,0.5151256322860718,12.848527908325195,77.0,1000.0,55.83575439453125,1.01737380027771,0,0,0,40000
755026,0.5343132019042969,13.286996841430664,50.0,955.0,55.442378997802734,0.8864407539367676,0,0,0,40000
755036,0.5603395104408264,13.922126770019531,42.0,935.0,55.03230285644531,0.7136964797973633,0,0,0,40000
755046,0.5848209857940674,14.342283248901367,9.0,907.0,54.60706329345703,0.5495600700378418,0,0,0,40000
755056,0.5952576994895935,14.958345413208008,13.0,890.0,54.16563415527344,0.46918439865112305,0,0,0,40000
755066,0.6060320138931274,15.37867259979248,37.0,931.0,53.70934295654297,0.3865392208099365,0,0,0,40000
755076,0.6166996955871582,16.00787925720215,13.0,908.0,53.236549377441406,0.30412769317626953,0,0,0,40000
755086,0.6178746819496155,16.42055320739746,-12.0,913.0,52.748897552490234,0.27851080894470215,0,0,0,40000
755096,0.6102922558784485,17.01898956298828,-31.0,859.0,52.24538040161133,0.30550050735473633,0,0,0,40000
755106,0.5935657620429993,17.399620056152344,-12.0,827.0,51.72798156738281,0.38786768913269043,0,0,0,40000
755116,0.5753374695777893,17.963022232055664,-31.0,814.0,51.19580841064453,0.4797797203063965,0,0,0,40000
755126,0.5531706809997559,18.330917358398438,-15.0,821.0,50.65031433105469,0.595923900604248,0,0,0,40000
755136,0.5166734457015991,18.879053115844727,-77.0,792.0,50.09046936035156,0.7988448143005371,0,0,0,40000
755146,0.49243006110191345,19.239158630371094,-70.0,790.0,49.51761245727539,0.9291954040527344,0,0,0,40000
755156,0.4440544843673706,19.779951095581055,-68.0,795.0,48.93071746826172,1.2056000232696533,0,0,0,40000
755166,0.4138900339603424,20.141016006469727,-57.0,790.0,48.330814361572266,1.373823642730713,0,0,0,40000
755176,0.3657884895801544,20.67391014099121,-34.0,765.0,47.716941833496094,1.6510107517242432,0,0,0,40000
755186,0.33881324529647827,21.018632888793945,-45.0,745.0,47.09049987792969,1.8023648262023926,0,0,0,40000
755196,0.2983403503894806,21.531030654907227,-35.0,751.0,46.45075225830078,2.0357210636138916,0,0,0,40000
755206,0.2771892845630646,21.874147415161133,-80.0,736.0,45.79864501953125,2.154006004333496,0,0,0,40000
755216,0.24056528508663177,22.38313102722168,-56.0,753.0,45.13325119018555,2.3660502433776855,0,0,0,40000
755226,0.22374098002910614,22.72910499572754,-41.0,738.0,44.45552444458008,2.460141181945801,0,0,0,40000
755236,0.2117694765329361,23.23443031311035,18.0,737.0,43.764503479003906,2.5255746841430664,0,0,0,40000
755246,0.1893303096294403,23.557279586791992,-2.0,711.0,43.0616569519043,2.6542506217956543,0,0,0,40000
755256,0.18011288344860077,24.031963348388672,-15.0,695.0,42.34642791748047,2.704007625579834,0,0,0,40000
755266,0.1927531361579895,24.322124481201172,-10.0,613.0,41.62018585205078,2.622486114501953,0,0,0,40000
755276,0.21069473028182983,24.742904663085938,27.0,614.0,40.882957458496094,2.5088882446289062,0,0,0,40000
755286,0.22488805651664734,25.02330780029297,64.0,625.0,40.135650634765625,2.417203426361084,0,0,0,40000
755296,0.26908454298973083,25.447452545166016,47.0,638.0,39.37733840942383,2.1443676948547363,0,0,0,40000
755306,0.2860467731952667,25.747106552124023,30.0,675.0,38.608551025390625,2.034205675125122,0,0,0,40000
755316,0.3293667733669281,26.224130630493164,41.0,705.0,37.82759094238281,1.7649102210998535,0,0,0,40000
755326,0.353834331035614,26.5487060546875,36.0,737.0,37.035037994384766,1.6077852249145508,0,0,0,40000
755336,0.3769230544567108,27.05011558532715,41.0,746.0,36.22953796386719,1.4582014083862305,0,0,0,40000
755346,0.4024312198162079,27.385128021240234,42.0,746.0,35.412025451660156,1.2934257984161377,0,0,0,40000
755356,0.4351380467414856,27.88913917541504,33.0,739.0,34.58135223388672,1.0844910144805908,0,0,0,40000
755366,0.45417550206184387,28.218984603881836,29.0,698.0,33.73872756958008,0.9568688869476318,0,0,0,40000
755376,0.48728132247924805,28.680654525756836,38.0,665.0,32.88373947143555,0.7440214157104492,0,0,0,40000
755386,0.500379741191864,28.960952758789062,16.0,593.0,32.01823425292969,0.6505692005157471,0,0,0,40000
755396,0.5203564763069153,29.351083755493164,25.0,563.0,31.14228630065918,0.5153119564056396,0,0,0,40000
755406,0.5347626805305481,29.586240768432617,30.0,493.0,30.25752067565918,0.41301536560058594,0,0,0,40000
755416,0.5626358389854431,29.90645980834961,27.0,434.0,29.363971710205078,0.22916364669799805,0,0,0,40000
755426,0.5799872279167175,30.09006118774414,-2.0,375.0,28.463459014892578,0.10781097412109375,0,0,0,40000
755436,0.5737754702568054,30.326059341430664,-10.0,326.0,27.556406021118164,0.1277601718902588,0,0,0,40000
755446,0.5563168525695801,30.46409034729004,-24.0,310.0,26.644145965576172,0.2155909538269043,0,0,0,40000
755456,0.5226567983627319,30.676544189453125,-49.0,320.0,25.726428985595703,0.40149855613708496,0,0,0,40000
755466,0.4973525404930115,30.82319450378418,-10.0,320.0,24.803483963012695,0.5380744934082031,0,0,0,40000
755476,0.47087371349334717,31.06283950805664,-35.0,348.0,23.874483108520508,0.6825592517852783,0,0,0,40000
755486,0.4437650442123413,31.225343704223633,-57.0,367.0,22.939693450927734,0.8315398693084717,0,0,0,40000
755496,0.3966561257839203,31.495359420776367,-38.0,419.0,21.99820899963379,1.1016812324523926,0,0,0,40000
755506,0.37030214071273804,31.695144653320312,-63.0,441.0,21.049766540527344,1.248368501663208,0,0,0,40000
755516,0.3225302994251251,31.999820709228516,-59.0,467.0,20.093488693237305,1.5247399806976318,0,0,0,40000
755526,0.3005952537059784,32.215206146240234,-29.0,479.0,19.322925567626953,1.648874044418335,0,0,0,40000
755536,0.2649955451488495,32.434593200683594,-32.0,471.0,18.352516174316406,1.8540747165679932,0,0,0,40000
755546,0.23853982985019684,32.7456169128418,-43.0,461.0,17.373868942260742,2.005237102508545,0,0,0,40000
755556,0.21588696539402008,32.94873046875,-34.0,425.0,16.387847900390625,2.1344361305236816,0,0,0,40000
755566,0.19625288248062134,33.22428512573242,-26.0,363.0,15.394258499145508,2.246060848236084,0,0,0,40000
755576,0.17701825499534607,33.369041442871094,-13.0,293.0,14.394867897033691,2.3559482097625732,0,0,0,40000
755586,0.16284646093845367,33.53605651855469,27.0,204.0,13.390551567077637,2.435952663421631,0,0,0,40000
755596,0.17874786257743835,33.623905181884766,-5.0,213.0,12.382893562316895,2.335381031036377,0,0,0,40000
755606,0.1776021271944046,33.7454948425293,-7.0,187.0,11.371952056884766,2.3369266986846924,0,0,0,40000
755616,0.18387389183044434,33.82033157348633,0.0,107.0,10.358187675476074,2.2938215732574463,0,0,0,40000
755626,0.1684935837984085,33.87052536010742,-10.0,33.0,9.342531204223633,2.3809194564819336,0,0,0,40000
755636,0.16972674429416656,33.872196197509766,-13.0,-13.0,8.326358795166016,2.3684325218200684,0,0,0,40000
755646,0.16619856655597687,33.83409881591797,0.0,-53.0,7.310779571533203,2.3846800327301025,0,0,0,40000
755656,0.16872230172157288,33.80590057373047,14.0,-79.0,6.296268939971924,2.364518642425537,0,0,0,40000
755666,0.1752810925245285,33.768428802490234,26.0,-23.0,5.282884120941162,2.319936990737915,0,0,0,40000
755676,0.17978335916996002,33.75625991821289,-17.0,-21.0,4.270052909851074,2.2875380516052246,0,0,0,40000
755686,0.18200349807739258,33.73884582519531,-4.0,-23.0,3.257657051086426,2.2687582969665527,0,0,0,40000
755696,0.189629465341568,33.726497650146484,15.0,-15.0,2.2457094192504883,2.2174527645111084,0,0,0,40000
755706,0.2171819806098938,33.71134948730469,50.0,-15.0,1.234222650527954,2.0461301803588867,0,0,0,40000
755716,0.22835087776184082,33.70722961425781,45.0,-1.0,0.22297051548957825,1.972369909286499,0,0,0,40000
755726,0.24665714800357819,33.675106048583984,25.0,-60.0,-0.7878344058990479,1.8552645444869995,0,0,0,40000
755736,0.263977974653244,33.64532470703125,-7.0,-77.0,-1.7975687980651855,1.743584156036377,0,0,0,40000
755746,0.2793407440185547,33.583824157714844,31.0,-66.0,-2.8057868480682373,1.6432747840881348,0,0,0,40000
755756,0.3022977113723755,33.54526138305664,26.0,-72.0,-3.8126142024993896,1.4967412948608398,0,0,0,40000
755766,0.325287789106369,33.49321746826172,43.0,-92.0,-4.818024635314941,1.3494064807891846,0,0,0,40000
755776,0.33731842041015625,33.461395263671875,13.0,-85.0,-5.8222761154174805,1.2672035694122314,0,0,0,40000
755786,0.34831997752189636,33.380863189697266,-7.0,-120.0,-6.824707984924316,1.1907758712768555,0,0,0,40000
755796,0.3527754545211792,33.32222366333008,-8.0,-142.0,-7.825073719024658,1.1535415649414062,0,0,0,40000
755806,0.3510257601737976,33.217037200927734,10.0,-155.0,-8.822875022888184,1.1534886360168457,0,0,0,40000
755816,0.35159730911254883,33.137088775634766,-10.0,-180.0,-9.817960739135742,1.1395068168640137,0,0,0,40000
755826,0.3433910012245178,33.01210403442383,0.0,-182.0,-10.80978012084961,1.1783499717712402,0,0,0,40000
755836,0.3362330496311188,32.921878814697266,-34.0,-179.0,-11.798519134521484,1.211122989654541,0,0,0,40000
755846,0.3208516836166382,32.783084869384766,2.0,-201.0,-12.783711433410645,1.2936842441558838,0,0,0,40000
755856,0.31883397698402405,32.685359954833984,-2.0,-225.0,-13.765457153320312,1.29622483253479,0,0,0,40000
755866,0.3177173137664795,32.530452728271484,8.0,-208.0,-14.743215560913086,1.2933204174041748,0,0,0,40000
755876,0.3210332989692688,32.42036437988281,-4.0,-246.0,-15.717164039611816,1.263860821723938,0,0,0,40000
755886,0.31694087386131287,32.24419021606445,-12.0,-262.0,-16.686656951904297,1.2787814140319824,0,0,0,40000
755896,0.31457075476646423,32.115352630615234,2.0,-268.0,-17.65164566040039,1.2835288047790527,0,0,0,40000
755906,0.32879501581192017,31.923690795898438,7.0,-320.0,-18.611797332763672,1.1885558366775513,0,0,0,40000
755916,0.33080047369003296,31.769634246826172,6.0,-391.0,-19.566795349121094,1.166622519493103,0,0,0,40000
755926,0.33676663041114807,31.48874282836914,6.0,-437.0,-20.514951705932617,1.1207833290100098,0,0,0,40000
755936,0.3294976055622101,31.280263900756836,-1.0,-452.0,-21.45585823059082,1.1544153690338135,0,0,0,40000
755946,0.34237468242645264,30.95963478088379,15.0,-480.0,-22.38859748840332,1.0669727325439453,0,0,0,40000
755956,0.3483660817146301,30.745433807373047,-9.0,-461.0,-23.313499450683594,1.020632266998291,0,0,0,40000
755966,0.3592999577522278,30.415189743041992,4.0,-490.0,-24.230010986328125,0.9444646835327148,0,0,0,40000
755976,0.364871621131897,30.18816566467285,19.0,-517.0,-25.138395309448242,0.9001622200012207,0,0,0,40000
755986,0.3706026077270508,29.826976776123047,0.0,-537.0,-26.037580490112305,0.8547298908233643,0,0,0,40000
755996,0.379711389541626,29.56394386291504,5.0,-598.0,-26.92767906188965,0.7887682914733887,0,0,0,40000
756006,0.3959713578224182,29.14436912536621,-1.0,-639.0,-27.807157516479492,0.6795763969421387,0,0,0,40000
756016,0.4061906635761261,28.854990005493164,29.0,-643.0,-28.67629051208496,0.6062290668487549,0,0,0,40000
756026,0.42982277274131775,28.42244529724121,22.0,-621.0,-29.534048080444336,0.45192575454711914,0,0,0,40000
756036,0.442221999168396,28.143070220947266,37.0,-598.0,-30.381654739379883,0.36440277099609375,0,0,0,40000
756046,0.4521505534648895,27.741315841674805,0.0,-575.0,-31.21864128112793,0.2912909984588623,0,0,0,40000
756056,0.46777552366256714,27.489360809326172,20.0,-536.0,-32.04632568359375,0.18371033668518066,0,0,0,40000
756066,0.4834241271018982,27.1072998046875,2.0,-564.0,-32.86418914794922,0.07548880577087402,0,0,0,40000
756076,0.49762219190597534,26.852033615112305,15.0,-552.0,-33.67278289794922,-0.02444171905517578,0,0,0,40000
756086,0.5205955505371094,26.482336044311523,31.0,-556.0,-34.4716682434082,-0.17751002311706543,0,0,0,40000
756096,0.5432714223861694,26.226825714111328,35.0,-559.0,-35.26155090332031,-0.32955384254455566,0,0,0,40000
756106,0.5550554394721985,25.83380699157715,36.0,-571.0,-36.04130554199219,-0.4168376922607422,0,0,0,40000
756116,0.5662992000579834,25.562744140625,-11.0,-593.0,-36.811466217041016,-0.5012133121490479,0,0,0,40000
756126,0.5781938433647156,25.132049560546875,8.0,-636.0,-37.570735931396484,-0.5898239612579346,0,0,0,40000
756136,0.5879939198493958,24.82828712463379,24.0,-697.0,-38.31924819946289,-0.6661131381988525,0,0,0,40000
756146,0.6014615893363953,24.33820152282715,16.0,-750.0,-39.055381774902344,-0.7648015022277832,0,0,0,40000
756156,0.6031309962272644,23.984933853149414,19.0,-781.0,-39.779151916503906,-0.7928986549377441,0,0,0,40000
756166,0.6227216720581055,23.440235137939453,0.0,-788.0,-40.48893737792969,-0.9289379119873047,0,0,0,40000
756176,0.631726086139679,23.092037200927734,26.0,-767.0,-41.185882568359375,-1.0018115043640137,0,0,0,40000
756186,0.639052152633667,22.564851760864258,23.0,-757.0,-41.869140625,-1.0648837089538574,0,0,0,40000
756196,0.6501108407974243,22.222938537597656,36.0,-752.0,-42.53994369506836,-1.150590181350708,0,0,0,40000
756206,0.6780658960342407,21.693477630615234,38.0,-776.0,-43.19719314575195,-1.3383474349975586,0,0,0,40000
756216,0.6956441402435303,21.328262329101562,8.0,-794.0,-43.841434478759766,-1.4644765853881836,0,0,0,40000
756226,0.7039515376091003,20.78955078125,10.0,-779.0,-44.47157287597656,-1.535313606262207,0,0,0,40000
756236,0.7019668221473694,20.444669723510742,8.0,-711.0,-45.08898162841797,-1.5444912910461426,0,0,0,40000
756246,0.7151390910148621,19.964019775390625,-11.0,-694.0,-45.69366455078125,-1.6447668075561523,0,0,0,40000
756256,0.7182681560516357,19.64813804626465,19.0,-711.0,-46.28691864013672,-1.6850643157958984,0,0,0,40000
756266,0.7215284705162048,19.163497924804688,3.0,-717.0,-46.86770248413086,-1.726241111755371,0,0,0,40000
756276,0.7135355472564697,18.83186912536621,15.0,-733.0,-47.436622619628906,-1.6997723579406738,0,0,0,40000
756286,0.7140718698501587,18.32170867919922,-10.0,-767.0,-47.99246597290039,-1.724473237991333,0,0,0,40000
756296,0.716277003288269,17.95862579345703,8.0,-785.0,-48.53564453125,-1.7591753005981445,0,0,0,40000
756306,0.7195956707000732,17.402057647705078,-15.0,-836.0,-49.06454086303711,-1.8007292747497559,0,0,0,40000
756316,0.7235344648361206,17.010908126831055,14.0,-870.0,-49.57957458496094,-1.846003532409668,0,0,0,40000
756326,0.7166799902915955,16.411766052246094,-10.0,-897.0,-50.07919692993164,-1.8263874053955078,0,0,0,40000
756336,0.714384138584137,15.998636245727539,16.0,-874.0,-50.564109802246094,-1.8340773582458496,0,0,0,40000
756346,0.7265334725379944,15.39636516571045,14.0,-874.0,-51.033203125,-1.9285359382629395,0,0,0,40000
756356,0.7374525666236877,14.992365837097168,32.0,-878.0,-51.487823486328125,-2.0160374641418457,0,0,0,40000
756366,0.753397524356842,14.394566535949707,11.0,-864.0,-51.92680358886719,-2.1341171264648438,0,0,0,40000
756376,0.7647098302841187,13.983217239379883,27.0,-923.0,-52.35126495361328,-2.224799871444702,0,0,0,40000
756386,0.7845920324325562,13.362712860107422,38.0,-896.0,-52.75951385498047,-2.367351531982422,0,0,0,40000
756396,0.8099516034126282,12.950285911560059,67.0,-890.0,-53.15296173095703,-2.543487548828125,0,0,0,40000
756406,0.8538262844085693,12.33464527130127,70.0,-894.0,-53.530364990234375,-2.8318023681640625,0,0,0,40000
756416,0.888980507850647,11.914060592651367,73.0,-920.0,-53.89282989501953,-3.0689735412597656,0,0,0,40000
756426,0.9378437399864197,11.279685020446777,75.0,-929.0,-54.238868713378906,-3.3896868228912354,0,30,0,40000
756436,0.9791291952133179,10.867981910705566,84.0,-886.0,-55.28981018066406,-3.6662778854370117,0,30,0,40000
756446,1.0363824367523193,10.25635051727295,74.0,-894.0,-56.504852294921875,-4.040250778198242,0,30,0,40000
756456,1.0646131038665771,9.841019630432129,67.0,-913.0,-57.705078125,-4.241252899169922,0,30,0,40000
756466,1.1099426746368408,9.19346809387207,71.0,-961.0,-58.88877868652344,-4.546015739440918,0,30,0,40000
756476,1.1490072011947632,8.727596282958984,77.0,-1026.0,-60.0,-4.814396858215332,0,30,0,40000
756486,1.2155073881149292,7.985266208648682,96.0,-1112.0,-60.0,-5.249056339263916,0,30,0,40000
756496,1.25712251663208,7.467115879058838,77.0,-1143.0,-60.0,-5.535971164703369,0,30,0,40000
756506,1.3008804321289062,6.671844482421875,62.0,-1143.0,-60.0,-5.837114334106445,0,30,0,40000
756516,1.3157321214675903,6.13299560546875,48.0,-1159.0,-60.0,-5.965518951416016,0,30,0,40000
756526,1.3421907424926758,5.339422702789307,32.0,-1133.0,-60.0,-6.164261341094971,0,30,0,40000
756536,1.3608348369598389,4.835618019104004,36.0,-1094.0,-60.0,-6.316749572753906,0,30,0,40000
756546,1.380346417427063,4.100148677825928,39.0,-1026.0,-60.0,-6.475040435791016,0,30,0,40000
756556,1.383991003036499,3.632876396179199,24.0,-992.0,-60.0,-6.538370132446289,0,30,0,40000
756566,1.3926011323928833,2.9679107666015625,4.0,-957.0,-60.0,-6.63176155090332,0,30,0,40000
756576,1.3845360279083252,2.5325520038604736,-12.0,-953.0,-60.0,-6.625024795532227,0,30,0,40000
756586,1.372475266456604,1.8833473920822144,-22.0,-958.0,-60.0,-6.594048500061035,0,30,0,40000
756596,1.3694860935211182,1.4426219463348389,-18.0,-975.0,-60.0,-6.617264747619629,0,30,0,40000
756606,1.3484175205230713,0.7541530132293701,-34.0,-1007.0,-60.0,-6.531591415405273,0,30,0,40000
756616,1.3317886590957642,0.2785516083240509,-32.0,-1069.0,-60.0,-6.471980571746826,0,30,0,40000
756626,1.2902045249938965,-0.4918130934238434,-57.0,-1132.0,-60.0,-6.2616729736328125,0,30,0,40000
756636,1.2718786001205444,-1.020217776298523,-49.0,-1164.0,-60.0,-6.190132141113281,0,30,0,40000
756646,1.2350711822509766,-1.8350569009780884,-67.0,-1171.0,-60.0,-6.006901741027832,0,30,0,40000
756656,1.2106099128723145,-2.373502254486084,-55.0,-1161.0,-60.0,-5.896733283996582,0,30,0,40000
756666,1.1662250757217407,-3.1666245460510254,-61.0,-1142.0,-60.0,-5.665952682495117,0,30,0,40000
756676,1.141226053237915,-3.6836960315704346,-43.0,-1097.0,-60.0,-5.550477027893066,0,30,0,40000
756686,1.1149555444717407,-4.423218727111816,-38.0,-1068.0,-60.0,-5.426618576049805,0,30,0,40000
756696,1.0928318500518799,-4.900942325592041,-53.0,-1037.0,-60.0,-5.326944828033447,0,30,0,40000
756706,1.0650898218154907,-5.590093612670898,-44.0,-989.0,-60.0,-5.192765712738037,0,30,0,40000
756716,1.0530364513397217,-6.040007591247559,-15.0,-952.0,-60.0,-5.152169227600098,0,30,0,40000
756726,1.0306854248046875,-6.709826469421387,-28.0,-975.0,-60.0,-5.049248695373535,0,30,0,40000
756736,1.0181608200073242,-7.172476768493652,-2.0,-1024.0,-60.0,-5.004800796508789,0,30,0,40000
756746,1.0094727277755737,-7.890074253082275,-14.0,-1061.0,-60.0,-4.983098983764648,0,30,0,40000
756756,1.0059846639633179,-8.385265350341797,1.0,-1055.0,-60.0,-4.992367267608643,0,30,0,40000
756766,1.0102791786193848,-9.1025972366333,-2.0,-1041.0,-60.0,-5.048410415649414,0,30,0,40000
756776,1.0129406452178955,-9.569211959838867,8.0,-1002.0,-60.0,-5.094740867614746,0,30,0,40000
756786,1.0285422801971436,-10.24871826171875,20.0,-990.0,-60.0,-5.219012260437012,0,30,0,40000
756796,1.026502013206482,-10.704327583312988,20.0,-967.0,-60.0,-5.237585544586182,0,30,0,40000
756806,1.0399682521820068,-11.344265937805176,11.0,-912.0,-60.0,-5.349451541900635,0,30,0,40000
756816,1.0444910526275635,-11.757559776306152,14.0,-879.0,-60.0,-5.407881259918213,0,30,0,40000
756826,1.0523371696472168,-12.363554954528809,15.0,-881.0,-60.0,-5.486439228057861,0,30,0,40000
756836,1.0616132020950317,-12.780043601989746,13.0,-913.0,-60.0,-5.573844909667969,0,30,0,40000
756846,1.074113368988037,-13.431193351745605,13.0,-972.0,-60.0,-5.68099308013916,0,30,0,40000
756856,1.0780638456344604,-13.88898754119873,-17.0,-1023.0,-60.0,-5.7369794845581055,0,30,0,40000
756866,1.0702424049377441,-14.601729393005371,-6.0,-1043.0,-60.0,-5.722243309020996,0,30,0,40000
756876,1.0727781057357788,-15.075471878051758,1.0,-1030.0,-60.0,-5.769583702087402,0,30,0,40000
756886,1.0636940002441406,-15.791616439819336,1.0,-1053.0,-60.0,-5.747102737426758,0,30,0,40000
756896,1.0495885610580444,-16.26531982421875,-24.0,-1033.0,-60.0,-5.694143295288086,0,30,0,40000
756906,1.0277408361434937,-16.97595977783203,-32.0,-1041.0,-60.0,-5.594207286834717,0,30,0,40000
756916,1.0106127262115479,-17.437833786010742,-62.0,-1014.0,-60.0,-5.522000312805176,0,30,0,40000
756926,0.9740083813667297,-18.122438430786133,-54.0,-995.0,-60.0,-5.332064628601074,0,30,0,40000
756936,0.9374037384986877,-18.576622009277344,-58.0,-980.0,-60.0,-5.140989303588867,0,30,0,40000
756946,0.8940390944480896,-19.243959426879883,-64.0,-968.0,-60.0,-4.908199787139893,0,30,0,40000
756956,0.8537684082984924,-19.67860221862793,-75.0,-937.0,-60.0,-4.692687034606934,0,30,0,40000
756966,0.7929527759552002,-20.3188419342041,-96.0,-919.0,-60.0,-4.352408409118652,0,30,0,40000
756976,0.7514053583145142,-20.745603561401367,-93.0,-934.0,-60.0,-4.1261701583862305,0,30,0,40000
756986,0.6830540299415588,-21.402109146118164,-79.0,-957.0,-60.0,-3.7373123168945312,0,30,0,40000
756996,0.6392998695373535,-21.84419059753418,-79.0,-957.0,-60.0,-3.494476795196533,0,30,0,40000
757006,0.5529395937919617,-22.519296646118164,-92.0,-1000.0,-60.0,-2.993968963623047,0,30,0,40000
757016,0.4993557929992676,-22.974485397338867,-109.0,-1009.0,-60.0,-2.6881260871887207,0,30,0,40000
757026,0.42214933037757874,-23.679006576538086,-103.0,-1037.0,-60.0,-2.238496780395508,0,30,0,40000
757036,0.37197473645210266,-24.175907135009766,-98.0,-1093.0,-60.0,-1.949196219444275,0,30,0,40000
757046,0.3012387752532959,-24.929851531982422,-63.0,-1100.0,-60.0,-1.5345474481582642,0,30,0,40000
757056,0.2553415596485138,-25.43946075439453,-67.0,-1099.0,-60.0,-1.267356038093567,0,30,0,40000
757066,0.1824048012495041,-26.18792724609375,-72.0,-1091.0,-60.0,-0.8361393213272095,0,30,0,40000
757076,0.14180254936218262,-26.67633628845215,-61.0,-1046.0,-60.0,-0.5972318649291992,0,30,0,40000
757086,0.0849912092089653,-27.39923858642578,-52.0,-1053.0,-60.0,-0.25963321328163147,0,30,0,40000
757096,0.04614156484603882,-27.881025314331055,-49.0,-1050.0,-60.0,-0.028369784355163574,0,30,0,40000
757106,-0.01193548645824194,-28.596309661865234,-49.0,-1030.0,-60.0,0.3197893798351288,0,30,0,40000
757116,-0.04521084576845169,-29.06275177001953,-36.0,-1004.0,-60.0,0.52045077085495,0,30,0,40000
757126,-0.08061117678880692,-29.75522804260254,1.0,-1013.0,-60.0,0.7349274754524231,0,30,0,40000
757136,-0.1019359827041626,-30.218093872070312,-29.0,-1008.0,-59.997379302978516,0.8656504154205322,0,30,0,40000
757146,-0.12804877758026123,-30.907424926757812,-13.0,-1013.0,-59.97843933105469,1.0259140729904175,0,30,0,40000
757156,-0.1442471146583557,-31.3780574798584,-2.0,-1033.0,-59.94273376464844,1.1272342205047607,0,30,0,40000
757166,-0.1396201252937317,-32.082767486572266,-6.0,-1039.0,-59.88874053955078,1.103725790977478,0,30,0,40000
757176,-0.13763746619224548,-32.55282974243164,14.0,-1033.0,-59.81782150268555,1.0959961414337158,0,30,0,40000
757186,-0.1312054693698883,-33.274993896484375,9.0,-1074.0,-59.728363037109375,1.0615015029907227,0,30,0,40000
757196,-0.11915863305330276,-33.76217269897461,28.0,-1059.0,-59.6213493347168,0.9929367899894714,0,30,0,40000
757206,-0.09986734390258789,-34.48134231567383,13.0,-1049.0,-59.495582580566406,0.8802957534790039,0,30,0,40000
757216,-0.09243960678577423,-34.95944595336914,15.0,-1058.0,-59.3525505065918,0.8386325836181641,0,30,0,40000
757226,-0.09121532738208771,-35.690818786621094,13.0,-1060.0,-59.1905517578125,0.8340195417404175,0,30,0,40000
