timestamp,stabilizer.roll,stabilizer.pitch,stateEstimateZ.rateRoll,stateEstimateZ.ratePitch,controller.pitchRate,controller.rollRate,roll,pitch,yawdot,thrust
694541,-35.34756088256836,69.4811782836914,0.0,20.0,-836.2754516601562,213.35780334472656,0,0,0,40000
694551,-35.37180709838867,69.46692657470703,-27.0,-18.0,-838.188720703125,214.5641326904297,0,0,0,40000
694561,-35.38361740112305,69.44637298583984,-2.0,-6.0,-840.025634765625,215.69630432128906,0,0,0,40000
694571,-35.40798568725586,69.38525390625,-22.0,-91.0,-841.3746948242188,216.90464782714844,0,0,0,40000
694581,-35.360084533691406,69.30439758300781,-56.0,-244.0,-842.4845581054688,217.67852783203125,0,0,0,40000
694591,-35.00948715209961,69.03141784667969,0.0,-525.0,-841.2833862304688,216.63023376464844,0,0,0,40000
694601,-34.623512268066406,68.75238800048828,5.0,-826.0,-840.0011596679688,215.3581085205078,0,0,0,40000
694611,-33.625938415527344,68.10472106933594,-3.0,-1298.0,-834.2809448242188,210.39476013183594,0,0,0,40000
694621,-32.686981201171875,67.48045349121094,-22.0,-1829.0,-828.8218383789062,205.753173828125,0,0,0,40000
694631,-30.85893440246582,66.1978530883789,1.0,-2455.0,-815.4331665039062,195.73379516601562,0,0,0,40000
694641,-29.389266967773438,65.08190155029297,64.0,-3121.0,-804.0078735351562,187.81546020507812,0,0,0,40000
694651,-26.879343032836914,62.939964294433594,112.0,-3911.0,-780.2200927734375,173.59332275390625,0,0,0,40000
694661,-25.06704330444336,61.146881103515625,188.0,-4745.0,-760.5595092773438,163.49337768554688,0,0,0,40000
694671,-22.25885581970215,57.87570571899414,233.0,-5675.0,-723.0828857421875,147.34584045410156,0,0,0,40000
694681,-20.43011474609375,55.273582458496094,278.0,-6600.0,-693.5473022460938,137.00827026367188,0,0,0,40000
694691,-17.771211624145508,50.696868896484375,429.0,-7594.0,-640.204833984375,121.61962890625,0,0,0,40000
694701,-16.117189407348633,47.147132873535156,603.0,-8662.0,-599.065673828125,112.19871520996094,0,0,0,40000
694711,-13.769670486450195,41.09809494018555,754.0,-9675.0,-527.7850952148438,98.55401611328125,0,0,0,40000
694721,-12.297154426574707,36.591983795166016,961.0,-10605.0,-474.8641357421875,90.10529327392578,0,0,0,40000
694731,-10.262542724609375,29.270355224609375,1287.0,-11259.0,-387.9720764160156,78.22952270507812,0,0,0,40000
694741,-8.983501434326172,24.13320541381836,1658.0,-11638.0,-327.1120910644531,70.840087890625,0,0,0,40000
694751,-7.147507190704346,16.276248931884766,2028.0,-11635.0,-233.41119384765625,60.060577392578125,0,0,0,40000
694761,-5.972566604614258,11.09652042388916,2285.0,-11344.0,-171.64939880371094,53.2042236328125,0,0,0,40000
694771,-4.183639049530029,3.608274459838867,2520.0,-10730.0,-81.9871597290039,42.61766052246094,0,0,0,40000
694781,-2.968653678894043,-1.068023920059204,2670.0,-9892.0,-25.895172119140625,35.43140411376953,0,0,0,40000
694791,-1.1019859313964844,-7.428745269775391,2766.0,-8890.0,50.582149505615234,24.28716468811035,0,0,0,40000
694801,0.20121672749519348,-11.1863374710083,2828.0,-7735.0,95.96440887451172,16.47771453857422,0,0,0,40000
694811,2.2086546421051025,-15.921684265136719,2751.0,-6386.0,153.21246337890625,4.391094207763672,0,0,0,40000
694821,3.5602915287017822,-18.43289566040039,2566.0,-4941.0,183.8706512451172,-3.80938720703125,0,0,0,40000
694831,5.573533058166504,-21.12970733642578,2368.0,-3423.0,216.8373260498047,-16.03228187561035,0,0,0,40000
694841,6.871469020843506,-22.213594436645508,2245.0,-1863.0,230.49826049804688,-24.01047134399414,0,0,0,40000
694851,8.646868705749512,-22.718984603881836,2116.0,-217.0,237.24203491210938,-34.90129852294922,0,0,0,40000
694861,9.688526153564453,-22.310138702392578,1903.0,1405.0,233.01100158691406,-41.4295768737793,0,0,0,40000
694871,11.02016830444336,-20.588834762573242,1695.0,3065.0,212.99725341796875,-49.7349853515625,0,0,0,40000
694881,11.746552467346191,-18.713443756103516,1523.0,4674.0,191.07733154296875,-54.43722152709961,0,0,0,40000
694891,12.594013214111328,-14.92186450958252,1299.0,6075.0,146.07440185546875,-59.89043045043945,0,0,0,40000
694901,13.031617164611816,-11.88774299621582,1081.0,7101.0,110.05850219726562,-62.901912689208984,0,0,0,40000
694911,13.511956214904785,-6.787221908569336,863.0,7868.0,49.11852264404297,-66.18385314941406,0,0,0,40000
694921,13.743245124816895,-3.1419577598571777,606.0,8312.0,5.5135650634765625,-67.98117065429688,0,0,0,40000
694931,14.016225814819336,2.5068483352661133,280.0,8519.0,-62.27920913696289,-70.03672790527344,0,0,0,40000
694941,14.137381553649902,6.2978034019470215,-54.0,8525.0,-107.91412353515625,-71.18647003173828,0,0,0,40000
694951,14.251216888427734,11.904975891113281,-254.0,8329.0,-175.49046325683594,-72.29578399658203,0,0,0,40000
694961,14.268718719482422,15.517062187194824,-486.0,7960.0,-219.2578582763672,-72.82870483398438,0,0,0,40000
694971,14.220449447631836,20.62396812438965,-717.0,7412.0,-281.09930419921875,-72.96671295166016,0,0,0,40000
694981,14.08694839477539,23.774703979492188,-918.0,6748.0,-319.5839538574219,-72.59005737304688,0,0,0,40000
694991,13.735616683959961,27.98469352722168,-1076.0,5867.0,-370.8946533203125,-70.89894104003906,0,0,0,40000
695001,13.381731986999512,30.397708892822266,-1160.0,4927.0,-400.7343444824219,-69.18151092529297,0,0,0,40000
695011,12.933918952941895,32.48563766479492,-1240.0,3939.0,-437.71649169921875,-65.30744934082031,0,0,0,40000
695021,12.041403770446777,34.94508743286133,-1332.0,2859.0,-457.30126953125,-61.897789001464844,0,0,0,40000
695031,11.29477310180664,36.10791015625,-1375.0,1879.0,-472.11529541015625,-57.69378662109375,0,0,0,40000
695041,9.974738121032715,37.0991096496582,-1421.0,742.0,-485.1132507324219,-50.08932876586914,0,0,0,40000
695051,8.985428810119629,37.24300003051758,-1468.0,-405.0,-487.95611572265625,-44.43501663208008,0,0,0,40000
695061,7.365574836730957,36.66445541381836,-1493.0,-1593.0,-482.123046875,-34.95661926269531,0,0,0,40000
695071,6.232066631317139,35.73009490966797,-1527.0,-2766.0,-471.9945068359375,-28.356101989746094,0,0,0,40000
695081,4.519425392150879,33.49667739868164,-1574.0,-3949.0,-446.22784423828125,-18.23642349243164,0,0,0,40000
695091,3.40787410736084,31.455759048461914,-1644.0,-5141.0,-422.7056579589844,-11.682680130004883,0,0,0,40000
695101,1.817154884338379,27.575389862060547,-1680.0,-6287.0,-377.017578125,-2.211671829223633,0,0,0,40000
695111,0.8211684823036194,24.470050811767578,-1701.0,-7342.0,-340.5255126953125,3.7277703285217285,0,0,0,40000
695121,-0.5519770979881287,19.158979415893555,-1739.0,-8099.0,-277.432861328125,11.96705436706543,0,0,0,40000
695131,-1.3924826383590698,15.322824478149414,-1698.0,-8570.0,-231.90499877929688,17.04184341430664,0,0,0,40000
695141,-2.545973300933838,9.378911018371582,-1663.0,-8738.0,-160.93112182617188,24.025524139404297,0,0,0,40000
695151,-3.2644717693328857,5.402241230010986,-1570.0,-8636.0,-113.42076110839844,28.425872802734375,0,0,0,40000
695161,-4.273414134979248,-0.39432695508003235,-1403.0,-8277.0,-43.918914794921875,34.59587097167969,0,0,0,40000
695171,-4.902159690856934,-4.044384002685547,-1234.0,-7775.0,-0.0404510498046875,38.507896423339844,0,0,0,40000
695181,-5.762145519256592,-9.083196640014648,-1063.0,-7054.0,60.638954162597656,43.83049392700195,0,0,0,40000
695191,-6.268711566925049,-12.111553192138672,-805.0,-6231.0,97.30661010742188,47.051971435546875,0,0,0,40000
695201,-6.920145511627197,-16.026742935180664,-559.0,-5328.0,144.72467041015625,51.16084289550781,0,0,0,40000
695211,-7.270608901977539,-18.18758201599121,-392.0,-4270.0,171.17498779296875,53.47761917114258,0,0,0,40000
695221,-7.636085510253906,-20.685871124267578,-207.0,-3110.0,201.74757385253906,55.89552307128906,0,0,0,40000
695231,-7.763875961303711,-21.8264102935791,-54.0,-1928.0,216.0758056640625,56.893733978271484,0,0,0,40000
695241,-7.769182205200195,-22.68023109436035,134.0,-612.0,226.99472045898438,57.15925598144531,0,0,0,40000
695251,-7.632207870483398,-22.64933204650879,301.0,829.0,227.30453491210938,56.56821823120117,0,0,0,40000
695261,-7.246372699737549,-21.617578506469727,545.0,2292.0,215.58755493164062,54.47618865966797,0,0,0,40000
695271,-6.899479389190674,-20.259206771850586,729.0,3775.0,199.91200256347656,52.60615539550781,0,0,0,40000
695281,-6.189291477203369,-17.2705078125,826.0,5056.0,164.60433959960938,48.53938293457031,0,0,0,40000
695291,-5.628603458404541,-14.746305465698242,947.0,6113.0,134.78717041015625,45.3508186340332,0,0,0,40000
695301,-4.730734825134277,-10.352540016174316,1162.0,6833.0,82.42695617675781,40.116695404052734,0,0,0,40000
695311,-4.09018611907959,-7.144582271575928,1403.0,7294.0,44.18456268310547,36.40399932861328,0,0,0,40000
695321,-3.07627010345459,-2.071699380874634,1534.0,7529.0,-16.566455841064453,30.425146102905273,0,0,0,40000
695331,-2.368645429611206,1.377313256263733,1573.0,7581.0,-57.95448684692383,26.258913040161133,0,0,0,40000
695341,-1.2673652172088623,6.529315948486328,1623.0,7443.0,-119.91289520263672,19.702564239501953,0,0,0,40000
695351,-0.5033368468284607,9.870080947875977,1645.0,7164.0,-160.25823974609375,15.14272689819336,0,0,0,40000
695361,0.6582240462303162,14.624163627624512,1644.0,6753.0,-217.68980407714844,8.167730331420898,0,0,0,40000
695371,1.4434367418289185,17.57157325744629,1576.0,6187.0,-253.55079650878906,3.4225950241088867,0,0,0,40000
695381,2.629631519317627,21.557729721069336,1444.0,5484.0,-301.985107421875,-3.7592859268188477,0,0,0,40000
695391,3.4246838092803955,23.855484008789062,1307.0,4645.0,-330.2467346191406,-8.622864723205566,0,0,0,40000
695401,4.582056522369385,26.720659255981445,1220.0,3803.0,-365.39794921875,-15.690752983093262,0,0,0,40000
695411,5.320263862609863,28.218210220336914,1101.0,2877.0,-384.1976318359375,-20.270771026611328,0,0,0,40000
695421,6.3319292068481445,29.801162719726562,995.0,1911.0,-404.0702819824219,-26.518829345703125,0,0,0,40000
695431,6.926977157592773,30.405109405517578,864.0,869.0,-412.2231140136719,-30.289854049682617,0,0,0,40000
695441,7.677387237548828,30.583839416503906,764.0,-188.0,-415.2855529785156,-35.01419448852539,0,0,0,40000
695451,8.07178020477295,30.218006134033203,616.0,-1308.0,-411.8070983886719,-37.61811447143555,0,0,0,40000
695461,8.489137649536133,28.917264938354492,484.0,-2427.0,-397.0837097167969,-40.37250518798828,0,0,0,40000
695471,8.655680656433105,27.54171371459961,386.0,-3596.0,-381.42047119140625,-41.62947463989258,0,0,0,40000
695481,8.738775253295898,24.68464469909668,309.0,-4794.0,-347.9130554199219,-42.389583587646484,0,0,0,40000
695491,8.695420265197754,22.247570037841797,151.0,-5951.0,-319.3654479980469,-42.39095687866211,0,0,0,40000
695501,8.535540580749512,17.859817504882812,0.0,-6895.0,-267.3029479980469,-41.6900634765625,0,0,0,40000
695511,8.367297172546387,14.579289436340332,-170.0,-7522.0,-228.41366577148438,-40.93370056152344,0,0,0,40000
695521,8.046919822692871,9.36209774017334,-294.0,-7767.0,-166.15133666992188,-39.25677490234375,0,0,0,40000
695531,7.809639930725098,5.850943088531494,-437.0,-7684.0,-124.23511505126953,-38.07027816772461,0,0,0,40000
695541,7.419795989990234,0.737429678440094,-567.0,-7328.0,-62.95573425292969,-35.95860290527344,0,0,0,40000
695551,7.133261680603027,-2.458580255508423,-717.0,-6706.0,-24.567890167236328,-34.45688247680664,0,0,0,40000
695561,6.652002334594727,-6.746442794799805,-801.0,-5857.0,27.039169311523438,-31.774799346923828,0,0,0,40000
695571,6.276297092437744,-9.194741249084473,-879.0,-4852.0,56.665771484375,-29.71339225769043,0,0,0,40000
695581,5.681136131286621,-12.123443603515625,-916.0,-3681.0,92.14131164550781,-26.32025909423828,0,0,0,40000
695591,5.255762577056885,-13.535634994506836,-966.0,-2439.0,109.4773941040039,-23.930912017822266,0,0,0,40000
695601,4.572597503662109,-14.760492324829102,-1000.0,-1065.0,124.60685729980469,-19.97747802734375,0,0,0,40000
695611,4.092790603637695,-14.937265396118164,-987.0,407.0,127.17493438720703,-17.22713279724121,0,0,0,40000
695621,3.352285861968994,-14.17409896850586,-967.0,1851.0,118.45452117919922,-12.89353084564209,0,0,0,40000
695631,2.862753391265869,-13.029532432556152,-943.0,3123.0,105.12505340576172,-10.04808235168457,0,0,0,40000
695641,2.166018009185791,-10.556546211242676,-944.0,4084.0,75.79768371582031,-5.941017150878906,0,0,0,40000
695651,1.7206143140792847,-8.539179801940918,-937.0,4711.0,51.870018005371094,-3.325589179992676,0,0,0,40000
695661,1.097066044807434,-5.166229248046875,-863.0,5092.0,11.590896606445312,0.37552738189697266,0,0,0,40000
695671,0.7094486951828003,-2.8020026683807373,-774.0,5211.0,-16.66729736328125,2.67537784576416,0,0,0,40000
695681,0.19990119338035583,0.7568359375,-676.0,5161.0,-59.35343933105469,5.720794200897217,0,0,0,40000
695691,-0.10558754205703735,3.062279462814331,-623.0,4924.0,-87.08307647705078,7.553231239318848,0,0,0,40000
695701,-0.5092372894287109,6.31519079208374,-552.0,4558.0,-126.2692642211914,9.985664367675781,0,0,0,40000
695711,-0.7260631322860718,8.290369987487793,-424.0,4074.0,-150.1967010498047,11.305866241455078,0,0,0,40000
695721,-0.979356050491333,10.866081237792969,-280.0,3449.0,-181.40167236328125,12.85228157043457,0,0,0,40000
695731,-1.1047687530517578,12.277831077575684,-167.0,2719.0,-198.6944580078125,13.636482238769531,0,0,0,40000
695741,-1.2058743238449097,13.854231834411621,-69.0,1904.0,-218.009765625,14.278340339660645,0,0,0,40000
695751,-1.222690463066101,14.521825790405273,47.0,1008.0,-226.44900512695312,14.415803909301758,0,0,0,40000
695761,-1.1574039459228516,14.899066925048828,142.0,76.0,-231.42042541503906,14.059788703918457,0,0,0,40000
695771,-1.062475323677063,14.718132019042969,231.0,-871.0,-229.69342041015625,13.523275375366211,0,0,0,40000
695781,-0.8375174403190613,13.774724006652832,315.0,-1882.0,-218.79934692382812,12.201591491699219,0,0,0,40000
695791,-0.6427435278892517,12.658329963684082,435.0,-2941.0,-205.79635620117188,11.05471420288086,0,0,0,40000
695801,-0.2896524667739868,10.281096458435059,546.0,-3946.0,-177.608642578125,8.949366569519043,0,0,0,40000
695811,-0.03270719572901726,8.282118797302246,610.0,-4726.0,-153.89378356933594,7.411793231964111,0,0,0,40000
695821,0.3917214274406433,4.87853479385376,610.0,-5181.0,-113.23894500732422,4.858516693115234,0,0,0,40000
695831,0.6948304176330566,2.4598300457000732,653.0,-5322.0,-84.3174057006836,3.02266788482666,0,0,0,40000
695841,1.1584657430648804,-1.1298937797546387,685.0,-5177.0,-41.249481201171875,0.21175384521484375,0,0,0,40000
695851,1.4645459651947021,-3.382587432861328,668.0,-4732.0,-14.1424560546875,-1.664987564086914,0,0,0,40000
695861,1.9147510528564453,-6.356121063232422,644.0,-4070.0,21.696441650390625,-4.418307781219482,0,0,0,40000
695871,2.199291944503784,-7.967709064483643,588.0,-3173.0,41.25566864013672,-6.1881632804870605,0,0,0,40000
695881,2.614596128463745,-9.6984224319458,544.0,-2099.0,62.29681396484375,-8.753539085388184,0,0,0,40000
695891,2.8691112995147705,-10.31859016418457,498.0,-846.0,70.04163360595703,-10.363632202148438,0,0,0,40000
695901,3.187593936920166,-10.396060943603516,427.0,410.0,71.28508758544922,-12.366479873657227,0,0,0,40000
695911,3.363875389099121,-9.873010635375977,348.0,1594.0,65.31157684326172,-13.52305793762207,0,0,0,40000
695921,3.5866165161132812,-8.376652717590332,284.0,2524.0,47.626487731933594,-14.964656829833984,0,0,0,40000
695931,3.6992344856262207,-7.053709983825684,211.0,3099.0,31.978927612304688,-15.75004768371582,0,0,0,40000
695941,3.8211429119110107,-4.786003112792969,170.0,3432.0,4.9379119873046875,-16.594728469848633,0,0,0,40000
695951,3.868544340133667,-3.185739278793335,92.0,3526.0,-14.150432586669922,-16.994647979736328,0,0,0,40000
695961,3.899669885635376,-0.820123553276062,26.0,3388.0,-42.485191345214844,-17.29814338684082,0,0,0,40000
695971,3.8919289112091064,0.6433255672454834,-35.0,3097.0,-60.04850387573242,-17.368595123291016,0,0,0,40000
695981,3.8492236137390137,2.570549726486206,-96.0,2618.0,-83.23025512695312,-17.228473663330078,0,0,0,40000
695991,3.7888920307159424,3.6049139499664307,-159.0,2018.0,-95.73869323730469,-16.980937957763672,0,0,0,40000
696001,3.6565322875976562,4.702528476715088,-208.0,1326.0,-109.03948974609375,-16.298175811767578,0,0,0,40000
696011,3.5510544776916504,5.089887619018555,-242.0,548.0,-113.83626556396484,-15.773122787475586,0,0,0,40000
696021,3.3706560134887695,5.106716156005859,-275.0,-314.0,-114.19309997558594,-14.794124603271484,0,0,0,40000
696031,3.239098072052002,4.708647727966309,-298.0,-1247.0,-109.56280517578125,-14.103536605834961,0,0,0,40000
696041,3.02160906791687,3.4643361568450928,-294.0,-2172.0,-94.75191497802734,-12.891794204711914,0,0,0,40000
696051,2.8663182258605957,2.2543258666992188,-308.0,-2939.0,-80.3143539428711,-12.047887802124023,0,0,0,40000
696061,2.6460564136505127,0.009868382476270199,-314.0,-3451.0,-53.409122467041016,-10.80838680267334,0,0,0,40000
696071,2.5016415119171143,-1.638915777206421,-348.0,-3665.0,-33.594425201416016,-10.018762588500977,0,0,0,40000
696081,2.2781054973602295,-4.1516218185424805,-355.0,-3607.0,-3.347339630126953,-8.748653411865234,0,0,0,40000
696091,2.1341323852539062,-5.732571601867676,-309.0,-3281.0,15.777259826660156,-7.9505157470703125,0,0,0,40000
696101,1.921617031097412,-7.768520832061768,-296.0,-2737.0,40.41851043701172,-6.7355756759643555,0,0,0,40000
696111,1.76964271068573,-8.795692443847656,-308.0,-1928.0,52.996543884277344,-5.878670692443848,0,0,0,40000
696121,1.5521358251571655,-9.730280876159668,-355.0,-990.0,64.49432373046875,-4.623009204864502,0,0,0,40000
696131,1.406586766242981,-9.918042182922363,-316.0,7.0,67.04328918457031,-3.793651580810547,0,0,0,40000
696141,1.1952664852142334,-9.524253845214844,-270.0,943.0,62.6103630065918,-2.563936710357666,0,0,0,40000
696151,1.0466307401657104,-8.87013053894043,-228.0,1721.0,55.035240173339844,-1.705240249633789,0,0,0,40000
696161,0.873452365398407,-7.469568252563477,-239.0,2248.0,38.47044372558594,-0.6944913864135742,0,0,0,40000
696171,0.7720752954483032,-6.365537166595459,-223.0,2495.0,25.4263916015625,-0.11065292358398438,0,0,0,40000
696181,0.6605122685432434,-4.617883682250977,-183.0,2577.0,4.614158630371094,0.5375862121582031,0,0,0,40000
696191,0.6092407703399658,-3.469571113586426,-104.0,2440.0,-9.047809600830078,0.8263983726501465,0,0,0,40000
696201,0.5468994975090027,-1.9174740314483643,-33.0,2142.0,-27.597492218017578,1.1835389137268066,0,0,0,40000
696211,0.5220465660095215,-1.0514508485794067,-6.0,1719.0,-37.94807434082031,1.3167328834533691,0,0,0,40000
696221,0.5213665962219238,-0.08364804089069366,0.0,1206.0,-49.54869842529297,1.3051204681396484,0,0,0,40000
696231,0.5477175116539001,0.28449830412864685,16.0,532.0,-53.97096252441406,1.1308417320251465,0,0,0,40000
696241,0.5997782349586487,0.3481442928314209,79.0,-195.0,-54.74599075317383,0.8012142181396484,0,0,0,40000
696251,0.6624583005905151,0.047393593937158585,161.0,-957.0,-51.1424446105957,0.4061124324798584,0,0,0,40000
696261,0.7710000872612,-0.8964126110076904,209.0,-1631.0,-39.80261993408203,-0.26674461364746094,0,0,0,40000
696271,0.8458207249641418,-1.794990062713623,216.0,-2126.0,-28.97687339782715,-0.7401328086853027,0,0,0,40000
696281,0.9900778532028198,-3.3715615272521973,193.0,-2399.0,-9.97634506225586,-1.6337828636169434,0,0,0,40000
696291,1.1049011945724487,-4.483525276184082,204.0,-2413.0,3.488384246826172,-2.3545360565185547,0,0,0,40000
696301,1.2680073976516724,-6.066459655761719,223.0,-2203.0,22.647090911865234,-3.369152069091797,0,0,0,40000
696311,1.3758846521377563,-6.9610395431518555,280.0,-1754.0,33.580413818359375,-4.056274890899658,0,0,0,40000
696321,1.5330060720443726,-7.925130844116211,244.0,-1147.0,45.3770751953125,-5.0430827140808105,0,0,0,40000
696331,1.6337960958480835,-8.250821113586426,189.0,-445.0,49.529396057128906,-5.695684909820557,0,0,0,40000
696341,1.761517882347107,-8.282089233398438,150.0,234.0,50.15422821044922,-6.513510227203369,0,0,0,40000
696351,1.8406131267547607,-8.004596710205078,156.0,846.0,47.06816101074219,-7.04237174987793,0,0,0,40000
696361,1.9554798603057861,-7.204475402832031,151.0,1351.0,37.69348907470703,-7.788883209228516,0,0,0,40000
696371,2.014618158340454,-6.4940643310546875,145.0,1682.0,29.3720703125,-8.20339298248291,0,0,0,40000
696381,2.103182792663574,-5.291100978851318,143.0,1792.0,15.109848022460938,-8.796801567077637,0,0,0,40000
696391,2.14847469329834,-4.493678092956543,98.0,1678.0,5.685062408447266,-9.132503509521484,0,0,0,40000
696401,2.2129695415496826,-3.4548239707946777,78.0,1410.0,-6.665687561035156,-9.585187911987305,0,0,0,40000
696411,2.2588539123535156,-2.918485641479492,72.0,987.0,-13.007987976074219,-9.927713394165039,0,0,0,40000
696421,2.308091878890991,-2.464607000350952,83.0,461.0,-18.376277923583984,-10.291651725769043,0,0,0,40000
696431,2.3342888355255127,-2.4190802574157715,99.0,-132.0,-18.84978675842285,-10.518509864807129,0,0,0,40000
696441,2.3706541061401367,-2.7695984840393066,44.0,-727.0,-14.56595230102539,-10.8074951171875,0,0,0,40000
696451,2.384903907775879,-3.230340003967285,21.0,-1185.0,-8.945926666259766,-10.964405059814453,0,0,0,40000
696461,2.4070119857788086,-4.169393539428711,4.0,-1446.0,2.4360427856445312,-11.16907787322998,0,0,0,40000
696471,2.406501531600952,-4.867345333099365,-2.0,-1552.0,10.949047088623047,-11.238191604614258,0,0,0,40000
696481,2.387709617614746,-5.903323173522949,-8.0,-1457.0,23.545684814453125,-11.197208404541016,0,0,0,40000
696491,2.370142936706543,-6.510896682739258,-40.0,-1220.0,31.024749755859375,-11.163141250610352,0,0,0,40000
696501,2.3271243572235107,-7.197309970855713,-84.0,-842.0,39.470279693603516,-10.975484848022461,0,0,0,40000
696511,2.2826449871063232,-7.465953826904297,-118.0,-371.0,42.915000915527344,-10.777664184570312,0,0,0,40000
696521,2.201335906982422,-7.503092288970947,-126.0,141.0,43.58644104003906,-10.356817245483398,0,0,0,40000
696531,2.1475563049316406,-7.300694942474365,-130.0,595.0,41.37936782836914,-10.099206924438477,0,0,0,40000
696541,2.054104804992676,-6.748842716217041,-123.0,954.0,34.96702575683594,-9.601204872131348,0,0,0,40000
696551,1.9828418493270874,-6.264999866485596,-156.0,1143.0,29.354782104492188,-9.233989715576172,0,0,0,40000
696561,1.915910243988037,-5.723691463470459,-188.0,1221.0,22.999755859375,-8.878820419311523,0,0,0,40000
696571,1.792462706565857,-4.903018474578857,-176.0,1158.0,13.337932586669922,-8.204072952270508,0,0,0,40000
696581,1.7147849798202515,-4.396263599395752,-168.0,1037.0,7.3653717041015625,-7.779597759246826,0,0,0,40000
696591,1.5935752391815186,-3.7920894622802734,-162.0,713.0,0.2584381103515625,-7.11118745803833,0,0,0,40000
696601,1.5154982805252075,-3.537130832672119,-171.0,383.0,-2.7148513793945312,-6.67957878112793,0,0,0,40000
696611,1.400594711303711,-3.4245004653930664,-172.0,-77.0,-3.942729949951172,-6.041953086853027,0,0,0,40000
696621,1.3271613121032715,-3.5361006259918213,-161.0,-425.0,-2.519542694091797,-5.633636474609375,0,0,0,40000
696631,1.2232698202133179,-3.9452619552612305,-136.0,-769.0,2.5268287658691406,-5.055445194244385,0,0,0,40000
696641,1.161982536315918,-4.333011150360107,-135.0,-935.0,7.281379699707031,-4.715987682342529,0,0,0,40000
696651,1.0796535015106201,-5.009647846221924,-104.0,-969.0,15.573104858398438,-4.261833190917969,0,0,0,40000
696661,1.0310605764389038,-5.441650867462158,-68.0,-857.0,20.88520050048828,-3.995316743850708,0,0,0,40000
696671,0.9773913025856018,-5.976324081420898,-85.0,-661.0,27.51031494140625,-3.7091870307922363,0,0,0,40000
696681,0.9421100616455078,-6.229306221008301,-63.0,-410.0,30.69424819946289,-3.5203051567077637,0,0,0,40000
696691,0.9017818570137024,-6.393704891204834,-49.0,-40.0,32.89597702026367,-3.3112406730651855,0,0,0,40000
696701,0.880683422088623,-6.3567795753479,-29.0,218.0,32.60581588745117,-3.2059006690979004,0,0,0,40000
696711,0.8598480820655823,-6.1141743659973145,-22.0,519.0,29.91815185546875,-3.1120572090148926,0,0,0,40000
696721,0.849477231502533,-5.8433637619018555,-7.0,685.0,26.810367584228516,-3.070279598236084,0,0,0,40000
696731,0.845366895198822,-5.330589294433594,-7.0,791.0,20.855403900146484,-3.07611083984375,0,0,0,40000
696741,0.8463594317436218,-4.962803363800049,6.0,779.0,16.56328582763672,-3.1023435592651367,0,0,0,40000
696751,0.8517696261405945,-4.4229350090026855,-13.0,756.0,10.224021911621094,-3.160337209701538,0,0,0,40000
696761,0.8610318899154663,-4.122853755950928,7.0,577.0,6.750236511230469,-3.2415947914123535,0,0,0,40000
696771,0.8746772408485413,-3.789764642715454,34.0,386.0,2.8704566955566406,-3.349471092224121,0,0,0,40000
696781,0.8866273164749146,-3.6777257919311523,26.0,129.0,1.6375312805175781,-3.4476633071899414,0,0,0,40000
696791,0.9010265469551086,-3.6850311756134033,19.0,-146.0,1.8572158813476562,-3.566361904144287,0,0,0,40000
696801,0.9106727242469788,-3.7959396839141846,32.0,-319.0,3.2784576416015625,-3.6460323333740234,0,0,0,40000
696811,0.9340106844902039,-4.056875228881836,13.0,-447.0,6.527996063232422,-3.8138296604156494,0,0,0,40000
696821,0.947330892086029,-4.274338722229004,34.0,-481.0,9.263191223144531,-3.9219741821289062,0,0,0,40000
696831,0.9563670754432678,-4.611027240753174,15.0,-456.0,13.437835693359375,-4.004828929901123,0,0,0,40000
696841,0.9674177765846252,-4.815061569213867,20.0,-405.0,16.02825927734375,-4.100039482116699,0,0,0,40000
696851,0.97771817445755,-5.05601692199707,12.0,-273.0,19.068801879882812,-4.191059589385986,0,0,0,40000
696861,0.9887696504592896,-5.145016193389893,18.0,-91.0,20.290176391601562,-4.286895751953125,0,0,0,40000
696871,0.9953910112380981,-5.15194034576416,4.0,73.0,20.52804946899414,-4.356427192687988,0,0,0,40000
696881,1.000391960144043,-5.071925163269043,19.0,246.0,19.721080780029297,-4.416356086730957,0,0,0,40000
696891,1.010587215423584,-4.869058609008789,11.0,362.0,17.435443878173828,-4.507713794708252,0,0,0,40000
696901,1.0176361799240112,-4.679099082946777,12.0,437.0,15.29861831665039,-4.580459117889404,0,0,0,40000
696911,1.0259950160980225,-4.362109184265137,13.0,480.0,11.629528045654297,-4.661266326904297,0,0,0,40000
696921,1.0276439189910889,-4.154301643371582,28.0,452.0,9.262981414794922,-4.70194149017334,0,0,0,40000
696931,1.0353418588638306,-3.8704354763031006,-10.0,383.0,5.9759674072265625,-4.779241561889648,0,0,0,40000
696941,1.0333385467529297,-3.7239863872528076,-7.0,271.0,4.332008361816406,-4.798248291015625,0,0,0,40000
696951,1.0259572267532349,-3.586812734603882,-19.0,131.0,2.7948646545410156,-4.7848381996154785,0,0,0,40000
696961,1.018304705619812,-3.5719470977783203,-9.0,-24.0,2.7237281799316406,-4.769515514373779,0,0,0,40000
696971,1.0128886699676514,-3.6304924488067627,17.0,-142.0,3.534191131591797,-4.767366886138916,0,0,0,40000
696981,1.0073225498199463,-3.7197208404541016,-8.0,-225.0,4.715412139892578,-4.764278411865234,0,0,0,40000
696991,1.0099506378173828,-3.9036777019500732,-17.0,-290.0,7.037639617919922,-4.810314178466797,0,0,0,40000
697001,1.0118730068206787,-4.039613723754883,-6.0,-291.0,8.788433074951172,-4.8521728515625,0,0,0,40000
697011,1.01211416721344,-4.2292656898498535,9.0,-258.0,11.188915252685547,-4.883951187133789,0,0,0,40000
697021,1.016640067100525,-4.3266921043396,4.0,-148.0,12.486717224121094,-4.941543102264404,0,0,0,40000
697031,1.0146920680999756,-4.4017415046691895,5.0,-62.0,13.518665313720703,-4.960289478302002,0,0,0,40000
697041,1.0099142789840698,-4.415493965148926,-4.0,29.0,13.816028594970703,-4.961992263793945,0,0,0,40000
697051,1.0064502954483032,-4.360101222991943,-12.0,134.0,13.283012390136719,-4.971480846405029,0,0,0,40000
697061,1.0043838024139404,-4.282805919647217,-25.0,203.0,12.484935760498047,-4.989218711853027,0,0,0,40000
697071,0.9837944507598877,-4.1204609870910645,-5.0,284.0,10.662555694580078,-4.895338535308838,0,0,0,40000
697081,0.9779001474380493,-3.988348960876465,0.0,288.0,9.19845962524414,-4.889345169067383,0,0,0,40000
697091,0.9790506958961487,-3.797527313232422,1.0,265.0,7.024784088134766,-4.925636291503906,0,0,0,40000
697101,0.9753342270851135,-3.6822495460510254,-10.0,245.0,5.753284454345703,-4.932696342468262,0,0,0,40000
697111,0.9726433753967285,-3.5358805656433105,-23.0,171.0,4.104526519775391,-4.945818901062012,0,0,0,40000
697121,0.9713352918624878,-3.4825353622436523,-26.0,65.0,3.5694351196289062,-4.967110633850098,0,0,0,40000
697131,0.9579623341560364,-3.4665799140930176,-29.0,-16.0,3.48199462890625,-4.915805816650391,0,0,0,40000
697141,0.9475141167640686,-3.4880950450897217,-18.0,-72.0,3.8445281982421875,-4.881655693054199,0,0,0,40000
697151,0.9298539757728577,-3.5714685916900635,-9.0,-136.0,4.950984954833984,-4.803792953491211,0,0,0,40000
697161,0.9133103489875793,-3.65152645111084,-35.0,-191.0,6.020214080810547,-4.732163429260254,0,0,0,40000
697171,0.8885675668716431,-3.780583381652832,-42.0,-193.0,7.680767059326172,-4.610679626464844,0,0,0,40000
697181,0.8718271851539612,-3.876803398132324,-42.0,-210.0,8.95053482055664,-4.536601543426514,0,0,0,40000
697191,0.8297487497329712,-4.006531238555908,-66.0,-127.0,10.626121520996094,-4.30956506729126,0,0,0,40000
697201,0.8016341328620911,-4.051634311676025,-44.0,-49.0,11.288414001464844,-4.165242671966553,0,0,0,40000
697211,0.766965925693512,-4.068038463592529,-37.0,26.0,11.607292175292969,-3.980621576309204,0,0,0,40000
697221,0.7444124221801758,-4.0465474128723145,-56.0,99.0,11.471084594726562,-3.867915153503418,0,0,0,40000
697231,0.713379442691803,-3.962543249130249,-40.0,136.0,10.582950592041016,-3.7034687995910645,0,0,0,40000
697241,0.6928495764732361,-3.8839271068573,-62.0,204.0,9.757026672363281,-3.6013174057006836,0,0,0,40000
697251,0.6632615327835083,-3.721017360687256,-45.0,268.0,7.915840148925781,-3.444014549255371,0,0,0,40000
697261,0.6486405730247498,-3.5898003578186035,-10.0,296.0,6.4505157470703125,-3.375880241394043,0,0,0,40000
697271,0.6278064846992493,-3.406944751739502,-24.0,253.0,4.360576629638672,-3.2700140476226807,0,0,0,40000
697281,0.6131716966629028,-3.301395893096924,-38.0,199.0,3.194293975830078,-3.200791835784912,0,0,0,40000
697291,0.5872746109962463,-3.199061632156372,-45.0,98.0,2.0632896423339844,-3.0633506774902344,0,0,0,40000
697301,0.5650120377540588,-3.1717071533203125,-38.0,25.0,1.830474853515625,-2.946986436843872,0,0,0,40000
697311,0.5491987466812134,-3.185299873352051,-18.0,-57.0,2.0888023376464844,-2.8687169551849365,0,0,0,40000
697321,0.530674397945404,-3.2161684036254883,-22.0,-90.0,2.555309295654297,-2.773723602294922,0,0,0,40000
697331,0.5163171887397766,-3.2843923568725586,-27.0,-109.0,3.471698760986328,-2.703272581100464,0,0,0,40000
697341,0.502565324306488,-3.339111566543579,-19.0,-137.0,4.227809906005859,-2.6359918117523193,0,0,0,40000
697351,0.49263957142829895,-3.4363088607788086,-12.0,-135.0,5.496097564697266,-2.5913281440734863,0,0,0,40000
697361,0.48827794194221497,-3.495159149169922,-18.0,-119.0,6.306427001953125,-2.579883098602295,0,0,0,40000
697371,0.48014020919799805,-3.555600643157959,-23.0,-82.0,7.137725830078125,-2.54557728767395,0,0,0,40000
697381,0.4701094627380371,-3.5831613540649414,-24.0,-71.0,7.575641632080078,-2.499638557434082,0,0,0,40000
697391,0.453108012676239,-3.6259448528289795,-18.0,-35.0,8.197380065917969,-2.411440372467041,0,0,0,40000
697401,0.44640353322029114,-3.6423187255859375,-14.0,-33.0,8.502937316894531,-2.3846867084503174,0,0,0,40000
697411,0.42773276567459106,-3.659475326538086,-16.0,-7.0,8.818458557128906,-2.2856836318969727,0,0,0,40000
697421,0.41973456740379333,-3.655837297439575,-20.0,4.0,8.884529113769531,-2.250386953353882,0,0,0,40000
697431,0.4002102315425873,-3.6552789211273193,-28.0,18.0,8.987533569335938,-2.1455037593841553,0,0,0,40000
697441,0.3883936405181885,-3.6447267532348633,-34.0,56.0,8.970401763916016,-2.0864031314849854,0,0,0,40000
697451,0.37100979685783386,-3.6058406829833984,-44.0,78.0,8.612495422363281,-1.9934844970703125,0,0,0,40000
697461,0.3716534674167633,-3.563081979751587,-16.0,115.0,8.206844329833984,-2.00844669342041,0,0,0,40000
697471,0.3495192527770996,-3.4754228591918945,-9.0,167.0,7.260349273681641,-1.886385440826416,0,0,0,40000
697481,0.3400433361530304,-3.375994920730591,-19.0,227.0,6.169685363769531,-1.8398325443267822,0,0,0,40000
697491,0.3327905535697937,-3.2169015407562256,3.0,242.0,4.359050750732422,-1.806340217590332,0,0,0,40000
697501,0.33609533309936523,-3.1009795665740967,1.0,253.0,3.0624008178710938,-1.836220622062683,0,0,0,40000
697511,0.3396975100040436,-2.9387359619140625,-2.0,224.0,1.2055397033691406,-1.8680074214935303,0,0,0,40000
697521,0.3379901945590973,-2.8585565090179443,-6.0,150.0,0.330078125,-1.8679225444793701,0,0,0,40000
697531,0.33429524302482605,-2.795743465423584,8.0,56.0,-0.3392372131347656,-1.855773687362671,0,0,0,40000
697541,0.33305564522743225,-2.789438009262085,10.0,-31.0,-0.33123016357421875,-1.8583534955978394,0,0,0,40000
697551,0.3324125111103058,-2.842176914215088,1.0,-142.0,0.38600921630859375,-1.864471435546875,0,0,0,40000
697561,0.32801553606987,-2.9054110050201416,-9.0,-147.0,1.2312126159667969,-1.8479973077774048,0,0,0,40000
697571,0.33054059743881226,-3.0293936729431152,14.0,-179.0,2.8082542419433594,-1.8730031251907349,0,0,0,40000
697581,0.33494919538497925,-3.0941758155822754,14.0,-110.0,3.6777191162109375,-1.9094840288162231,0,0,0,40000
697591,0.33309876918792725,-3.1504690647125244,0.0,-50.0,4.447162628173828,-1.908463478088379,0,0,0,40000
697601,0.3415454924106598,-3.1519436836242676,-2.0,10.0,4.5594329833984375,-1.9693242311477661,0,0,0,40000
697611,0.3497328460216522,-3.1380786895751953,3.0,45.0,4.4874420166015625,-2.0288429260253906,0,0,0,40000
697621,0.35965192317962646,-3.106502056121826,11.0,76.0,4.202117919921875,-2.099027156829834,0,0,0,40000
697631,0.3695555329322815,-3.050234794616699,8.0,91.0,3.619140625,-2.1694211959838867,0,0,0,40000
697641,0.3812514841556549,-2.9976425170898438,19.0,91.0,3.0785865783691406,-2.2508835792541504,0,0,0,40000
697651,0.3939530551433563,-2.930614948272705,11.0,97.0,2.36297607421875,-2.3387868404388428,0,0,0,40000
697661,0.39699190855026245,-2.8873565196990967,10.0,83.0,1.9309577941894531,-2.368898391723633,0,0,0,40000
697671,0.4003218114376068,-2.832420825958252,11.0,89.0,1.3573532104492188,-2.400852680206299,0,0,0,40000
697681,0.40752509236335754,-2.803760051727295,29.0,66.0,1.0978813171386719,-2.4561805725097656,0,0,0,40000
697691,0.4175336956977844,-2.7910306453704834,-2.0,10.0,1.0288810729980469,-2.528714895248413,0,0,0,40000
697701,0.41292503476142883,-2.790418863296509,-13.0,-12.0,1.1052589416503906,-2.5135045051574707,0,0,0,40000
697711,0.4112247824668884,-2.8035542964935303,1.0,-16.0,1.3468017578125,-2.5156049728393555,0,0,0,40000
697721,0.40364131331443787,-2.8154382705688477,0.0,-19.0,1.5737342834472656,-2.482285976409912,0,0,0,40000
697731,0.3969278931617737,-2.817819118499756,-31.0,12.0,1.6868782043457031,-2.454023599624634,0,0,0,40000
697741,0.3716653287410736,-2.7995193004608154,-35.0,59.0,1.5515213012695312,-2.3138978481292725,0,0,0,40000
697751,0.33499419689178467,-2.768512487411499,-56.0,56.0,1.2628803253173828,-2.10439133644104,0,0,0,40000
697761,0.3088071346282959,-2.752309560775757,-67.0,18.0,1.1511688232421875,-1.9568653106689453,0,0,0,40000
697771,0.26196300983428955,-2.7486839294433594,-72.0,-6.0,1.1901054382324219,-1.6841987371444702,0,0,0,40000
697781,0.23265226185321808,-2.764425754547119,-75.0,-51.0,1.461709976196289,-1.5156757831573486,0,0,0,40000
697791,0.18213586509227753,-2.829129219055176,-71.0,-118.0,2.3220901489257812,-1.2186384201049805,0,0,0,40000
697801,0.14396902918815613,-2.88962459564209,-72.0,-138.0,3.133993148803711,-0.9944079518318176,0,0,0,40000
697811,0.08190673589706421,-2.9747397899627686,-99.0,-127.0,4.243585586547852,-0.6253092288970947,0,0,0,40000
697821,0.04431451857089996,-3.0197558403015137,-75.0,-91.0,4.873865127563477,-0.40151306986808777,0,0,0,40000
697831,-0.006681808270514011,-3.08156418800354,-73.0,-63.0,5.707305908203125,-0.09594965726137161,0,0,0,40000
697841,-0.03404767066240311,-3.1097910404205322,-65.0,-40.0,6.139020919799805,0.06892849504947662,0,0,0,40000
697851,-0.0805588811635971,-3.127303123474121,-87.0,11.0,6.442914962768555,0.34979677200317383,0,0,0,40000
697861,-0.10569209605455399,-3.0974576473236084,-49.0,83.0,6.178071975708008,0.5034734010696411,0,0,0,40000
697871,-0.12418293952941895,-2.985440731048584,-31.0,204.0,4.924976348876953,0.6179258823394775,0,0,0,40000
697881,-0.1352958083152771,-2.8775365352630615,-7.0,257.0,3.717792510986328,0.6885523796081543,0,0,0,40000
697891,-0.14553202688694,-2.7006208896636963,-10.0,264.0,1.6779136657714844,0.7541983723640442,0,0,0,40000
697901,-0.15183888375759125,-2.5808701515197754,7.0,237.0,0.3197593688964844,0.7965249419212341,0,0,0,40000
697911,-0.1472465842962265,-2.452275276184082,3.0,153.0,-1.1484794616699219,0.7734335660934448,0,0,0,40000
697921,-0.14294175803661346,-2.420358419418335,-10.0,45.0,-1.4585533142089844,0.7519128322601318,0,0,0,40000
697931,-0.1478373408317566,-2.4226019382476807,0.0,-27.0,-1.3591384887695312,0.7857133150100708,0,0,0,40000
697941,-0.16014358401298523,-2.4489903450012207,-29.0,-91.0,-0.9693546295166016,0.8641980290412903,0,0,0,40000
697951,-0.16873329877853394,-2.556759834289551,5.0,-182.0,0.39908409118652344,0.9207708835601807,0,0,0,40000
697961,-0.1722760945558548,-2.654628276824951,0.0,-194.0,1.6519603729248047,0.9471156597137451,0,0,0,40000
697971,-0.16947893798351288,-2.7871360778808594,1.0,-179.0,3.3240814208984375,0.935376763343811,0,0,0,40000
697981,-0.1613284796476364,-2.8763315677642822,-5.0,-177.0,4.479679107666016,0.8914108276367188,0,0,0,40000
697991,-0.16846376657485962,-2.9918224811553955,-8.0,-155.0,5.954010009765625,0.9392027854919434,0,0,0,40000
698001,-0.17695395648479462,-3.0384299755096436,-9.0,-73.0,6.603946685791016,0.9953588843345642,0,0,0,40000
698011,-0.1851724237203598,-3.0569469928741455,-13.0,-13.0,6.917778015136719,1.050121545791626,0,0,0,40000
698021,-0.18935419619083405,-3.0349748134613037,-9.0,96.0,6.74543571472168,1.0808372497558594,0,0,0,40000
698031,-0.18884404003620148,-2.9511756896972656,4.0,164.0,5.8296051025390625,1.0834277868270874,0,0,0,40000
698041,-0.1975254863500595,-2.856940507888794,-13.0,247.0,4.785642623901367,1.1413456201553345,0,0,0,40000
698051,-0.20051345229148865,-2.6838161945343018,6.0,276.0,2.790822982788086,1.1652963161468506,0,0,0,40000
698061,-0.20056767761707306,-2.543492078781128,-3.0,333.0,1.1849632263183594,1.1716233491897583,0,0,0,40000
698071,-0.19935813546180725,-2.3162567615509033,0.0,333.0,-1.4696521759033203,1.1703466176986694,0,0,0,40000
698081,-0.19760474562644958,-2.18371319770813,5.0,273.0,-2.9931182861328125,1.1657776832580566,0,0,0,40000
698091,-0.19320173561573029,-2.0415287017822266,9.0,169.0,-4.636600494384766,1.1452075242996216,0,0,0,40000
698101,-0.19216687977313995,-1.993217945098877,1.0,54.0,-5.1560211181640625,1.1447728872299194,0,0,0,40000
698111,-0.17799022793769836,-1.9851088523864746,28.0,-1.0,-5.193841934204102,1.0652774572372437,0,0,0,40000
698121,-0.1661089062690735,-2.0141894817352295,3.0,-88.0,-4.784870147705078,0.9990713596343994,0,0,0,40000
698131,-0.1573353409767151,-2.0901947021484375,8.0,-115.0,-3.8110389709472656,0.9512802958488464,0,0,0,40000
698141,-0.1540539413690567,-2.1497111320495605,15.0,-144.0,-3.033090591430664,0.93626469373703,0,0,0,40000
698151,-0.15634897351264954,-2.2612907886505127,-1.0,-183.0,-1.627706527709961,0.9547125101089478,0,0,0,40000
698161,-0.15346264839172363,-2.348463773727417,6.0,-178.0,-0.5122241973876953,0.9420443773269653,0,0,0,40000
698171,-0.15227310359477997,-2.4784703254699707,-2.0,-176.0,1.1206684112548828,0.9394549131393433,0,0,0,40000
698181,-0.14291921257972717,-2.55102276802063,15.0,-148.0,2.0669727325439453,0.8877497911453247,0,0,0,40000
698191,-0.14364728331565857,-2.642914295196533,9.0,-113.0,3.2479496002197266,0.8964580297470093,0,0,0,40000
698201,-0.14016319811344147,-2.673199415206909,8.0,-56.0,3.691213607788086,0.8798073530197144,0,0,0,40000
698211,-0.135355144739151,-2.690671682357788,13.0,3.0,3.9815406799316406,0.8550633192062378,0,0,0,40000
698221,-0.1301000863313675,-2.6767046451568604,2.0,78.0,3.8944454193115234,0.8274797797203064,0,0,0,40000
698231,-0.12707217037677765,-2.6023905277252197,0.0,125.0,3.0817317962646484,0.8131535053253174,0,0,0,40000
698241,-0.10879402607679367,-2.5319814682006836,37.0,154.0,2.313640594482422,0.7070061564445496,0,0,0,40000
698251,-0.0832054391503334,-2.4320709705352783,43.0,149.0,1.1888389587402344,0.5563188195228577,0,0,0,40000
698261,-0.0678313672542572,-2.3771276473999023,50.0,123.0,0.6014785766601562,0.46630412340164185,0,0,0,40000
698271,-0.03265424072742462,-2.306720495223999,47.0,92.0,-0.1734619140625,0.2566688656806946,0,0,0,40000
698281,-0.010417988523840904,-2.269686698913574,49.0,86.0,-0.5493450164794922,0.12381883710622787,0,0,0,40000
698291,0.028137769550085068,-2.2314372062683105,56.0,30.0,-0.9410591125488281,-0.10788187384605408,0,0,0,40000
698301,0.05486471205949783,-2.2340376377105713,60.0,-21.0,-0.8428993225097656,-0.26956796646118164,0,0,0,40000
698311,0.10361374914646149,-2.261953115463257,73.0,-36.0,-0.4403953552246094,-0.5645813345909119,0,0,0,40000
698321,0.1382635235786438,-2.291809558868408,64.0,-67.0,-0.013715744018554688,-0.7762224674224854,0,0,0,40000
698331,0.17389236390590668,-2.3409383296966553,52.0,-58.0,0.6455497741699219,-0.9948018789291382,0,0,0,40000
698341,0.19611507654190063,-2.372821569442749,43.0,-70.0,1.09893798828125,-1.1337597370147705,0,0,0,40000
698351,0.2255145162343979,-2.4232354164123535,33.0,-75.0,1.7759857177734375,-1.3166038990020752,0,0,0,40000
698361,0.24241206049919128,-2.462899923324585,45.0,-92.0,2.3253841400146484,-1.4250218868255615,0,0,0,40000
698371,0.2679932415485382,-2.5353176593780518,28.0,-104.0,3.269550323486328,-1.5862983465194702,0,0,0,40000
698381,0.279653936624527,-2.581162452697754,23.0,-86.0,3.896575927734375,-1.6645255088806152,0,0,0,40000
698391,0.2932230830192566,-2.6372463703155518,13.0,-56.0,4.648105621337891,-1.7546064853668213,0,0,0,40000
698401,0.2934618890285492,-2.6649937629699707,13.0,-20.0,5.060731887817383,-1.7648122310638428,0,0,0,40000
698411,0.30059173703193665,-2.6408843994140625,3.0,71.0,4.851173400878906,-1.8165488243103027,0,0,0,40000
698421,0.29716771841049194,-2.5886549949645996,-18.0,149.0,4.302772521972656,-1.804965853691101,0,0,0,40000
698431,0.2926371395587921,-2.4609575271606445,-17.0,198.0,2.8458404541015625,-1.7866414785385132,0,0,0,40000
698441,0.28705936670303345,-2.367039203643799,-11.0,208.0,1.7909717559814453,-1.7618376016616821,0,0,0,40000
698451,0.2740086317062378,-2.2510507106781006,-15.0,163.0,0.4679298400878906,-1.6918965578079224,0,0,0,40000
698461,0.26355329155921936,-2.1837997436523438,-31.0,127.0,-0.2727813720703125,-1.6372175216674805,0,0,0,40000
698471,0.23464104533195496,-2.1216342449188232,-52.0,63.0,-0.9545364379882812,-1.4711778163909912,0,0,0,40000
698481,0.21559742093086243,-2.110295057296753,-44.0,13.0,-1.0271625518798828,-1.363622784614563,0,0,0,40000
698491,0.17443683743476868,-2.157346248626709,-68.0,-100.0,-0.3986320495605469,-1.122450351715088,0,0,0,40000
698501,0.1476423442363739,-2.2189385890960693,-57.0,-158.0,0.40629005432128906,-0.9664182662963867,0,0,0,40000
698511,0.11473794281482697,-2.3022310733795166,-58.0,-197.0,1.4605388641357422,-0.7719526290893555,0,0,0,40000
698521,0.07130090892314911,-2.438441753387451,-69.0,-177.0,3.166637420654297,-0.5140069127082825,0,0,0,40000
698531,0.04181424528360367,-2.5119612216949463,-73.0,-153.0,4.123355865478516,-0.3387039601802826,0,0,0,40000
698541,0.0015132223488762975,-2.6008694171905518,-63.0,-110.0,5.267301559448242,-0.09733858704566956,0,0,0,40000
698551,-0.02637535333633423,-2.6290829181671143,-49.0,-15.0,5.684455871582031,0.07044878602027893,0,0,0,40000
698561,-0.06251223385334015,-2.6037561893463135,-46.0,88.0,5.4592132568359375,0.2887209951877594,0,0,0,40000
698571,-0.08851602673530579,-2.549405574798584,-36.0,157.0,4.884172439575195,0.4470840096473694,0,0,0,40000
698581,-0.11414013057947159,-2.418754816055298,-31.0,220.0,3.3906593322753906,0.6039612889289856,0,0,0,40000
698591,-0.13299445807933807,-2.3195266723632812,-27.0,249.0,2.2707366943359375,0.7208450436592102,0,0,0,40000
698601,-0.15152142941951752,-2.1563374996185303,-21.0,231.0,0.37906455993652344,0.8363251686096191,0,0,0,40000
698611,-0.16209912300109863,-2.0661227703094482,-14.0,182.0,-0.6404895782470703,0.9045333862304688,0,0,0,40000
698621,-0.167613223195076,-1.9581869840621948,7.0,153.0,-1.8757381439208984,0.9426400661468506,0,0,0,40000
698631,-0.16315960884094238,-1.9106439352035522,41.0,46.0,-2.3883724212646484,0.920904278755188,0,0,0,40000
698641,-0.1485232561826706,-1.9033409357070923,14.0,-35.0,-2.4189929962158203,0.8375864028930664,0,0,0,40000
698651,-0.14098699390888214,-1.940531849861145,0.0,-95.0,-1.9149436950683594,0.7966340184211731,0,0,0,40000
698661,-0.1279393583536148,-2.0409224033355713,28.0,-183.0,-0.6504383087158203,0.7224113941192627,0,0,0,40000
698671,-0.10371050238609314,-2.130449056625366,50.0,-220.0,0.4867076873779297,0.580460786819458,0,0,0,40000
698681,-0.06977368891239166,-2.2862954139709473,50.0,-223.0,2.423524856567383,0.37933021783828735,0,0,0,40000
698691,-0.05247744545340538,-2.3879361152648926,40.0,-223.0,3.7136363983154297,0.2773056924343109,0,0,0,40000
698701,-0.028533436357975006,-2.528566837310791,41.0,-199.0,5.475435256958008,0.13478289544582367,0,0,0,40000
698711,-0.009786312468349934,-2.6107113361358643,20.0,-144.0,6.538516998291016,0.022806920111179352,0,0,0,40000
698721,0.007512739859521389,-2.681856155395508,13.0,-55.0,7.472024917602539,-0.08101703971624374,0,0,0,40000
698731,0.014612795785069466,-2.679842948913574,9.0,47.0,7.528358459472656,-0.12395951896905899,0,0,0,40000
698741,0.011943234130740166,-2.6363613605499268,0.0,100.0,7.086376190185547,-0.10835900157690048,0,0,0,40000
698751,0.008058310486376286,-2.5896174907684326,-2.0,109.0,6.60371208190918,-0.08534988760948181,0,0,0,40000
698761,0.0025828988291323185,-2.49662709236145,-2.0,144.0,5.563920974731445,-0.052649885416030884,0,0,0,40000
698771,-0.0025303694419562817,-2.413546085357666,10.0,245.0,4.640373229980469,-0.021927181631326675,0,0,0,40000
698781,0.0033747032284736633,-2.2464823722839355,-21.0,245.0,2.705049514770508,-0.05746597796678543,0,0,0,40000
698791,-0.01607327349483967,-2.1369900703430176,-38.0,247.0,1.4565753936767578,0.059461984783411026,0,0,0,40000
698801,-0.04338228330016136,-1.9812484979629517,-27.0,219.0,-0.3510551452636719,0.22429466247558594,0,0,0,40000
698811,-0.056864652782678604,-1.8829632997512817,-25.0,187.0,-1.4728240966796875,0.3067142367362976,0,0,0,40000
698821,-0.08156727254390717,-1.793826699256897,-38.0,92.0,-2.4877662658691406,0.4570696949958801,0,0,0,40000
698831,-0.09901115298271179,-1.7804564237594604,-38.0,-4.0,-2.5946807861328125,0.564495861530304,0,0,0,40000
698841,-0.11672350019216537,-1.829456090927124,-23.0,-107.0,-1.9526729583740234,0.6741140484809875,0,0,0,40000
698851,-0.1273045688867569,-1.8968158960342407,-22.0,-199.0,-1.0883197784423828,0.7412968277931213,0,0,0,40000
698861,-0.14755411446094513,-2.0611166954040527,-38.0,-276.0,0.9429836273193359,0.8669453263282776,0,0,0,40000
698871,-0.1636945903301239,-2.1934125423431396,-7.0,-276.0,2.5947322845458984,0.9685083627700806,0,0,0,40000
698881,-0.17935466766357422,-2.371199607849121,-44.0,-220.0,4.797311782836914,1.0675690174102783,0,0,0,40000
698891,-0.18859271705150604,-2.4560861587524414,-7.0,-147.0,5.8886871337890625,1.1285912990570068,0,0,0,40000
698901,-0.1937180906534195,-2.522616386413574,-11.0,-27.0,6.76222038269043,1.1650983095169067,0,0,0,40000
698911,-0.19136495888233185,-2.5017175674438477,-12.0,104.0,6.586835861206055,1.156752109527588,0,0,0,40000
698921,-0.19808050990104675,-2.393967390060425,-6.0,216.0,5.367214202880859,1.2029130458831787,0,0,0,40000
698931,-0.20185953378677368,-2.2755846977233887,-20.0,263.0,4.016340255737305,1.231585144996643,0,0,0,40000
698941,-0.20917803049087524,-2.10044002532959,-14.0,260.0,1.9796905517578125,1.2816797494888306,0,0,0,40000
698951,-0.21462135016918182,-1.993875503540039,3.0,204.0,0.7619857788085938,1.3207494020462036,0,0,0,40000
698961,-0.2119523584842682,-1.8763905763626099,-2.0,141.0,-0.5902843475341797,1.311104416847229,0,0,0,40000
698971,-0.2156035602092743,-1.8383142948150635,10.0,37.0,-0.9916553497314453,1.3394477367401123,0,0,0,40000
698981,-0.20667806267738342,-1.8293540477752686,0.0,8.0,-1.0442562103271484,1.292197823524475,0,0,0,40000
698991,-0.20610949397087097,-1.842331886291504,-1.0,-67.0,-0.8334236145019531,1.2949632406234741,0,0,0,40000
699001,-0.20698584616184235,-1.8923696279525757,-9.0,-96.0,-0.17688941955566406,1.3064240217208862,0,0,0,40000
699011,-0.2144160121679306,-1.9482059478759766,7.0,-131.0,0.5509128570556641,1.3573651313781738,0,0,0,40000
699021,-0.22044751048088074,-2.0461509227752686,-12.0,-138.0,1.786458969116211,1.4000225067138672,0,0,0,40000
699031,-0.21513912081718445,-2.1150221824645996,17.0,-139.0,2.675539016723633,1.37467622756958,0,0,0,40000
699041,-0.19806574285030365,-2.227876901626587,11.0,-162.0,4.095151901245117,1.2783451080322266,0,0,0,40000
699051,-0.1895374357700348,-2.309720277786255,15.0,-153.0,5.145606994628906,1.2329803705215454,0,0,0,40000
699061,-0.18435190618038177,-2.3719656467437744,11.0,-46.0,5.963146209716797,1.2074477672576904,0,0,0,40000
699071,-0.18545566499233246,-2.3717129230499268,6.0,48.0,6.031280517578125,1.2196060419082642,0,0,0,40000
699081,-0.179649218916893,-2.3006629943847656,30.0,167.0,5.2487945556640625,1.1902461051940918,0,0,0,40000
699091,-0.17776186764240265,-2.2057557106018066,-3.0,236.0,4.177276611328125,1.184250831604004,0,0,0,40000
699101,-0.16921129822731018,-2.0543627738952637,6.0,209.0,2.4239120483398438,1.1381292343139648,0,0,0,40000
699111,-0.1583939790725708,-1.9561234712600708,25.0,204.0,1.3048839569091797,1.0781210660934448,0,0,0,40000
699121,-0.14032882452011108,-1.8167829513549805,11.0,191.0,-0.3110618591308594,0.974122941493988,0,0,0,40000
699131,-0.14449307322502136,-1.7496470212936401,11.0,109.0,-1.0634269714355469,1.0034143924713135,0,0,0,40000
699141,-0.12619686126708984,-1.7076537609100342,40.0,19.0,-1.5158271789550781,0.8977310061454773,0,0,0,40000
699151,-0.1149904727935791,-1.7305718660354614,35.0,-96.0,-1.1892509460449219,0.8340616226196289,0,0,0,40000
699161,-0.09673822671175003,-1.8108632564544678,19.0,-120.0,-0.17245864868164062,0.7276278138160706,0,0,0,40000
699171,-0.08060713857412338,-1.8841153383255005,13.0,-169.0,0.7621612548828125,0.6334521174430847,0,0,0,40000
699181,-0.05957883596420288,-2.006049156188965,30.0,-192.0,2.284027099609375,0.5093727111816406,0,0,0,40000
699191,-0.052445970475673676,-2.0868728160858154,32.0,-164.0,3.3155899047851562,0.468239963054657,0,0,0,40000
699201,-0.026734789833426476,-2.180128574371338,14.0,-131.0,4.499032974243164,0.31505584716796875,0,0,0,40000
699211,-0.019998494535684586,-2.241529941558838,16.0,-115.0,5.302366256713867,0.27531370520591736,0,0,0,40000
699221,-0.014147467911243439,-2.2865917682647705,-5.0,-3.0,5.91142463684082,0.24066521227359772,0,0,0,40000
699231,-0.00857758428901434,-2.265562057495117,-16.0,86.0,5.727333068847656,0.20756879448890686,0,0,0,40000
699241,-0.019055914133787155,-2.2124881744384766,-15.0,94.0,5.157520294189453,0.2709091901779175,0,0,0,40000
699251,-0.032654162496328354,-2.162910223007202,-43.0,124.0,4.628063201904297,0.3533032536506653,0,0,0,40000
699261,-0.07475482672452927,-2.088362216949463,-44.0,113.0,3.797016143798828,0.6075857877731323,0,0,0,40000
699271,-0.1011277288198471,-2.0273914337158203,-73.0,139.0,3.126903533935547,0.7685070633888245,0,0,0,40000
699281,-0.14616206288337708,-1.9466153383255005,-49.0,112.0,2.2169876098632812,1.0426157712936401,0,0,0,40000
699291,-0.1739031970500946,-1.9014493227005005,-73.0,80.0,1.7325153350830078,1.2139099836349487,0,0,0,40000
699301,-0.20899759232997894,-1.8678219318389893,-64.0,35.0,1.3853607177734375,1.4303256273269653,0,0,0,40000
699311,-0.232865110039711,-1.858532190322876,-50.0,-11.0,1.3297309875488281,1.5802273750305176,0,0,0,40000
699321,-0.26782721281051636,-1.883046269416809,-44.0,-58.0,1.6800575256347656,1.7976171970367432,0,0,0,40000
699331,-0.2897818386554718,-1.9200387001037598,-37.0,-76.0,2.1810741424560547,1.9377543926239014,0,0,0,40000
699341,-0.3088040053844452,-1.9973433017730713,-38.0,-143.0,3.1676101684570312,2.0609681606292725,0,0,0,40000
699351,-0.3197466731071472,-2.063741683959961,-5.0,-109.0,4.0255279541015625,2.136134386062622,0,0,0,40000
699361,-0.3256141245365143,-2.1181604862213135,-13.0,-43.0,4.741573333740234,2.1810007095336914,0,0,0,40000
699371,-0.3277670443058014,-2.123325824737549,-12.0,21.0,4.867216110229492,2.2037177085876465,0,0,0,40000
699381,-0.33701542019844055,-2.073871374130249,-15.0,104.0,4.336753845214844,2.269176959991455,0,0,0,40000
699391,-0.33965763449668884,-2.018981456756592,-1.0,142.0,3.7393112182617188,2.295201539993286,0,0,0,40000
699401,-0.33335840702056885,-1.9236987829208374,11.0,148.0,2.6548309326171875,2.267498731613159,0,0,0,40000
699411,-0.3327377736568451,-1.8490928411483765,24.0,209.0,1.815969467163086,2.2737479209899902,0,0,0,40000
699421,-0.31915992498397827,-1.705431580543518,29.0,197.0,0.14481353759765625,2.202009439468384,0,0,0,40000
699431,-0.3006628751754761,-1.6160821914672852,29.0,192.0,-0.8778228759765625,2.100252151489258,0,0,0,40000
699441,-0.28647056221961975,-1.5152842998504639,7.0,126.0,-2.0408287048339844,2.0237789154052734,0,0,0,40000
699451,-0.2871742844581604,-1.483782172203064,19.0,63.0,-2.374011993408203,2.03661847114563,0,0,0,40000
699461,-0.2690334618091583,-1.462299108505249,33.0,17.0,-2.5877742767333984,1.9360828399658203,0,0,0,40000
699471,-0.25316277146339417,-1.470442533493042,37.0,-21.0,-2.4460525512695312,1.8486652374267578,0,0,0,40000
699481,-0.23849894106388092,-1.5070276260375977,17.0,-66.0,-1.9623031616210938,1.7679492235183716,0,0,0,40000
699491,-0.23243987560272217,-1.5558964014053345,18.0,-112.0,-1.329813003540039,1.7386486530303955,0,0,0,40000
699501,-0.2163921445608139,-1.6489851474761963,22.0,-139.0,-0.16440963745117188,1.6490451097488403,0,0,0,40000
699511,-0.2059502750635147,-1.7103543281555176,7.0,-138.0,0.6225929260253906,1.5926885604858398,0,0,0,40000
699521,-0.1883336752653122,-1.8263287544250488,16.0,-172.0,2.067636489868164,1.4927949905395508,0,0,0,40000
699531,-0.18453973531723022,-1.8975673913955688,8.0,-151.0,2.9785690307617188,1.4756238460540771,0,0,0,40000
699541,-0.17589153349399567,-1.9827522039413452,15.0,-112.0,4.059337615966797,1.4291324615478516,0,30,0,40000
699551,-0.18231160938739777,-2.039342164993286,-9.0,-105.0,-355.92108154296875,1.473041296005249,0,30,0,40000
699561,-0.18265733122825623,-2.1152524948120117,-15.0,-136.0,-355.8476867675781,1.4805363416671753,0,30,0,40000
699571,-0.1825484186410904,-2.2318930625915527,-19.0,-334.0,-355.2825927734375,1.4853414297103882,0,30,0,40000
699581,-0.19455355405807495,-2.6183207035064697,-25.0,-740.0,-351.47247314453125,1.5630561113357544,0,30,0,40000
699591,-0.2076088935136795,-3.100206136703491,3.0,-1265.0,-346.5028991699219,1.6475093364715576,0,30,0,40000
699601,-0.22084563970565796,-4.246025085449219,-7.0,-1945.0,-333.54095458984375,1.7333848476409912,0,30,0,40000
699611,-0.23448485136032104,-5.341628074645996,-55.0,-2726.0,-321.1470642089844,1.821997880935669,0,30,0,40000
699621,-0.2537904977798462,-7.559911251068115,-41.0,-3581.0,-295.2294006347656,1.945145606994629,0,30,0,40000
699631,-0.2699240744113922,-9.44344425201416,-21.0,-4462.0,-273.26678466796875,2.0498626232147217,0,30,0,40000
699641,-0.2922070324420929,-12.858785629272461,-6.0,-5305.0,-232.83969116210938,2.1920785903930664,0,30,0,40000
699651,-0.30661630630493164,-15.462137222290039,23.0,-5918.0,-202.0671844482422,2.287555694580078,0,30,0,40000
699661,-0.3197385370731354,-19.666284561157227,0.0,-6254.0,-151.9785919189453,2.3755977153778076,0,30,0,40000
699671,-0.33510568737983704,-22.535907745361328,-14.0,-6266.0,-117.80145263671875,2.477647066116333,0,30,0,40000
699681,-0.37668803334236145,-26.688175201416016,0.0,-5905.0,-68.12261962890625,2.7380034923553467,0,30,0,40000
699691,-0.41386842727661133,-29.230548858642578,1.0,-5296.0,-37.66736602783203,2.9730536937713623,0,30,0,40000
699701,-0.4945339560508728,-32.546730041503906,-52.0,-4496.0,2.1652450561523438,3.47078275680542,0,30,0,40000
699711,-0.5372039675712585,-34.3161506652832,-35.0,-3432.0,23.507144927978516,3.742352247238159,0,30,0,40000
699721,-0.6208673119544983,-36.18145751953125,-56.0,-2215.0,46.056617736816406,4.261870384216309,0,30,0,40000
699731,-0.6649277806282043,-36.8180046081543,-43.0,-854.0,53.892852783203125,4.545750617980957,0,30,0,40000
699741,-0.7473681569099426,-36.86091995239258,-98.0,442.0,54.61590576171875,5.061928749084473,0,30,0,40000
699751,-0.7984755039215088,-36.33797836303711,-69.0,1606.0,48.53765106201172,5.391838550567627,0,30,0,40000
699761,-0.8765703439712524,-34.8855094909668,-118.0,2460.0,31.27389144897461,5.885821342468262,0,30,0,40000
699771,-0.9272832870483398,-33.598567962646484,-132.0,3022.0,15.954292297363281,6.217276573181152,0,30,0,40000
699781,-1.0030262470245361,-31.375947952270508,-107.0,3359.0,-10.648551940917969,6.7011213302612305,0,30,0,40000
699791,-1.0677263736724854,-29.811838150024414,-118.0,3460.0,-29.404659271240234,7.1206231117248535,0,30,0,40000
699801,-1.1595336198806763,-27.497982025146484,-136.0,3310.0,-57.21855163574219,7.704980373382568,0,30,0,40000
699811,-1.209019660949707,-26.057025909423828,-184.0,3014.0,-74.61121368408203,8.037476539611816,0,30,0,40000
699821,-1.301279902458191,-24.175600051879883,-168.0,2562.0,-97.34153747558594,8.628945350646973,0,30,0,40000
699831,-1.35757577419281,-23.16342544555664,-118.0,1972.0,-109.68090057373047,9.006860733032227,0,30,0,40000
699841,-1.4554553031921387,-22.094385147094727,-65.0,1294.0,-122.73526000976562,9.636874198913574,0,30,0,40000
699851,-1.5226191282272339,-21.741334915161133,-107.0,433.0,-127.21585083007812,10.084657669067383,0,30,0,40000
699861,-1.5925791263580322,-21.801097869873047,-118.0,-452.0,-126.74737548828125,10.551237106323242,0,30,0,40000
699871,-1.6206871271133423,-22.279987335205078,-79.0,-1424.0,-121.23857116699219,10.768138885498047,0,30,0,40000
699881,-1.6687146425247192,-23.650646209716797,14.0,-2397.0,-104.999755859375,11.106060028076172,0,30,0,40000
699891,-1.6999566555023193,-24.987167358398438,56.0,-3228.0,-89.12837219238281,11.344245910644531,0,30,0,40000
699901,-1.730209231376648,-27.46164321899414,56.0,-3839.0,-59.54179382324219,11.577224731445312,0,30,0,40000
699911,-1.740539312362671,-29.30552101135254,34.0,-4095.0,-37.45834732055664,11.691205978393555,0,30,0,40000
699921,-1.75640869140625,-32.106201171875,29.0,-4040.0,-3.8203983306884766,11.838780403137207,0,30,0,40000
699931,-1.7429457902908325,-33.86717987060547,64.0,-3652.0,17.406494140625,11.810538291931152,0,30,0,40000
699941,-1.7444032430648804,-36.13255310058594,116.0,-3052.0,44.749122619628906,11.871743202209473,0,30,0,40000
699951,-1.7250138521194458,-37.32943344116211,99.0,-2254.0,59.31766128540039,11.80747127532959,0,30,0,40000
699961,-1.6635987758636475,-38.451820373535156,78.0,-1234.0,73.02861022949219,11.489428520202637,0,30,0,40000
699971,-1.6011571884155273,-38.72616958618164,77.0,-165.0,76.57986450195312,11.163534164428711,0,30,0,40000
699981,-1.4783360958099365,-38.379180908203125,79.0,968.0,72.67400360107422,10.472539901733398,0,30,0,40000
699991,-1.377514362335205,-37.686702728271484,144.0,1891.0,64.60365295410156,9.9102144241333,0,30,0,40000
700001,-1.2103283405303955,-36.10772705078125,98.0,2580.0,45.85966491699219,8.945642471313477,0,30,0,40000
700011,-1.1139914989471436,-34.81681442260742,110.0,2983.0,30.5289306640625,8.402077674865723,0,30,0,40000
700021,-0.9622141122817993,-32.6861572265625,84.0,3180.0,5.067564010620117,7.521968364715576,0,30,0,40000
700031,-0.8599828481674194,-31.231769561767578,107.0,3142.0,-12.330718994140625,6.935583114624023,0,30,0,40000
700041,-0.7192626595497131,-29.177492141723633,127.0,2890.0,-36.982696533203125,6.114643096923828,0,30,0,40000
700051,-0.6497509479522705,-27.96620750427246,146.0,2488.0,-51.56483840942383,5.717944145202637,0,30,0,40000
700061,-0.5367656350135803,-26.48350715637207,106.0,1963.0,-69.44617462158203,5.057427883148193,0,30,0,40000
