timestamp,stabilizer.roll,stabilizer.pitch,stateEstimateZ.rateRoll,stateEstimateZ.ratePitch,controller.pitchRate,controller.rollRate,roll,pitch,yawdot,thrust
629703,-42.0146369934082,69.57467651367188,13.0,-36.0,-837.4009399414062,253.60064697265625,0,0,0,40000
629713,-41.97278594970703,69.5701904296875,29.0,9.0,-840.5289916992188,254.60906982421875,0,0,0,40000
629723,-42.00578689575195,69.58586883544922,-7.0,21.0,-841.7096557617188,256.0667724609375,0,0,0,40000
629733,-41.988162994384766,69.58782196044922,20.0,19.0,-845.5296020507812,257.2209167480469,0,0,0,40000
629743,-41.93401336669922,69.58016204833984,45.0,-58.0,-845.8162231445312,258.15460205078125,0,0,0,40000
629753,-41.743629455566406,69.50867462158203,56.0,-185.0,-830.6682739257812,258.267333984375,0,0,0,40000
629763,-41.49766540527344,69.39663696289062,6.0,-385.0,-847.78369140625,258.03955078125,0,0,0,40000
629773,-40.83358383178711,69.123779296875,-48.0,-676.0,-787.295166015625,255.28903198242188,0,0,0,40000
629783,-40.03376007080078,68.78079986572266,-7.0,-1131.0,-844.5389404296875,251.7011260986328,0,0,0,40000
629793,-38.40934371948242,68.02376556396484,73.0,-1690.0,-688.4498291015625,243.12843322753906,0,0,0,40000
629803,-36.95627975463867,67.3084945678711,24.0,-2255.0,-830.9500732421875,235.5365753173828,0,0,0,40000
629813,-34.33726501464844,65.91062927246094,54.0,-2807.0,-564.5457153320312,220.88510131835938,0,0,0,40000
629823,-32.40519714355469,64.77416229248047,92.0,-3308.0,-804.4902954101562,210.28807067871094,0,0,0,40000
629833,-29.427824020385742,62.79119873046875,153.0,-3722.0,-433.30096435546875,193.34263610839844,0,0,0,40000
629843,-27.470752716064453,61.28646469116211,222.0,-4058.0,-766.4031982421875,182.44769287109375,0,0,0,40000
629853,-24.65669059753418,58.81285858154297,276.0,-4316.0,-313.7195129394531,166.33636474609375,0,0,0,40000
629863,-22.87261199951172,57.023887634277344,327.0,-4595.0,-718.779296875,156.3393096923828,0,0,0,40000
629873,-20.368518829345703,54.17912292480469,392.0,-4731.0,-205.74742126464844,141.95530700683594,0,0,0,40000
629883,-18.81138038635254,52.20042037963867,496.0,-4880.0,-664.1473388671875,133.1954803466797,0,0,0,40000
629893,-16.604957580566406,49.1593017578125,624.0,-4919.0,-117.66798400878906,120.48124694824219,0,0,0,40000
629903,-15.217182159423828,47.0867805480957,702.0,-4965.0,-605.7327270507812,112.6275863647461,0,0,0,40000
629913,-13.226401329040527,43.93581008911133,812.0,-4960.0,-42.637115478515625,101.10321807861328,0,0,0,40000
629923,-11.93789291381836,41.839691162109375,957.0,-4903.0,-545.4039306640625,93.74566650390625,0,0,0,40000
629933,-10.05617618560791,38.72250747680664,1190.0,-4784.0,7.23895263671875,82.7796630859375,0,0,0,40000
629943,-8.812088012695312,36.67374038696289,1436.0,-4650.0,-485.7361755371094,75.59453582763672,0,0,0,40000
629953,-6.943627834320068,33.67277145385742,1622.0,-4526.0,44.03578567504883,64.6146240234375,0,0,0,40000
629963,-5.701035976409912,31.732812881469727,1755.0,-4346.0,-428.4662170410156,57.34501266479492,0,0,0,40000
629973,-3.8070168495178223,28.9267520904541,1936.0,-4106.0,63.09429168701172,46.1177864074707,0,0,0,40000
629983,-2.525819778442383,27.137643814086914,2130.0,-3890.0,-375.06072998046875,38.52180862426758,0,0,0,40000
629993,-0.619465708732605,24.62724494934082,2269.0,-3579.0,60.27581024169922,27.125226974487305,0,0,0,40000
630003,0.6467694640159607,23.0728816986084,2384.0,-3281.0,-327.7626037597656,19.52363395690918,0,0,0,40000
630013,2.547401189804077,20.956623077392578,2419.0,-2923.0,35.63450241088867,8.06607437133789,0,0,0,40000
630023,3.793063163757324,19.687246322631836,2443.0,-2571.0,-288.39410400390625,0.4932231903076172,0,0,0,40000
630033,5.610026836395264,18.04305648803711,2417.0,-2184.0,-12.763809204101562,-10.555255889892578,0,0,0,40000
630043,6.777975559234619,17.13465690612793,2347.0,-1743.0,-258.84783935546875,-17.75232696533203,0,0,0,40000
630053,8.448310852050781,16.072187423706055,2246.0,-1298.0,-89.46196746826172,-28.007976531982422,0,0,0,40000
630063,9.497661590576172,15.560624122619629,2071.0,-874.0,-240.9261474609375,-34.576534271240234,0,0,0,40000
630073,10.935583114624023,15.057385444641113,1914.0,-482.0,-170.9620361328125,-43.51524353027344,0,0,0,40000
630083,11.814319610595703,14.917125701904297,1723.0,-62.0,-234.11001586914062,-49.13161849975586,0,0,0,40000
630093,12.980709075927734,14.949398040771484,1508.0,259.0,-254.13494873046875,-56.50581359863281,0,0,0,40000
630103,13.647248268127441,15.068448066711426,1259.0,397.0,-236.82379150390625,-60.90660095214844,0,0,0,40000
630113,14.462456703186035,15.25413703918457,963.0,327.0,-267.37872314453125,-66.22270965576172,0,0,0,40000
630123,14.883598327636719,15.320535659790039,684.0,98.0,-240.76332092285156,-69.19123840332031,0,0,0,40000
630133,15.28478717803955,15.234356880187988,443.0,-232.0,-209.6060333251953,-72.05268096923828,0,0,0,40000
630143,15.411028861999512,14.9906587600708,247.0,-738.0,-237.71652221679688,-73.27103424072266,0,0,0,40000
630153,15.387550354003906,14.29072093963623,-60.0,-1239.0,-92.38150024414062,-73.59274291992188,0,0,0,40000
630163,15.231573104858398,13.647082328796387,-316.0,-1617.0,-222.4490966796875,-73.11589050292969,0,0,0,40000
630173,14.817876815795898,12.4817476272583,-619.0,-1908.0,-1.8505477905273438,-71.08403778076172,0,0,0,40000
630183,14.444311141967773,11.589456558227539,-833.0,-2113.0,-198.50515747070312,-69.2806396484375,0,0,0,40000
630193,13.696453094482422,10.171273231506348,-1050.0,-2216.0,61.212989807128906,-65.21375274658203,0,0,0,40000
630203,13.102899551391602,9.17682933807373,-1224.0,-2287.0,-170.1219482421875,-62.05266189575195,0,0,0,40000
630213,12.107389450073242,7.671712398529053,-1394.0,-2271.0,97.5882568359375,-56.455013275146484,0,0,0,40000
630223,11.384800910949707,6.666250705718994,-1560.0,-2274.0,-139.99501037597656,-52.46980667114258,0,0,0,40000
630233,10.232571601867676,5.182140827178955,-1690.0,-2222.0,123.81576538085938,-45.8775634765625,0,0,0,40000
630243,9.417228698730469,4.200486183166504,-1782.0,-2165.0,-110.40583801269531,-41.27783966064453,0,0,0,40000
630253,8.16130256652832,2.768101453781128,-1829.0,-2083.0,142.17105102539062,-34.00231170654297,0,0,0,40000
630263,7.311575889587402,1.8498860597610474,-1842.0,-1976.0,-82.1986312866211,-29.13349723815918,0,0,0,40000
630273,6.035185813903809,0.5106964707374573,-1850.0,-1937.0,156.05419921875,-21.671552658081055,0,0,0,40000
630283,5.190700054168701,-0.3387981057167053,-1849.0,-1824.0,154.68988037109375,-16.739391326904297,0,0,0,40000
630293,4.371768474578857,-1.1418882608413696,-1773.0,-1725.0,-46.2706298828125,-11.96675968170166,0,0,0,40000
630303,3.1936163902282715,-2.2745559215545654,-1677.0,-1593.0,150.90774536132812,-5.007572174072266,0,0,0,40000
630313,2.4498376846313477,-2.971815824508667,-1541.0,-1449.0,-24.175704956054688,-0.6272106170654297,0,0,0,40000
630323,1.4217898845672607,-3.912440538406372,-1423.0,-1297.0,137.66114807128906,5.48628044128418,0,0,0,40000
630333,0.7969059348106384,-4.478014945983887,-1289.0,-1164.0,-5.867317199707031,9.204231262207031,0,0,0,40000
630343,-0.0480155274271965,-5.219595432281494,-1142.0,-983.0,117.90057373046875,14.265422821044922,0,0,0,40000
630353,-0.5390379428863525,-5.6399335861206055,-961.0,-837.0,8.38803482055664,17.221954345703125,0,0,0,40000
630363,-1.1462585926055908,-6.151408672332764,-768.0,-630.0,88.85685729980469,20.892807006835938,0,0,0,40000
630373,-1.4790586233139038,-6.390473365783691,-597.0,-414.0,17.762367248535156,22.9300594329834,0,0,0,40000
630383,-1.8433645963668823,-6.610410690307617,-451.0,-233.0,48.51625442504883,25.167098999023438,0,0,0,40000
630393,-2.002673864364624,-6.6560587882995605,-275.0,15.0,21.344688415527344,26.18122100830078,0,0,0,40000
630403,-2.1191251277923584,-6.586583614349365,-86.0,217.0,-0.878692626953125,26.94257164001465,0,0,0,40000
630413,-2.1104185581207275,-6.450705528259277,112.0,407.0,19.27457046508789,26.953916549682617,0,0,0,40000
630423,-1.9792016744613647,-6.121192455291748,289.0,609.0,-49.810096740722656,26.227924346923828,0,0,0,40000
630433,-1.8119940757751465,-5.787223815917969,442.0,850.0,11.678604125976562,25.281126022338867,0,0,0,40000
630443,-1.4468467235565186,-5.1128926277160645,586.0,1124.0,-120.98902130126953,23.138322830200195,0,0,0,40000
630453,-1.1453856229782104,-4.5458083152771,699.0,1398.0,-2.912975311279297,21.367595672607422,0,0,0,40000
630463,-0.6163521409034729,-3.4822704792022705,834.0,1729.0,-209.28550720214844,18.218544006347656,0,0,0,40000
630473,-0.2185973972082138,-2.6017632484436035,897.0,2117.0,-26.034696578979492,15.843358039855957,0,0,0,40000
630483,0.4202307462692261,-1.0321015119552612,961.0,2476.0,-323.38714599609375,12.00554370880127,0,0,0,40000
630493,0.869583010673523,0.1848335713148117,982.0,2869.0,-59.41399383544922,9.288752555847168,0,0,0,40000
630503,1.5546241998672485,2.2961714267730713,1006.0,3327.0,-456.9526062011719,5.140140533447266,0,0,0,40000
630513,2.0171267986297607,3.9159913063049316,990.0,3761.0,-104.32827758789062,2.3101863861083984,0,0,0,40000
630523,2.703861713409424,6.630761623382568,982.0,4199.0,-609.7321166992188,-1.8829879760742188,0,0,0,40000
630533,3.160031318664551,8.644245147705078,950.0,4679.0,-161.46768188476562,-4.709332466125488,0,0,0,40000
630543,3.8237762451171875,12.011191368103027,850.0,5185.0,-786.1975708007812,-8.798718452453613,0,0,0,40000
630553,4.255073070526123,14.472064018249512,764.0,5701.0,-232.12472534179688,-11.509038925170898,0,0,0,40000
630563,4.873016357421875,18.496883392333984,673.0,6142.0,-971.0631713867188,-15.355485916137695,0,0,0,40000
630573,5.266988277435303,21.377891540527344,560.0,6572.0,-316.1069030761719,-17.872581481933594,0,0,0,40000
630583,5.842385292053223,25.977216720581055,453.0,6997.0,-1157.9041748046875,-21.493337631225586,0,0,0,40000
630593,6.252282619476318,29.246809005737305,317.0,7405.0,-410.9617004394531,-24.135318756103516,0,0,0,40000
630603,6.8339314460754395,34.39802551269531,210.0,7755.0,-1346.3056640625,-27.82326316833496,0,0,0,40000
630613,7.24131965637207,37.9837646484375,66.0,8104.0,-515.80517578125,-30.47986602783203,0,0,0,40000
630623,7.866682052612305,43.57924270629883,-31.0,8420.0,-1529.98193359375,-34.460548400878906,0,0,0,40000
630633,8.325592994689941,47.43503952026367,-135.0,8673.0,-629.220458984375,-37.45817565917969,0,0,0,40000
630643,9.179569244384766,53.40819549560547,-159.0,9023.0,-1711.602294921875,-42.84653091430664,0,0,0,40000
630653,9.904668807983398,57.52524185180664,-273.0,9288.0,-750.3029174804688,-47.48528289794922,0,0,0,40000
630663,11.4104642868042,63.841392517089844,-222.0,9576.0,-1889.4359130859375,-56.84242248535156,0,0,0,40000
630673,12.95388412475586,68.14784240722656,-240.0,9808.0,-877.7741088867188,-66.47198486328125,0,0,0,40000
630683,17.125009536743164,74.6275634765625,-218.0,10131.0,-2034.231689453125,-91.95352172851562,0,0,0,40000
630693,23.226388931274414,78.8253173828125,-159.0,10379.0,-1005.90380859375,-129.1785125732422,0,0,0,40000
630703,58.86437225341797,83.74824523925781,-81.0,10633.0,-1690.98974609375,-344.174072265625,0,0,0,40000
630713,130.7678680419922,83.66236877441406,-71.0,10885.0,-1063.948486328125,-778.6607055664062,0,0,0,40000
630723,165.0294647216797,78.35382843017578,-32.0,11036.0,50.9891357421875,-988.93310546875,0,0,0,40000
630733,170.8755340576172,73.73458099365234,-29.0,11140.0,-944.81494140625,-1029.072021484375,0,0,0,40000
630743,174.89736938476562,66.38693237304688,13.0,11256.0,386.9862060546875,-1058.41064453125,0,0,0,40000
630753,176.30487060546875,61.342063903808594,-20.0,11339.0,-796.104736328125,-1072.1287841796875,0,0,0,40000
630763,177.55319213867188,53.63720703125,-55.0,11436.0,587.8134765625,-1084.932373046875,0,0,0,40000
630773,178.0296630859375,48.446834564208984,-130.0,11534.0,-641.3619995117188,-1093.1268310546875,0,0,0,40000
630783,178.38414001464844,40.611026763916016,-253.0,11518.0,759.0449829101562,-1100.6019287109375,0,0,0,40000
630793,178.43417358398438,35.369544982910156,-427.0,11530.0,-484.4345397949219,-1106.2547607421875,0,0,0,40000
630803,178.26544189453125,27.52552032470703,-675.0,11487.0,916.397216796875,-1110.59326171875,0,0,0,40000
630813,177.99974060058594,22.282466888427734,-932.0,11469.0,-327.38958740234375,-1114.34228515625,0,0,0,40000
630823,177.36734008789062,14.464550018310547,-1217.0,11397.0,1066.850830078125,-1115.8773193359375,0,0,0,40000
630833,176.77105712890625,9.30547046661377,-1587.0,11214.0,-171.6656494140625,-1117.610107421875,0,0,0,40000
630843,175.60064697265625,1.721029281616211,-1944.0,10992.0,1171.09423828125,-1113.6038818359375,0,0,0,40000
630853,174.61575317382812,-3.22436261177063,-2304.0,10788.0,-21.259811401367188,-1107.694580078125,0,0,0,40000
630863,172.77774047851562,-10.468406677246094,-2672.0,10608.0,1260.44873046875,-1096.66650390625,0,0,0,40000
630873,171.27301025390625,-15.17675495147705,-2984.0,10424.0,122.7955551147461,-1087.6380615234375,0,0,0,40000
630883,168.5229949951172,-22.051414489746094,-3189.0,10315.0,1339.5389404296875,-1071.137939453125,0,0,0,40000
630893,166.30105590820312,-26.490859985351562,-3317.0,10218.0,259.8860778808594,-1057.806396484375,0,0,0,40000
630903,162.25479125976562,-32.884552001953125,-3365.0,10167.0,1383.8162841796875,-1033.52880859375,0,0,0,40000
630913,158.98402404785156,-36.93392562866211,-3330.0,10170.0,387.17327880859375,-1013.9041748046875,0,0,0,40000
630923,153.0135498046875,-42.590518951416016,-3207.0,10170.0,1362.6932373046875,-978.081298828125,0,0,0,40000
630933,148.1747283935547,-45.99156188964844,-3026.0,10277.0,498.41583251953125,-949.04833984375,0,0,0,40000
630943,139.4090576171875,-50.39049530029297,-2794.0,10438.0,1232.8134765625,-896.454345703125,0,0,0,40000
630953,132.5003204345703,-52.713905334472656,-2416.0,10594.0,582.0997924804688,-855.001953125,0,0,0,40000
630963,120.66573333740234,-55.027469635009766,-1976.0,10793.0,908.8779296875,-783.994384765625,0,0,0,40000
630973,112.14070892333984,-55.645851135253906,-1539.0,11009.0,620.5736083984375,-732.84423828125,0,0,0,40000
630983,99.3472900390625,-55.08649444580078,-1088.0,11208.0,419.7952880859375,-656.083740234375,0,0,0,40000
630993,91.4591064453125,-53.752403259277344,-610.0,11361.0,601.1459350585938,-608.754638671875,0,0,0,40000
631003,81.20477294921875,-50.556854248046875,-141.0,11497.0,-39.11378860473633,-547.2286376953125,0,0,0,40000
631013,75.58015441894531,-47.78396987915039,236.0,11696.0,532.5508422851562,-513.48095703125,0,0,0,40000
631023,68.82102966308594,-42.90263366699219,647.0,11856.0,-378.4487609863281,-472.9261779785156,0,0,0,40000
631033,65.31165313720703,-39.316341400146484,1110.0,12054.0,433.50970458984375,-451.86993408203125,0,0,0,40000
631043,61.343841552734375,-33.60265350341797,1385.0,12240.0,-607.8823852539062,-428.06304931640625,0,0,0,40000
631053,59.428123474121094,-29.6767635345459,1715.0,12393.0,319.8499755859375,-416.5687255859375,0,0,0,40000
631063,57.4268798828125,-23.694007873535156,1909.0,12634.0,-749.0221557617188,-404.561279296875,0,0,0,40000
631073,56.60885238647461,-19.714191436767578,2035.0,12829.0,201.72100830078125,-399.6531066894531,0,0,0,40000
631083,55.99751663208008,-13.808483123779297,2131.0,13078.0,-841.0778198242188,-395.985107421875,0,0,0,40000
631093,55.960906982421875,-9.924946784973145,1995.0,13313.0,85.0790023803711,-395.76544189453125,0,0,0,40000
631103,56.374977111816406,-4.2842559814453125,1842.0,13502.0,-903.8020629882812,-398.2498779296875,0,0,0,40000
631113,56.93618392944336,-0.6373859643936157,1515.0,13736.0,-26.113555908203125,-401.6170959472656,0,0,0,40000
631123,58.13621139526367,4.6699042320251465,1114.0,13986.0,-962.4160766601562,-408.8172607421875,0,0,0,40000
631133,59.185081481933594,8.057360649108887,711.0,14240.0,-130.72869873046875,-415.1104736328125,0,0,0,40000
631143,61.12519073486328,12.995819091796875,352.0,14425.0,-1003.5598754882812,-426.75115966796875,0,0,0,40000
631153,62.66426086425781,16.138916015625,-137.0,14613.0,-228.48504638671875,-435.9855651855469,0,0,0,40000
631163,65.4511947631836,20.72825050354004,-459.0,14759.0,-1034.49072265625,-452.7071533203125,0,0,0,40000
631173,67.68356323242188,23.655555725097656,-597.0,14883.0,-319.9268798828125,-466.10137939453125,0,0,0,40000
631183,71.7365951538086,27.77847671508789,-766.0,14958.0,-1031.58203125,-490.4195556640625,0,0,0,40000
631193,74.98517608642578,30.28749656677246,-734.0,15066.0,-401.17413330078125,-509.91107177734375,0,0,0,40000
631203,80.74295043945312,33.4598388671875,-612.0,15196.0,-927.5679931640625,-544.4577026367188,0,0,0,40000
631213,85.17660522460938,35.088924407958984,-524.0,15251.0,-460.79278564453125,-571.0596313476562,0,0,0,40000
631223,92.58497619628906,36.57822036743164,-218.0,15344.0,-658.2940063476562,-615.5098876953125,0,0,0,40000
631233,97.83386993408203,36.83150100708008,2.0,15288.0,-483.889404296875,-647.0032348632812,0,0,0,40000
631243,105.76701354980469,36.00486373901367,274.0,15204.0,-256.7542724609375,-694.60205078125,0,0,0,40000
631253,110.79511260986328,34.68059158325195,545.0,14857.0,-460.22967529296875,-724.7706909179688,0,0,0,40000
631263,117.58094024658203,31.679929733276367,723.0,14439.0,138.2110595703125,-765.4856567382812,0,0,0,40000
631273,121.49855041503906,29.130168914794922,841.0,14017.0,-395.5190734863281,-788.9913330078125,0,0,0,40000
631283,126.41416931152344,24.616220474243164,932.0,13693.0,445.4638671875,-818.4849853515625,0,0,0,40000
631293,129.03689575195312,21.2829532623291,901.0,13359.0,-302.82586669921875,-834.2213745117188,0,0,0,40000
631303,132.09324645996094,15.96223258972168,768.0,12984.0,661.9752197265625,-852.5594482421875,0,0,0,40000
631313,133.57244873046875,12.274238586425781,584.0,12598.0,-195.67730712890625,-861.4346923828125,0,0,0,40000
631323,134.9779815673828,6.67605447769165,351.0,12269.0,810.047119140625,-869.867919921875,0,0,0,40000
631333,135.4276885986328,2.9513306617736816,95.0,11932.0,-84.20320892333984,-872.566162109375,0,0,0,40000
631343,135.3914794921875,-2.5652999877929688,-185.0,11601.0,888.1669311523438,-872.348876953125,0,0,0,40000
631353,134.91078186035156,-6.11341667175293,-520.0,11283.0,24.726024627685547,-869.4647216796875,0,0,0,40000
631363,133.54486083984375,-11.149044036865234,-837.0,10948.0,906.7447509765625,-861.2691650390625,0,0,0,40000
631373,132.2170867919922,-14.287825584411621,-1151.0,10680.0,123.48521423339844,-853.302490234375,0,0,0,40000
631383,129.60264587402344,-18.583547592163086,-1378.0,10405.0,858.1966552734375,-837.6158447265625,0,0,0,40000
631393,127.47537231445312,-21.145153045654297,-1604.0,10179.0,206.8846435546875,-824.8522338867188,0,0,0,40000
631403,123.732666015625,-24.46284294128418,-1714.0,9958.0,759.6504516601562,-802.39599609375,0,0,0,40000
631413,120.91767120361328,-26.272830963134766,-1768.0,9790.0,269.8797607421875,-785.5060424804688,0,0,0,40000
631423,116.33218383789062,-28.372156143188477,-1773.0,9691.0,603.3145751953125,-757.9931030273438,0,0,0,40000
631433,113.10730743408203,-29.345611572265625,-1641.0,9629.0,308.4502868652344,-738.6438598632812,0,0,0,40000
631443,108.1762924194336,-30.16825294494629,-1429.0,9582.0,412.7575378417969,-709.0577392578125,0,0,0,40000
631453,104.88986206054688,-30.304399490356445,-1244.0,9593.0,321.7610168457031,-689.3391723632812,0,0,0,40000
631463,100.12860107421875,-29.931182861328125,-1041.0,9594.0,219.707275390625,-660.7716064453125,0,0,0,40000
631473,97.15347290039062,-29.326000213623047,-744.0,9514.0,311.811767578125,-642.9208374023438,0,0,0,40000
631483,93.06503295898438,-27.98193359375,-519.0,9502.0,45.3382568359375,-618.3901977539062,0,0,0,40000
631493,90.59835815429688,-26.85279083251953,-254.0,9535.0,283.8095397949219,-603.5901489257812,0,0,0,40000
631503,87.34162139892578,-24.83014488220215,27.0,9614.0,-89.65743255615234,-584.0497436523438,0,0,0,40000
631513,85.45283508300781,-23.313945770263672,255.0,9735.0,242.83106994628906,-572.717041015625,0,0,0,40000
631523,83.10051727294922,-20.891300201416016,547.0,9827.0,-204.73355102539062,-558.6030883789062,0,0,0,40000
631533,81.80857849121094,-19.209972381591797,826.0,10022.0,194.83639526367188,-550.8514404296875,0,0,0,40000
631543,80.24566650390625,-16.613637924194336,913.0,10257.0,-269.11004638671875,-541.4739990234375,0,0,0,40000
631553,79.47595977783203,-14.874748229980469,1071.0,10421.0,143.81044006347656,-536.8557739257812,0,0,0,40000
631563,78.60448455810547,-12.295083045959473,1218.0,10678.0,-309.11029052734375,-531.6268920898438,0,0,0,40000
631573,78.20487976074219,-10.635778427124023,1243.0,10859.0,93.6812744140625,-529.229248046875,0,0,0,40000
631583,77.85441589355469,-8.238706588745117,1280.0,11125.0,-322.5283508300781,-527.12646484375,0,0,0,40000
631593,77.74658203125,-6.71671724319458,1143.0,11339.0,47.147560119628906,-526.4794921875,0,0,0,40000
631603,77.72148132324219,-4.592892169952393,1009.0,11603.0,-322.62384033203125,-526.328857421875,0,0,0,40000
631613,77.73591613769531,-3.237227201461792,735.0,11881.0,5.6698150634765625,-526.41552734375,0,0,0,40000
631623,77.77903747558594,-1.302068829536438,402.0,12149.0,-335.6084289550781,-526.6741943359375,0,0,0,40000
631633,77.79544067382812,-0.009712452068924904,-10.0,12400.0,-32.98247528076172,-526.7726440429688,0,0,0,40000
631643,77.8039779663086,1.9306951761245728,-372.0,12634.0,-384.06640625,-526.8238525390625,0,0,0,40000
631653,77.78423309326172,3.28212308883667,-780.0,12867.0,-72.60108947753906,-526.7053833007812,0,0,0,40000
631663,77.77637481689453,5.466451168060303,-1102.0,13173.0,-476.6579284667969,-526.6582641601562,0,0,0,40000
631673,77.812744140625,7.060532093048096,-1435.0,13474.0,-118.27166748046875,-526.87646484375,0,0,0,40000
631683,78.08390808105469,9.715539932250977,-1619.0,13705.0,-608.3011474609375,-528.50341796875,0,0,0,40000
631693,78.46266174316406,11.640708923339844,-1695.0,13969.0,-173.8185577392578,-530.7760009765625,0,0,0,40000
631703,79.48368835449219,14.728988647460938,-1641.0,14220.0,-736.1497192382812,-536.902099609375,0,0,0,40000
631713,80.5645751953125,16.871761322021484,-1498.0,14462.0,-237.4759521484375,-543.387451171875,0,0,0,40000
631723,82.9047622680664,20.061824798583984,-1201.0,14657.0,-802.0535278320312,-557.4285888671875,0,0,0,40000
631733,84.98138427734375,22.06332778930664,-852.0,14748.0,-300.9767761230469,-569.8883056640625,0,0,0,40000
631743,88.92315673828125,24.68337059020996,-507.0,14833.0,-736.2831420898438,-593.5389404296875,0,0,0,40000
631753,92.08170318603516,26.038881301879883,-60.0,14936.0,-350.1594543457031,-612.490234375,0,0,0,40000
631763,97.47635650634766,27.314069747924805,367.0,15033.0,-521.07373046875,-644.858154296875,0,0,0,40000
631773,101.39972686767578,27.551403045654297,691.0,15022.0,-369.9411315917969,-668.3983764648438,0,0,0,40000
631783,107.48593139648438,26.88710594177246,1154.0,14926.0,-182.0356903076172,-704.9155883789062,0,0,0,40000
631793,111.45470428466797,25.785120010375977,1466.0,14690.0,-350.3511962890625,-728.7282104492188,0,0,0,40000
631803,117.03616333007812,23.17970848083496,1727.0,14369.0,166.70050048828125,-762.2169799804688,0,0,0,40000
631813,120.3675765991211,20.89927101135254,1908.0,13998.0,-293.105224609375,-782.2054443359375,0,0,0,40000
631823,124.68910217285156,16.847288131713867,1968.0,13614.0,471.24163818359375,-808.1346435546875,0,0,0,40000
631833,127.07221984863281,13.795027732849121,1877.0,13267.0,-208.8610076904297,-822.433349609375,0,0,0,40000
631843,129.86241149902344,8.84171199798584,1794.0,12865.0,695.6530151367188,-839.1744384765625,0,0,0,40000
631853,131.20809936523438,5.376345157623291,1609.0,12539.0,-108.36547088623047,-847.2485961914062,0,0,0,40000
631863,132.4996795654297,0.036692630499601364,1344.0,12193.0,849.1293334960938,-854.998046875,0,0,0,40000
631873,132.88832092285156,-3.5194802284240723,979.0,11855.0,-1.6180496215820312,-857.3299560546875,0,0,0,40000
631883,132.77194213867188,-8.784576416015625,633.0,11528.0,932.4117431640625,-856.6316528320312,0,0,0,40000
631893,132.2459259033203,-12.205249786376953,285.0,11224.0,103.13729095458984,-853.4755859375,0,0,0,40000
631903,130.78955078125,-17.02467918395996,-73.0,10876.0,946.0654907226562,-844.7373046875,0,0,0,40000
631913,129.37689208984375,-20.026660919189453,-316.0,10611.0,198.01315307617188,-836.2613525390625,0,0,0,40000
631923,126.62629699707031,-24.119932174682617,-573.0,10369.0,899.9173583984375,-819.7578125,0,0,0,40000
631933,124.39899444580078,-26.536428451538086,-764.0,10173.0,277.5735778808594,-806.3939819335938,0,0,0,40000
631943,120.4706802368164,-29.668617248535156,-852.0,10052.0,802.1342163085938,-782.8240966796875,0,0,0,40000
631953,117.50274658203125,-31.402889251708984,-955.0,9959.0,337.7470397949219,-765.0164794921875,0,0,0,40000
631963,112.65807342529297,-33.42288589477539,-1013.0,9919.0,663.1400146484375,-735.9484252929688,0,0,0,40000
631973,109.22293853759766,-34.36520767211914,-842.0,9874.0,588.3954467773438,-715.337646484375,0,0,0,40000
631983,105.67386627197266,-34.96574401855469,-721.0,9887.0,383.33770751953125,-694.043212890625,0,0,0,40000
631993,100.3238754272461,-35.27031707763672,-635.0,9876.0,396.1667785644531,-661.9432373046875,0,0,0,40000
632003,96.82513427734375,-35.07231140136719,-397.0,9913.0,386.72808837890625,-640.9508056640625,0,0,0,40000
632013,91.83071899414062,-34.24647903442383,-150.0,9832.0,211.0802001953125,-610.9843139648438,0,0,0,40000
632023,88.73944091796875,-33.36617660522461,-28.0,9786.0,368.3050537109375,-592.4366455078125,0,0,0,40000
632033,84.5465087890625,-31.672740936279297,85.0,9809.0,39.16416931152344,-567.279052734375,0,0,0,40000
632043,82.02311706542969,-30.333030700683594,376.0,9859.0,333.80560302734375,-552.138671875,0,0,0,40000
632053,78.61457824707031,-28.048032760620117,462.0,9930.0,-92.17021179199219,-531.6875,0,0,0,40000
632063,76.62158966064453,-26.382556915283203,534.0,10122.0,288.08111572265625,-519.7295532226562,0,0,0,40000
632073,73.94654083251953,-23.682592391967773,650.0,10289.0,-201.246337890625,-503.67926025390625,0,0,0,40000
632083,72.3929443359375,-21.777868270874023,676.0,10503.0,234.2444305419922,-494.357666015625,0,0,0,40000
632093,70.36123657226562,-18.820030212402344,721.0,10750.0,-303.54437255859375,-482.16741943359375,0,0,0,40000
632103,69.17025756835938,-16.779197692871094,612.0,11017.0,175.38888549804688,-475.02154541015625,0,0,0,40000
632113,67.630859375,-13.623086929321289,453.0,11332.0,-395.53863525390625,-465.78515625,0,0,0,40000
632123,66.7343521118164,-11.432757377624512,229.0,11597.0,112.04781341552734,-460.4061279296875,0,0,0,40000
632133,65.51681518554688,-8.039511680603027,-55.0,11916.0,-505.42987060546875,-453.10089111328125,0,0,0,40000
632143,64.79804229736328,-5.680320739746094,-472.0,12229.0,43.499839782714844,-448.78826904296875,0,0,0,40000
632153,63.82542037963867,-1.9548627138137817,-878.0,12485.0,-636.7637329101562,-442.9525146484375,0,0,0,40000
632163,63.277992248535156,0.6749349236488342,-1303.0,12838.0,-32.647705078125,-439.66796875,0,0,0,40000
632173,62.63230514526367,4.907498836517334,-1680.0,13243.0,-816.0159912109375,-435.7938232421875,0,0,0,40000
632183,62.36751937866211,7.983935832977295,-2039.0,13726.0,-120.65323638916016,-434.2051086425781,0,0,0,40000
632193,62.38178253173828,12.97508716583252,-2261.0,14170.0,-1039.144287109375,-434.29071044921875,0,0,0,40000
632203,62.75468826293945,16.563241958618164,-2410.0,14571.0,-224.38658142089844,-436.52813720703125,0,0,0,40000
632213,64.08655548095703,22.234760284423828,-2413.0,14927.0,-1253.4197998046875,-444.51934814453125,0,0,0,40000
632223,65.63709259033203,26.13787841796875,-2239.0,15260.0,-340.6176452636719,-453.82257080078125,0,0,0,40000
632233,69.23785400390625,31.952457427978516,-1980.0,15600.0,-1371.65283203125,-475.4271240234375,0,0,0,40000
632243,72.68864440917969,35.6495246887207,-1612.0,15874.0,-456.6719970703125,-496.1318664550781,0,0,0,40000
632253,79.75367736816406,40.52210235595703,-1186.0,16130.0,-1270.973876953125,-538.5220947265625,0,0,0,40000
632263,85.79984283447266,43.070396423339844,-624.0,16338.0,-548.1448364257812,-574.799072265625,0,0,0,40000
632273,96.63509368896484,45.31016159057617,-117.0,16481.0,-829.0324096679688,-639.810546875,0,0,0,40000
632283,104.619384765625,45.520225524902344,432.0,16562.0,-580.2457885742188,-687.71630859375,0,0,0,40000
632293,116.52056121826172,43.726783752441406,938.0,16558.0,-120.20716857910156,-759.1233520507812,0,0,0,40000
632303,123.70877838134766,41.23747253417969,1326.0,16378.0,-531.4612426757812,-802.252685546875,0,0,0,40000
632313,132.82870483398438,35.913822174072266,1611.0,16163.0,507.74957275390625,-856.9722290039062,0,0,0,40000
632323,137.72439575195312,31.544981002807617,1944.0,15990.0,-417.2967224121094,-886.3463745117188,0,0,0,40000
632333,143.475830078125,24.125322341918945,2097.0,15790.0,952.9026489257812,-920.85498046875,0,0,0,40000
632343,146.40219116210938,18.77153968811035,2196.0,15612.0,-265.4582214355469,-938.4131469726562,0,0,0,40000
632353,149.645751953125,10.336747169494629,2210.0,15330.0,1258.4560546875,-957.87451171875,0,0,0,40000
632363,151.15736389160156,4.57396936416626,2130.0,15040.0,-95.70608520507812,-966.9442138671875,0,0,0,40000
632373,152.58566284179688,-4.155305862426758,1984.0,14767.0,1467.2086181640625,-975.5139770507812,0,0,0,40000
632383,153.03353881835938,-10.00333023071289,1774.0,14544.0,79.47113037109375,-978.2012329101562,0,0,0,40000
632393,152.95181274414062,-18.703609466552734,1478.0,14309.0,1626.8759765625,-977.7108764648438,0,0,0,40000
632403,152.36228942871094,-24.4515438079834,1188.0,14135.0,253.971435546875,-974.1737060546875,0,0,0,40000
632413,150.52349853515625,-32.878604888916016,892.0,13973.0,1745.9727783203125,-963.1409912109375,0,0,0,40000
632423,148.53929138183594,-38.33182144165039,641.0,13828.0,422.5054931640625,-951.2357177734375,0,0,0,40000
632433,143.9830322265625,-46.15672302246094,370.0,13794.0,1795.7418212890625,-923.898193359375,0,0,0,40000
632443,139.56460571289062,-51.01984786987305,162.0,13703.0,577.5264892578125,-897.3876342773438,0,0,0,40000
632453,130.0322265625,-57.516815185546875,-19.0,13655.0,1669.412841796875,-840.193359375,0,0,0,40000
632463,121.17328643798828,-61.04720687866211,-119.0,13701.0,701.2958984375,-787.0397338867188,0,0,0,40000
632473,103.58831024169922,-64.43508911132812,-180.0,13708.0,1153.369384765625,-681.5298461914062,0,0,0,40000
632483,89.93009185791016,-65.01302337646484,-255.0,13746.0,752.7310180664062,-599.58056640625,0,0,0,40000
632493,70.12254333496094,-63.122093200683594,-288.0,13833.0,238.95726013183594,-480.7352600097656,0,0,0,40000
632503,59.24560546875,-60.30537033081055,-289.0,13884.0,700.0087890625,-415.4736328125,0,0,0,40000
632513,46.97745132446289,-54.428592681884766,-418.0,14043.0,-436.9505310058594,-341.8647155761719,0,0,0,40000
632523,40.99753189086914,-49.742576599121094,-635.0,14245.0,576.5122680664062,-305.9851989746094,0,0,0,40000
632533,34.35095977783203,-41.91798400878906,-720.0,14461.0,-861.30908203125,-266.10577392578125,0,0,0,40000
632543,31.043169021606445,-36.30491256713867,-981.0,14647.0,417.7706298828125,-246.25901794433594,0,0,0,40000
632553,27.193252563476562,-27.43490982055664,-1184.0,14894.0,-1196.0496826171875,-223.15951538085938,0,0,0,40000
632563,25.1965274810791,-21.270212173461914,-1611.0,15104.0,238.99749755859375,-211.17916870117188,0,0,0,40000
632573,22.729047775268555,-11.678664207458496,-1944.0,15354.0,-1492.563720703125,-196.37428283691406,0,0,0,40000
632583,21.352739334106445,-5.072651386260986,-2353.0,15623.0,45.32487487792969,-188.11643981933594,0,0,0,40000
632593,19.595701217651367,5.182829856872559,-2721.0,15912.0,-1810.0430908203125,-177.57420349121094,0,0,0,40000
632603,18.5848445892334,12.261574745178223,-3004.0,16261.0,-162.9998016357422,-171.50906372070312,0,0,0,40000
632613,17.29378318786621,23.273420333862305,-3159.0,16593.0,-2155.50146484375,-163.7626953125,0,0,0,40000
632623,16.5877685546875,30.83641815185547,-3081.0,16917.0,-387.29681396484375,-159.526611328125,0,0,0,40000
632633,15.795268058776855,42.50724792480469,-2854.0,17226.0,-2493.004150390625,-154.7716064453125,0,0,0,40000
632643,15.511359214782715,50.4606819152832,-2476.0,17500.0,-625.34033203125,-153.06814575195312,0,0,0,40000
632653,15.678912162780762,62.576663970947266,-1967.0,17757.0,-2802.218017578125,-154.07347106933594,0,0,0,40000
632663,16.668182373046875,70.68760681152344,-1407.0,17963.0,-871.8181762695312,-160.00909423828125,0,0,0,40000
632673,25.9281063079834,82.21672058105469,-835.0,18264.0,-2813.640380859375,-215.56863403320312,0,0,0,40000
632683,159.9281463623047,84.40556335449219,-173.0,18569.0,-1041.2899169921875,-1019.56884765625,0,0,0,40000
632693,-174.78305053710938,73.61746215820312,405.0,18739.0,1128.783935546875,991.8705444335938,0,0,0,40000
632703,-172.76345825195312,65.1561050415039,939.0,18737.0,-814.7050170898438,984.9578247070312,0,0,0,40000
632713,-171.24082946777344,52.27474594116211,1512.0,18671.0,1488.487548828125,980.9750366210938,0,0,0,40000
632723,-170.45094299316406,43.71097946166992,2029.0,18474.0,-560.5004272460938,981.358642578125,0,0,0,40000
632733,-169.20408630371094,31.09482765197754,2624.0,18188.0,1676.6485595703125,978.9691162109375,0,0,0,40000
632743,-168.21348571777344,22.837501525878906,3051.0,17889.0,-311.8861389160156,978.083984375,0,0,0,40000
632753,-166.41281127929688,10.743841171264648,3509.0,17650.0,1828.4554443359375,972.2952880859375,0,0,0,40000
632763,-164.92971801757812,2.894179105758667,3762.0,17342.0,-73.21343994140625,968.3628540039062,0,0,0,40000
632773,-162.11801147460938,-8.483041763305664,3913.0,17092.0,1931.3397216796875,956.3920288085938,0,0,0,40000
632783,-159.7254180908203,-15.776123046875,3936.0,16891.0,151.33560180664062,946.857666015625,0,0,0,40000
632793,-155.10092163085938,-26.14594841003418,3782.0,16703.0,1960.0301513671875,923.8229370117188,0,0,0,40000
632803,-151.08859252929688,-32.58156967163086,3476.0,16630.0,354.5638732910156,904.3311157226562,0,0,0,40000
632813,-143.1731414794922,-41.32562255859375,3052.0,16601.0,1845.24365234375,861.2354736328125,0,0,0,40000
632823,-136.2194366455078,-46.32083511352539,2596.0,16661.0,521.9042358398438,823.6856079101562,0,0,0,40000
632833,-122.72702026367188,-52.0520133972168,2001.0,16767.0,1408.06689453125,746.584716796875,0,0,0,40000
632843,-111.7744140625,-54.2865104675293,1335.0,16877.0,620.5956420898438,684.3556518554688,0,0,0,40000
632853,-94.08988952636719,-54.72235107421875,654.0,17048.0,494.9112548828125,581.28369140625,0,0,0,40000
632863,-83.06270599365234,-53.06398010253906,212.0,17103.0,609.1854858398438,517.7431030273438,0,0,0,40000
632873,-69.65191650390625,-48.21521759033203,-413.0,17066.0,-382.0857849121094,439.51739501953125,0,0,0,40000
632883,-62.99821853637695,-43.8760986328125,-902.0,17058.0,501.8111877441406,401.562255859375,0,0,0,40000
632893,-55.917667388916016,-36.34422302246094,-1320.0,17123.0,-889.6629028320312,360.8332214355469,0,0,0,40000
632903,-52.753475189208984,-30.903423309326172,-1626.0,17253.0,348.3149719238281,343.4671936035156,0,0,0,40000
632913,-49.77410125732422,-22.45561408996582,-2043.0,17316.0,-1168.365478515625,327.1146240234375,0,0,0,40000
632923,-48.752628326416016,-16.776897430419922,-2282.0,17388.0,180.14349365234375,322.4595642089844,0,0,0,40000
632933,-48.40461730957031,-8.345053672790527,-2342.0,17461.0,-1309.9598388671875,321.82415771484375,0,0,0,40000
632943,-48.870601654052734,-2.931842803955078,-2273.0,17558.0,14.506410598754883,326.079833984375,0,0,0,40000
632953,-50.54100036621094,4.86066198348999,-2122.0,17603.0,-1350.0257568359375,337.59527587890625,0,0,0,40000
632963,-52.26893997192383,9.768348693847656,-1877.0,17653.0,-138.18405151367188,349.509521484375,0,0,0,40000
632973,-55.816246032714844,16.565881729125977,-1554.0,17728.0,-1311.2510986328125,372.4222717285156,0,0,0,40000
632983,-58.81547164916992,20.666372299194336,-1283.0,17789.0,-269.948974609375,392.145263671875,0,0,0,40000
632993,-64.31818389892578,26.028940200805664,-917.0,17807.0,-1167.2305908203125,427.0218811035156,0,0,0,40000
633003,-68.66605377197266,28.960193634033203,-634.0,17873.0,-371.02874755859375,455.1161193847656,0,0,0,40000
633013,-76.09236145019531,32.20541000366211,-387.0,17879.0,-867.0822143554688,501.8651123046875,0,0,0,40000
633023,-81.50635528564453,33.496002197265625,-270.0,17912.0,-427.38018798828125,536.7288208007812,0,0,0,40000
633033,-89.94731140136719,33.9745979309082,-166.0,18021.0,-412.24530029296875,589.9711303710938,0,0,0,40000
633043,-95.45338439941406,33.30267333984375,12.0,17966.0,-427.08685302734375,625.8055419921875,0,0,0,40000
633053,-103.03141021728516,30.90241241455078,142.0,17796.0,82.83773803710938,674.2767333984375,0,0,0,40000
633063,-107.39006805419922,28.512792587280273,272.0,17602.0,-371.45318603515625,703.5989990234375,0,0,0,40000
633073,-112.67623901367188,24.000919342041016,414.0,17377.0,488.88970947265625,736.0574340820312,0,0,0,40000
633083,-115.33882141113281,20.54440689086914,638.0,17114.0,-277.267578125,752.032958984375,0,0,0,40000
633093,-118.10926818847656,14.964288711547852,883.0,16936.0,732.6958618164062,768.6556396484375,0,0,0,40000
633103,-119.19666290283203,11.103707313537598,1094.0,16772.0,-164.87533569335938,775.1799926757812,0,0,0,40000
633113,-119.77411651611328,5.266810417175293,1331.0,16774.0,871.7941284179688,778.6447143554688,0,0,0,40000
633123,-119.48487091064453,1.4295426607131958,1539.0,16784.0,-49.10212707519531,776.9092407226562,0,0,0,40000
633133,-118.11618041992188,-4.0455451011657715,1692.0,16790.0,902.9617309570312,768.6970825195312,0,0,0,40000
633143,-116.61438751220703,-7.4216437339782715,1802.0,16980.0,57.35143280029297,759.6863403320312,0,0,0,40000
633153,-113.51290130615234,-11.969462394714355,1749.0,17134.0,823.6438598632812,741.077392578125,0,0,0,40000
633163,-110.96631622314453,-14.501255989074707,1584.0,17306.0,143.018798828125,725.7979125976562,0,0,0,40000
633173,-106.57829284667969,-17.479394912719727,1346.0,17652.0,619.6077880859375,699.4697265625,0,0,0,40000
633183,-103.35580444335938,-18.87938117980957,1036.0,18057.0,196.597900390625,680.1348266601562,0,0,0,40000
633193,-98.32816314697266,-20.019025802612305,633.0,18393.0,338.1133117675781,649.968994140625,0,0,0,40000
633203,-94.97016906738281,-20.184494018554688,274.0,18764.0,213.45343017578125,629.821044921875,0,0,0,40000
633213,-90.21502685546875,-19.560497283935547,-81.0,18737.0,51.17919921875,601.2901611328125,0,0,0,40000
633223,-87.37516784667969,-18.644393920898438,-359.0,18545.0,196.1399688720703,584.2509765625,0,0,0,40000
633233,-83.70904541015625,-16.67384910583496,-613.0,18273.0,-188.4007110595703,562.2542724609375,0,0,0,40000
633243,-81.72223663330078,-15.0741605758667,-868.0,17992.0,154.29440307617188,550.3334350585938,0,0,0,40000
633253,-79.37200927734375,-12.387066841125488,-928.0,17706.0,-338.806396484375,536.2320556640625,0,0,0,40000
633263,-78.23921966552734,-10.514189720153809,-1038.0,17568.0,100.31739044189453,529.435302734375,0,0,0,40000
633273,-77.09195709228516,-7.613790035247803,-1039.0,17349.0,-412.55706787109375,522.5517578125,0,0,0,40000
633283,-76.66131591796875,-5.715382099151611,-989.0,17242.0,43.18891906738281,519.9678955078125,0,0,0,40000
633293,-76.4094467163086,-2.9527125358581543,-844.0,17105.0,-449.984619140625,518.4566650390625,0,0,0,40000
633303,-76.4616470336914,-1.1666425466537476,-664.0,16975.0,-11.218002319335938,518.7698974609375,0,0,0,40000
633313,-76.83235931396484,1.3583905696868896,-462.0,16889.0,-460.5960693359375,520.994140625,0,0,0,40000
633323,-77.2623062133789,3.0207459926605225,-249.0,16874.0,-61.54800796508789,523.5738525390625,0,0,0,40000
633333,-78.15742492675781,5.367478370666504,19.0,16795.0,-472.6546630859375,528.944580078125,0,0,0,40000
633343,-78.93064880371094,6.90364408493042,110.0,16854.0,-108.46477508544922,533.5838623046875,0,0,0,40000
633353,-80.41362762451172,9.092206954956055,309.0,17009.0,-489.4190979003906,542.4817504882812,0,0,0,40000
633363,-81.6267318725586,10.447880744934082,234.0,17194.0,-151.54002380371094,549.7603759765625,0,0,0,40000
633373,-83.86536407470703,12.26830768585205,167.0,17437.0,-451.0132751464844,563.1921997070312,0,0,0,40000
633383,-85.60655212402344,13.232088088989258,83.0,17604.0,-185.6835479736328,573.6392822265625,0,0,0,40000
633393,-88.61101531982422,14.205863952636719,-75.0,17766.0,-323.42401123046875,591.6660766601562,0,0,0,40000
633403,-90.74703216552734,14.477364540100098,-147.0,17696.0,-201.47457885742188,604.482177734375,0,0,0,40000
633413,-94.03948211669922,14.270174980163574,-307.0,17372.0,-127.26148986816406,624.2368774414062,0,0,0,40000
633423,-96.14037322998047,13.753983497619629,-289.0,16990.0,-193.64572143554688,636.8422241210938,0,0,0,40000
633433,-99.03731536865234,12.417500495910645,-335.0,16416.0,78.37333679199219,654.223876953125,0,0,0,40000
633443,-100.6973876953125,11.240813255310059,-240.0,15736.0,-164.2294921875,664.184326171875,0,0,0,40000
633453,-102.74153900146484,9.175033569335938,-215.0,15194.0,228.98292541503906,676.44921875,0,0,0,40000
633463,-103.806396484375,7.603867053985596,-162.0,14693.0,-121.13453674316406,682.83837890625,0,0,0,40000
633473,-104.91471099853516,5.1029438972473145,-35.0,14354.0,336.662353515625,689.48828125,0,0,0,40000
633483,-105.33101654052734,3.3348782062530518,112.0,14043.0,-70.21160888671875,691.986083984375,0,0,0,40000
633493,-105.47828674316406,0.7462052702903748,307.0,13800.0,390.5228271484375,692.8697509765625,0,0,0,40000
633503,-105.27589416503906,-0.9518744945526123,475.0,13626.0,-18.815696716308594,691.6553955078125,0,0,0,40000
633513,-104.5690689086914,-3.3422000408172607,589.0,13582.0,392.9038391113281,687.4144287109375,0,0,0,40000
633523,-103.85456848144531,-4.777898788452148,644.0,13633.0,27.295207977294922,683.12744140625,0,0,0,40000
633533,-102.41887664794922,-6.682827472686768,716.0,13718.0,347.7729797363281,674.5132446289062,0,0,0,40000
633543,-101.26925659179688,-7.759390830993652,714.0,13872.0,63.47181701660156,667.6155395507812,0,0,0,40000
633553,-99.36312866210938,-9.030604362487793,637.0,14049.0,269.3326721191406,656.1787719726562,0,0,0,40000
633563,-98.00379180908203,-9.662050247192383,566.0,14143.0,86.84302520751953,648.0227661132812,0,0,0,40000
633573,-95.9312744140625,-10.282562255859375,450.0,14229.0,176.0226287841797,635.587646484375,0,0,0,40000
633583,-94.57543182373047,-10.47982406616211,262.0,14251.0,97.27066802978516,627.4525756835938,0,0,0,40000
633593,-92.63822937011719,-10.47860050201416,119.0,14030.0,80.71453857421875,615.829345703125,0,0,0,40000
633603,-91.44139862060547,-10.302209854125977,-30.0,13759.0,95.76591491699219,608.6483764648438,0,0,0,40000
633613,-89.82418823242188,-9.824645042419434,-152.0,13428.0,-4.781673431396484,598.9451293945312,0,0,0,40000
633623,-88.85771942138672,-9.409013748168945,-218.0,13003.0,85.63623046875,593.1463012695312,0,0,0,40000
633633,-87.63583374023438,-8.674376487731934,-280.0,12447.0,-49.50571060180664,585.8150024414062,0,0,0,40000
633643,-86.94772338867188,-8.17741870880127,-255.0,11923.0,71.37751770019531,581.6863403320312,0,0,0,40000
633653,-86.0615463256836,-7.438412189483643,-328.0,11394.0,-60.406455993652344,576.3692626953125,0,0,0,40000
633663,-85.5209732055664,-6.969499111175537,-301.0,10931.0,57.32924270629883,573.1258544921875,0,0,0,40000
633673,-84.78895568847656,-6.282010555267334,-151.0,10422.0,-66.85063171386719,568.7337646484375,0,0,0,40000
633683,-84.34121704101562,-5.858642101287842,-47.0,9927.0,44.37649154663086,566.0473022460938,0,0,0,40000
633693,-83.68795776367188,-5.243435382843018,105.0,9346.0,-63.10744094848633,562.1277465820312,0,0,0,40000
633703,-83.23275756835938,-4.833775520324707,272.0,8761.0,32.392459869384766,559.3965454101562,0,0,0,40000
633713,-82.48645782470703,-4.257286071777344,500.0,8244.0,-73.92340087890625,554.9187622070312,0,0,0,40000
633723,-81.92706298828125,-3.885082721710205,728.0,7730.0,21.264076232910156,551.5623779296875,0,0,0,40000
633733,-80.95582580566406,-3.2873265743255615,1017.0,7265.0,-87.30010986328125,545.7349853515625,0,0,0,40000
633743,-80.2178726196289,-2.8645431995391846,1305.0,6775.0,9.214405059814453,541.3072509765625,0,0,0,40000
633753,-79.01039123535156,-2.1579794883728027,1603.0,6337.0,-123.30186462402344,534.0623779296875,0,0,0,40000
633763,-78.12506103515625,-1.6461020708084106,1838.0,6023.0,-135.58474731445312,528.7503662109375,0,0,0,40000
633773,-77.16542053222656,-1.0698603391647339,2101.0,5791.0,-12.163385391235352,522.9925537109375,0,0,0,40000
633783,-75.60279083251953,-0.02608790248632431,2378.0,5527.0,-208.1268310546875,513.6167602539062,0,0,0,40000
633793,-74.4778060913086,0.7495126724243164,2662.0,5385.0,-33.9951171875,506.8668212890625,0,0,0,40000
633803,-72.64937591552734,2.138643503189087,2909.0,5335.0,-292.4618225097656,495.896240234375,0,0,0,40000
633813,-71.37471771240234,3.2051188945770264,3088.0,5301.0,-63.59257888793945,488.248291015625,0,0,0,40000
633823,-69.4075927734375,5.044913291931152,3275.0,5273.0,-407.50396728515625,476.445556640625,0,0,0,40000
633833,-68.07435607910156,6.430948257446289,3418.0,5265.0,-102.60714721679688,468.4461364746094,0,0,0,40000
633843,-66.07706451416016,8.761034965515137,3556.0,5325.0,-535.26220703125,456.46240234375,0,0,0,40000
633853,-64.762939453125,10.503141403198242,3623.0,5372.0,-152.00148010253906,448.57763671875,0,0,0,40000
633863,-62.833805084228516,13.398722648620605,3671.0,5473.0,-688.7559814453125,437.0028381347656,0,0,0,40000
633873,-61.591766357421875,15.518932342529297,3702.0,5626.0,-212.99720764160156,429.55059814453125,0,0,0,40000
633883,-59.83907699584961,19.014225006103516,3713.0,5864.0,-859.009521484375,419.0344543457031,0,0,0,40000
633893,-58.785831451416016,21.55057144165039,3618.0,6081.0,-286.5201721191406,412.7149963378906,0,0,0,40000
633903,-57.423828125,25.639448165893555,3457.0,6354.0,-1038.717529296875,404.54296875,0,0,0,40000
633913,-56.72871017456055,28.562692642211914,3246.0,6623.0,-372.2064514160156,400.37225341796875,0,0,0,40000
633923,-56.07427215576172,33.21320724487305,3059.0,6928.0,-1218.0283203125,396.44561767578125,0,0,0,40000
633933,-55.968284606933594,36.477535247802734,2730.0,7238.0,-469.17938232421875,395.8096923828125,0,0,0,40000
633943,-56.38215255737305,41.57392883300781,2367.0,7506.0,-1392.0009765625,398.29290771484375,0,0,0,40000
633953,-57.15037155151367,45.0687255859375,2046.0,7769.0,-574.7692260742188,402.9022216796875,0,0,0,40000
633963,-59.27702713012695,50.36561584472656,1746.0,8007.0,-1522.622314453125,415.66217041015625,0,0,0,40000
633973,-61.55475997924805,53.875980377197266,1311.0,8206.0,-683.4779052734375,429.32855224609375,0,0,0,40000
633983,-66.63157653808594,58.94026565551758,864.0,8323.0,-1569.629150390625,459.7894592285156,0,0,0,40000
633993,-71.48469543457031,62.084774017333984,515.0,8418.0,-785.5170288085938,488.9081726074219,0,0,0,40000
634003,-81.71089935302734,66.17268371582031,236.0,8463.0,-1463.627685546875,550.265380859375,0,0,0,40000
634013,-90.8738784790039,68.26457977294922,-166.0,8521.0,-863.6370849609375,605.2432861328125,0,0,0,40000
634023,-107.93641662597656,70.0054931640625,-590.0,8452.0,-1070.038330078125,707.6185302734375,0,0,0,40000
634033,-120.28129577636719,70.04553985595703,-848.0,8313.0,-889.1953125,781.687744140625,0,0,0,40000
634043,-137.26657104492188,68.51448822021484,-1067.0,8031.0,-525.5232543945312,883.5994262695312,0,0,0,40000
634053,-146.47959899902344,66.70655822753906,-1303.0,7678.0,-853.2295532226562,938.8775634765625,0,0,0,40000
634063,-157.13043212890625,63.29737854003906,-1606.0,7274.0,-215.51358032226562,1002.7825927734375,0,0,0,40000
634073,-162.53553771972656,60.79447555541992,-1729.0,6803.0,-786.0800170898438,1035.2132568359375,0,0,0,40000
634083,-168.8285369873047,56.93586349487305,-1774.0,6386.0,-96.42208099365234,1072.97119140625,0,0,0,40000
634093,-172.14378356933594,54.379512786865234,-1860.0,5912.0,-712.5169677734375,1092.8626708984375,0,0,0,40000
634103,-176.1312255859375,50.6763916015625,-1939.0,5486.0,-61.02099609375,1116.787353515625,0,0,0,40000
634113,-178.31536865234375,48.335426330566406,-1976.0,5002.0,-640.025146484375,1129.8922119140625,0,0,0,40000
634123,178.94744873046875,45.07095718383789,-1881.0,4567.0,-73.669921875,-1016.916015625,0,0,0,40000
634133,177.38320922851562,43.05524826049805,-1825.0,4151.0,-576.6629638671875,-1012.87060546875,0,0,0,40000
634143,175.3339385986328,40.302459716796875,-1823.0,3748.0,-100.794677734375,-1005.8589477539062,0,0,0,40000
634153,174.10545349121094,38.63411331176758,-1847.0,3357.0,-523.609375,-1003.725830078125,0,0,0,40000
634163,172.37933349609375,36.365482330322266,-1814.0,2996.0,-132.97869873046875,-998.5608520507812,0,0,0,40000
634173,171.2822265625,34.99013137817383,-1831.0,2721.0,-479.881591796875,-997.1296997070312,0,0,0,40000
634183,169.6952667236328,33.114559173583984,-1887.0,2467.0,-154.32562255859375,-992.7177734375,0,0,0,40000
634193,168.64158630371094,31.95693016052246,-1956.0,2265.0,-443.483154296875,-991.467529296875,0,0,0,40000
634203,167.02935791015625,30.339767456054688,-2031.0,2093.0,-162.01324462890625,-986.8245239257812,0,0,0,40000
634213,165.91580200195312,29.34688949584961,-2144.0,1883.0,-412.16265869140625,-985.1341552734375,0,0,0,40000
634223,164.18191528320312,27.956985473632812,-2276.0,1744.0,-168.7801971435547,-979.6773681640625,0,0,0,40000
634233,162.9602508544922,27.077465057373047,-2463.0,1605.0,-384.9295654296875,-977.2509765625,0,0,0,40000
634243,161.02267456054688,25.84104347229004,-2634.0,1441.0,-169.7637176513672,-970.4797973632812,0,0,0,40000
634253,159.65463256835938,25.08745002746582,-2785.0,1248.0,-361.0494079589844,-967.07763671875,0,0,0,40000
634263,157.46412658691406,24.04076385498047,-3031.0,1109.0,-181.53704833984375,-958.685302734375,0,0,0,40000
634273,155.9116973876953,23.38014030456543,-3176.0,1019.0,-340.5616760253906,-954.0667724609375,0,0,0,40000
634283,153.43698120117188,22.430152893066406,-3359.0,865.0,-174.85638427734375,-943.8517456054688,0,0,0,40000
634293,151.68032836914062,21.81505012512207,-3630.0,744.0,-321.7806091308594,-937.883544921875,0,0,0,40000
634303,148.89596557617188,20.95957374572754,-3817.0,598.0,-172.7486114501953,-925.6781616210938,0,0,0,40000
634313,146.93101501464844,20.402055740356445,-4033.0,433.0,-304.8246765136719,-918.320068359375,0,0,0,40000
634323,143.83575439453125,19.63457489013672,-4251.0,252.0,-170.48806762695312,-904.101318359375,0,0,0,40000
634333,141.66836547851562,19.132352828979492,-4423.0,22.0,-289.5882263183594,-895.3731079101562,0,0,0,40000
634343,138.27037048339844,18.434741973876953,-4615.0,-156.0,-166.48226928710938,-879.1744384765625,0,0,0,40000
634353,135.89552307128906,17.966447830200195,-4821.0,-329.0,-275.5973815917969,-869.0308837890625,0,0,0,40000
634363,132.16415405273438,17.245391845703125,-4961.0,-543.0,-144.50341796875,-850.6528930664062,0,0,0,40000
634373,129.55848693847656,16.75187110900879,-5143.0,-776.0,-261.0224609375,-837.3509521484375,0,0,0,40000
634383,125.54595184326172,15.950623512268066,-5291.0,-1015.0,-112.03038024902344,-813.2756958007812,0,0,0,40000
634393,122.80769348144531,15.34829330444336,-5430.0,-1276.0,-244.1795196533203,-796.84619140625,0,0,0,40000
634403,118.58943939208984,14.365321159362793,-5540.0,-1505.0,-58.83612060546875,-771.53662109375,0,0,0,40000
634413,115.73495483398438,13.57774829864502,-5623.0,-1726.0,-222.9329833984375,-754.4097290039062,0,0,0,40000
634423,111.4027099609375,12.25757122039795,-5632.0,-1952.0,32.68623352050781,-728.416259765625,0,0,0,40000
634433,108.51924896240234,11.212088584899902,-5676.0,-2143.0,-194.54505920410156,-711.115478515625,0,0,0,40000
634443,104.24864959716797,9.415199279785156,-5607.0,-2358.0,146.51040649414062,-685.4918823242188,0,0,0,40000
634453,101.47512817382812,8.04385757446289,-5534.0,-2527.0,-156.5262908935547,-668.8507690429688,0,0,0,40000
634463,97.4465560913086,5.71366548538208,-5386.0,-2681.0,278.5085144042969,-644.6793212890625,0,0,0,40000
634473,94.86540985107422,4.001422882080078,-5254.0,-2849.0,-108.01707458496094,-629.1924438476562,0,0,0,40000
634483,91.19933319091797,1.1714155673980713,-5176.0,-3035.0,410.1112976074219,-607.1959838867188,0,0,0,40000
634493,88.9034423828125,-0.8803040385246277,-4912.0,-3228.0,-49.42578887939453,-593.420654296875,0,0,0,40000
634503,85.6767578125,-4.150328636169434,-4714.0,-3360.0,548.5601806640625,-574.060546875,0,0,0,40000
634513,83.70423126220703,-6.471180438995361,-4463.0,-3460.0,17.915607452392578,-562.2254028320312,0,0,0,40000
634523,80.99309539794922,-10.106968879699707,-4212.0,-3592.0,679.0811767578125,-545.9585571289062,0,0,0,40000
634533,79.37973022460938,-12.642086029052734,-3980.0,-3691.0,92.57426452636719,-536.2783813476562,0,0,0,40000
634543,77.2226791381836,-16.549997329711914,-3685.0,-3810.0,799.4638671875,-523.3360595703125,0,0,0,40000
634553,75.98872375488281,-19.23649787902832,-3437.0,-3872.0,172.7012176513672,-515.932373046875,0,0,0,40000
634563,74.370849609375,-23.31556510925293,-3147.0,-3947.0,909.5950927734375,-506.22509765625,0,0,0,40000
634573,73.48007202148438,-26.08538818359375,-3004.0,-3985.0,256.287353515625,-500.88043212890625,0,0,0,40000
634583,72.41345977783203,-30.258010864257812,-2643.0,-4005.0,1007.265625,-494.48077392578125,0,0,0,40000
634593,71.87539672851562,-33.047515869140625,-2418.0,-3960.0,341.6482849121094,-491.25238037109375,0,0,0,40000
634603,71.36911010742188,-37.217899322509766,-2173.0,-3954.0,1084.1390380859375,-488.21466064453125,0,0,0,40000
634613,71.20209503173828,-39.97397232055664,-1861.0,-3844.0,426.99853515625,-487.21258544921875,0,0,0,40000
634623,71.23944854736328,-44.04444885253906,-1623.0,-3804.0,1150.62255859375,-487.43670654296875,0,0,0,40000
634633,71.48114013671875,-46.71152877807617,-1432.0,-3687.0,510.4913024902344,-488.8868408203125,0,0,0,40000
634643,72.10860443115234,-50.62458419799805,-1190.0,-3563.0,1203.3292236328125,-492.651611328125,0,0,0,40000
634653,72.72039031982422,-53.17576599121094,-1012.0,-3451.0,591.0990600585938,-496.32232666015625,0,0,0,40000
634663,74.0029067993164,-56.86688995361328,-854.0,-3343.0,1245.6990966796875,-504.0174560546875,0,0,0,40000
634673,75.09302520751953,-59.24671173095703,-670.0,-3182.0,667.3614501953125,-510.55816650390625,0,0,0,40000
634683,77.12318420410156,-62.6622314453125,-528.0,-3012.0,1268.5556640625,-522.7391357421875,0,0,0,40000
634693,78.79606628417969,-64.85134887695312,-381.0,-2903.0,738.3759155273438,-532.7763671875,0,0,0,40000
634703,81.91197967529297,-67.96636199951172,-244.0,-2759.0,1284.6820068359375,-551.4718627929688,0,30,0,40000
634713,84.45438385009766,-69.92313385009766,-160.0,-2566.0,442.5938415527344,-566.726318359375,0,30,0,40000
634723,89.14086151123047,-72.67826080322266,-108.0,-2409.0,922.9405517578125,-594.8451538085938,0,30,0,40000
634733,92.99779510498047,-74.36296081542969,-48.0,-2252.0,498.4305419921875,-617.9867553710938,0,30,0,40000
634743,100.2368392944336,-76.64779663085938,50.0,-2082.0,889.20947265625,-661.4210205078125,0,30,0,40000
634753,106.25508880615234,-77.97303009033203,80.0,-1846.0,544.5478515625,-697.530517578125,0,30,0,40000
634763,117.57601928710938,-79.63050079345703,93.0,-1641.0,819.1044311523438,-765.4561157226562,0,30,0,40000
634773,127.03768920898438,-80.47297668457031,76.0,-1464.0,577.5217895507812,-822.2261352539062,0,30,0,40000
634783,143.9448699951172,-81.27777099609375,115.0,-1299.0,691.3285522460938,-923.669189453125,0,30,0,40000
634793,156.21923828125,-81.50975799560547,110.0,-1082.0,593.0361328125,-997.3154296875,0,30,0,40000
634803,174.23582458496094,-81.4727783203125,55.0,-738.0,567.3475341796875,-1105.4149169921875,0,30,0,40000
634813,-174.80850219726562,-81.2823486328125,8.0,-272.0,593.393798828125,990.9487915039062,0,30,0,40000
634823,-159.95806884765625,-80.92776489257812,-11.0,292.0,532.4357299804688,906.8182983398438,0,30,0,40000
634833,-150.69093322753906,-80.68714904785156,-59.0,905.0,589.3069458007812,855.8473510742188,0,30,0,40000
634843,-136.700439453125,-80.34819030761719,-101.0,1592.0,529.9683227539062,776.1746215820312,0,30,0,40000
634853,-126.73723602294922,-80.10347747802734,-156.0,2412.0,585.323486328125,720.3180541992188,0,30,0,40000
634863,-110.5756607055664,-79.58404541015625,-237.0,3222.0,473.6437683105469,626.8640747070312,0,30,0,40000
634873,-99.20015716552734,-78.98583221435547,-311.0,4069.0,574.883544921875,561.7234497070312,0,30,0,40000
634883,-82.94035339355469,-77.50184631347656,-411.0,4814.0,265.25836181640625,466.84295654296875,0,30,0,40000
634893,-73.4453353881836,-76.04572296142578,-529.0,5483.0,542.44677734375,412.188232421875,0,30,0,40000
634903,-61.87077331542969,-73.18122863769531,-624.0,6122.0,-13.521544456481934,344.72747802734375,0,30,0,40000
634913,-55.79841613769531,-70.86605072021484,-711.0,6641.0,482.8768310546875,310.03826904296875,0,30,0,40000
634923,-48.76118087768555,-66.86320495605469,-807.0,7124.0,-264.7120056152344,269.35638427734375,0,30,0,40000
634933,-45.13100814819336,-63.89543151855469,-963.0,7576.0,401.4377746582031,248.9716796875,0,30,0,40000
634943,-40.869659423828125,-59.0692024230957,-1071.0,8025.0,-480.8003234863281,224.67782592773438,0,30,0,40000
634953,-38.64282989501953,-55.647071838378906,-1179.0,8399.0,304.19921875,212.50213623046875,0,30,0,40000
634963,-36.04182052612305,-50.25017166137695,-1301.0,8735.0,-676.6307983398438,198.00640869140625,0,30,0,40000
634973,-34.70318603515625,-46.50892639160156,-1433.0,9051.0,195.75491333007812,191.0313262939453,0,30,0,40000
634983,-33.16614532470703,-40.66437911987305,-1517.0,9381.0,-859.43017578125,182.8211212158203,0,30,0,40000
634993,-32.4145393371582,-36.65399169921875,-1623.0,9663.0,78.13419342041016,179.2926483154297,0,30,0,40000
635003,-31.643552780151367,-30.49622917175293,-1658.0,9958.0,-1031.28466796875,175.6243438720703,0,30,0,40000
635013,-31.348331451416016,-26.301467895507812,-1734.0,10217.0,-46.06736373901367,174.79678344726562,0,30,0,40000
635023,-31.186113357543945,-19.925195693969727,-1783.0,10496.0,-1191.9732666015625,174.7600860595703,0,30,0,40000
635033,-31.26052474975586,-15.603641510009766,-1746.0,10779.0,-175.04669189453125,176.143310546875,0,30,0,40000
635043,-31.638185501098633,-9.069069862365723,-1735.0,11036.0,-1347.6444091796875,179.35289001464844,0,30,0,40000
635053,-32.081939697265625,-4.684584617614746,-1661.0,11280.0,-307.33148193359375,182.9722900390625,0,30,0,40000
635063,-33.05262756347656,1.9037944078445435,-1518.0,11551.0,-1487.542236328125,189.77540588378906,0,30,0,40000
635073,-33.936344146728516,6.294757843017578,-1374.0,11789.0,-440.9978332519531,196.08493041992188,0,30,0,40000
635083,-35.642086029052734,12.870797157287598,-1208.0,12035.0,-1613.7803955078125,207.36685180664062,0,30,0,40000
635093,-37.08859634399414,17.213525772094727,-1015.0,12290.0,-574.5946044921875,217.14089965820312,0,30,0,40000
635103,-39.80116271972656,23.65224838256836,-845.0,12559.0,-1718.72802734375,234.57565307617188,0,30,0,40000
635113,-42.058265686035156,27.86235237121582,-626.0,12784.0,-705.5986938476562,249.3523406982422,0,30,0,40000
635123,-46.27716827392578,33.93025207519531,-458.0,12982.0,-1769.8052978515625,276.0004577636719,0,30,0,40000
635133,-49.788509368896484,37.745269775390625,-290.0,13248.0,-828.026611328125,298.51910400390625,0,30,0,40000
635143,-56.369422912597656,42.972896575927734,-155.0,13433.0,-1722.446044921875,339.6122131347656,0,30,0,40000
635153,-61.77510452270508,45.96593475341797,-85.0,13629.0,-931.046875,373.8333435058594,0,30,0,40000
635163,-71.54609680175781,49.449398040771484,-68.0,13765.0,-1476.5863037109375,434.4830627441406,0,30,0,40000
635173,-79.06983184814453,50.89888381958008,-58.0,13972.0,-994.9984130859375,481.90625,0,30,0,40000
635183,-91.20159149169922,51.47821044921875,-3.0,14107.0,-986.0864868164062,557.2858276367188,0,30,0,40000
635193,-99.21961212158203,50.730587005615234,128.0,14100.0,-997.8540649414062,608.2750244140625,0,30,0,40000
635203,-110.05194091796875,48.04216384887695,115.0,13913.0,-425.4676208496094,676.4456787109375,0,30,0,40000
635213,-116.08832550048828,45.41259765625,145.0,13608.0,-938.7109985351562,716.0755615234375,0,30,0,40000
635223,-123.30834197998047,40.551422119140625,267.0,13417.0,-23.335613250732422,763.013671875,0,30,0,40000
