timestamp,stabilizer.roll,stabilizer.pitch,stateEstimateZ.rateRoll,stateEstimateZ.ratePitch,controller.pitchRate,controller.rollRate,roll,pitch,yawdot,thrust
505932,-35.226585388183594,61.1416130065918,-2.0,-2.0,-369.41766357421875,212.8388214111328,0,0,0,40000
505942,-35.23949432373047,61.129207611083984,-9.0,-21.0,-371.17724609375,213.97332763671875,0,0,0,40000
505952,-35.25981521606445,61.0906867980957,-36.0,-87.0,-372.77947998046875,215.1528778076172,0,0,0,40000
505962,-35.24805450439453,61.029537200927734,17.0,-196.0,-374.2442932128906,216.14004516601562,0,0,0,40000
505972,-35.11682891845703,60.84143829345703,26.0,-416.0,-374.9436950683594,216.40847778320312,0,0,0,40000
505982,-34.88652801513672,60.6009635925293,51.0,-714.0,-375.3219299316406,216.07626342773438,0,0,0,40000
505992,-34.27647018432617,60.05821990966797,-14.0,-1192.0,-373.87451171875,213.452392578125,0,0,0,40000
506002,-33.598289489746094,59.484771728515625,-19.0,-1760.0,-372.2254943847656,210.39967346191406,0,0,0,40000
506012,-32.256961822509766,58.291133880615234,100.0,-2426.0,-366.82794189453125,203.33692932128906,0,0,0,40000
506022,-31.1314640045166,57.22587203979492,171.0,-3175.0,-362.16632080078125,197.5316925048828,0,0,0,40000
506032,-29.106122970581055,55.132408142089844,112.0,-4034.0,-351.28619384765625,186.27784729003906,0,0,0,40000
506042,-27.571714401245117,53.36678695678711,124.0,-4946.0,-342.3151550292969,177.91702270507812,0,0,0,40000
506052,-25.14521598815918,50.124794006347656,245.0,-5868.0,-324.4078063964844,164.14183044433594,0,0,0,40000
506062,-23.483407974243164,47.56426239013672,392.0,-6725.0,-310.502685546875,154.8955078125,0,0,0,40000
506072,-21.020793914794922,43.185150146484375,544.0,-7450.0,-285.5777282714844,140.77981567382812,0,0,0,40000
506082,-19.43733024597168,39.95893478393555,752.0,-7923.0,-267.4582214355469,131.881103515625,0,0,0,40000
506092,-17.196882247924805,34.83149337768555,1014.0,-8191.0,-237.80081176757812,118.98091888427734,0,0,0,40000
506102,-15.791494369506836,31.308319091796875,1307.0,-8274.0,-217.64332580566406,111.03907775878906,0,0,0,40000
506112,-13.778565406799316,26.033905029296875,1546.0,-8041.0,-186.8407745361328,99.39859008789062,0,0,0,40000
506122,-12.486323356628418,22.632793426513672,1806.0,-7587.0,-167.1537628173828,92.0351333618164,0,0,0,40000
506132,-10.584778785705566,17.860437393188477,2059.0,-6898.0,-139.11141967773438,80.96603393554688,0,0,0,40000
506142,-9.31566047668457,15.007475852966309,2325.0,-6029.0,-122.47762298583984,73.64607238769531,0,0,0,40000
506152,-7.408020496368408,11.364103317260742,2570.0,-4932.0,-100.99976348876953,62.4455451965332,0,0,0,40000
506162,-6.1176018714904785,9.461808204650879,2723.0,-3618.0,-89.89195251464844,54.90211868286133,0,0,0,40000
506172,-4.131270885467529,7.473061561584473,2848.0,-2303.0,-78.20474243164062,43.132022857666016,0,0,0,40000
506182,-2.7988057136535645,6.729170322418213,2848.0,-1048.0,-73.95152282714844,35.237144470214844,0,0,0,40000
506192,-0.8044512867927551,6.384024620056152,2827.0,-37.0,-72.0740966796875,23.31898307800293,0,0,0,40000
506202,0.501257061958313,6.563612461090088,2787.0,771.0,-73.34591674804688,15.485384941101074,0,0,0,40000
506212,2.4115710258483887,7.284181594848633,2713.0,1309.0,-77.87799072265625,3.973954200744629,0,0,0,40000
506222,3.6291096210479736,7.965302467346191,2543.0,1663.0,-82.19529724121094,-3.425647735595703,0,0,0,40000
506232,5.374998569488525,9.139646530151367,2381.0,1808.0,-89.5011978149414,-14.04165267944336,0,0,0,40000
506242,6.467563152313232,9.95570182800293,2178.0,1809.0,-94.6864013671875,-20.778087615966797,0,0,0,40000
506252,7.9732747077941895,11.145051956176758,1949.0,1719.0,-102.14282989501953,-30.03399658203125,0,0,0,40000
506262,8.869619369506836,11.861100196838379,1733.0,1517.0,-106.78648376464844,-35.6674690246582,0,0,0,40000
506272,10.040022850036621,12.72829532623291,1472.0,1163.0,-112.3619155883789,-42.977561950683594,0,0,0,40000
506282,10.690117835998535,13.123255729675293,1235.0,684.0,-115.12089538574219,-47.1911735534668,0,0,0,40000
506292,11.47214412689209,13.378477096557617,916.0,153.0,-117.05168914794922,-52.21897888183594,0,0,0,40000
506302,11.850414276123047,13.28376579284668,616.0,-471.0,-116.88340759277344,-54.839805603027344,0,0,0,40000
506312,12.193187713623047,12.694523811340332,346.0,-1207.0,-113.7374038696289,-57.258827209472656,0,0,0,40000
506322,12.280717849731445,11.986137390136719,115.0,-1915.0,-109.85553741455078,-58.151512145996094,0,0,0,40000
506332,12.202216148376465,10.458535194396973,-138.0,-2605.0,-101.02349853515625,-58.0480842590332,0,0,0,40000
506342,12.016228675842285,9.16060733795166,-403.0,-3133.0,-93.52659606933594,-57.295005798339844,0,0,0,40000
506352,11.565995216369629,6.948545455932617,-666.0,-3453.0,-80.48989868164062,-54.946533203125,0,0,0,40000
506362,11.166271209716797,5.379624843597412,-891.0,-3524.0,-71.25663757324219,-52.888092041015625,0,0,0,40000
506372,10.446495056152344,3.047245979309082,-1097.0,-3420.0,-57.38158416748047,-48.891822814941406,0,0,0,40000
506382,9.886263847351074,1.5740793943405151,-1299.0,-3133.0,-48.60734176635742,-45.833839416503906,0,0,0,40000
506392,8.935572624206543,-0.3846021294593811,-1460.0,-2654.0,-36.866207122802734,-40.40949249267578,0,0,0,40000
506402,8.249310493469238,-1.4648571014404297,-1551.0,-2105.0,-30.353397369384766,-36.547664642333984,0,0,0,40000
506412,7.153359413146973,-2.7078592777252197,-1638.0,-1540.0,-22.82785987854004,-30.1999568939209,0,0,0,40000
506422,6.38493537902832,-3.291670799255371,-1675.0,-1001.0,-19.23297691345215,-25.790218353271484,0,0,0,40000
506432,5.224134922027588,-3.8343217372894287,-1693.0,-524.0,-15.86750602722168,-18.996135711669922,0,0,0,40000
506442,4.4594902992248535,-3.9824349880218506,-1658.0,-111.0,-14.860906600952148,-14.551189422607422,0,0,0,40000
506452,3.3412325382232666,-3.9412777423858643,-1569.0,219.0,-14.988410949707031,-7.955044746398926,0,0,0,40000
506462,2.634237766265869,-3.7902779579162598,-1482.0,422.0,-15.77878189086914,-3.8005285263061523,0,0,0,40000
506472,1.6455605030059814,-3.4489212036132812,-1385.0,533.0,-17.71915054321289,2.0705032348632812,0,0,0,40000
506482,1.0473566055297852,-3.20139479637146,-1254.0,512.0,-19.105344772338867,5.621192932128906,0,0,0,40000
506492,0.23742564022541046,-2.898418664932251,-1113.0,418.0,-20.832792282104492,10.464303970336914,0,0,0,40000
506502,-0.23037280142307281,-2.746584177017212,-941.0,251.0,-21.6596736907959,13.272499084472656,0,0,0,40000
506512,-0.8107081651687622,-2.663525342941284,-776.0,18.0,-22.07772445678711,16.772258758544922,0,0,0,40000
506522,-1.1237144470214844,-2.7223129272460938,-595.0,-235.0,-21.644161224365234,18.680355072021484,0,0,0,40000
506532,-1.4580862522125244,-2.9900667667388916,-404.0,-517.0,-19.951780319213867,20.726707458496094,0,0,0,40000
506542,-1.5917294025421143,-3.303661584854126,-218.0,-764.0,-17.975008010864258,21.57484245300293,0,0,0,40000
506552,-1.6749929189682007,-3.8867666721343994,-46.0,-897.0,-14.367036819458008,22.1240291595459,0,0,0,40000
506562,-1.6405752897262573,-4.321463584899902,139.0,-983.0,-11.634477615356445,21.967220306396484,0,0,0,40000
506572,-1.4720451831817627,-4.990344524383545,285.0,-955.0,-7.479442596435547,21.00248146057129,0,0,0,40000
506582,-1.2791104316711426,-5.421477794647217,462.0,-936.0,-4.735164642333984,19.885623931884766,0,0,0,40000
506592,-0.8951355814933777,-6.018202304840088,612.0,-822.0,-0.9811935424804688,17.613574981689453,0,0,0,40000
506602,-0.578367292881012,-6.354847431182861,711.0,-658.0,1.2253875732421875,15.734169006347656,0,0,0,40000
506612,-0.0434543751180172,-6.722865104675293,806.0,-461.0,3.6312332153320312,12.532607078552246,0,0,0,40000
506622,0.34485241770744324,-6.8779449462890625,858.0,-256.0,4.766254425048828,10.197101593017578,0,0,0,40000
506632,0.9613733291625977,-6.995684623718262,894.0,-109.0,5.681526184082031,6.476625442504883,0,0,0,40000
506642,1.3883411884307861,-7.0054755210876465,947.0,26.0,5.950370788574219,3.8783111572265625,0,0,0,40000
506652,2.0446364879608154,-6.948787689208984,922.0,138.0,5.819648742675781,-0.11301040649414062,0,0,0,40000
506662,2.481609344482422,-6.875234127044678,892.0,175.0,5.585506439208984,-2.8040733337402344,0,0,0,40000
506672,3.0959737300872803,-6.736659049987793,854.0,193.0,4.9578399658203125,-6.5758514404296875,0,0,0,40000
506682,3.47871470451355,-6.653021335601807,806.0,148.0,4.656585693359375,-8.972049713134766,0,0,0,40000
506692,3.9869112968444824,-6.567884922027588,712.0,72.0,4.3436126708984375,-12.134932518005371,0,0,0,40000
506702,4.2889814376831055,-6.550539016723633,622.0,5.0,4.436191558837891,-14.072433471679688,0,0,0,40000
506712,4.674553871154785,-6.587307453155518,507.0,-88.0,4.85382080078125,-16.52174186706543,0,0,0,40000
506722,4.882042407989502,-6.650336265563965,408.0,-181.0,5.430721282958984,-17.91072654724121,0,0,0,40000
506732,5.124027252197266,-6.779872417449951,286.0,-198.0,6.409725189208984,-19.513731002807617,0,0,0,40000
506742,5.223986625671387,-6.869481086730957,182.0,-213.0,7.152366638183594,-20.269084930419922,0,0,0,40000
506752,5.306327819824219,-7.022129535675049,78.0,-238.0,8.277030944824219,-20.92151641845703,0,0,0,40000
506762,5.313772201538086,-7.124588489532471,-29.0,-226.0,9.104278564453125,-21.12556266784668,0,0,0,40000
506772,5.248752117156982,-7.258209228515625,-145.0,-190.0,10.122180938720703,-20.893938064575195,0,0,0,40000
506782,5.159677982330322,-7.325989246368408,-248.0,-116.0,10.747867584228516,-20.51542091369629,0,0,0,40000
506792,4.947266578674316,-7.389131546020508,-338.0,-60.0,11.347797393798828,-19.39215087890625,0,0,0,40000
506802,4.781218528747559,-7.402529716491699,-373.0,-15.0,11.650104522705078,-18.541311264038086,0,0,0,40000
506812,4.475902557373047,-7.399752616882324,-474.0,40.0,11.855571746826172,-16.84754753112793,0,0,0,40000
506822,4.235468864440918,-7.368776798248291,-507.0,107.0,11.891231536865234,-15.53492259979248,0,0,0,40000
506832,3.8456923961639404,-7.2865190505981445,-569.0,144.0,11.617355346679688,-13.31640338897705,0,0,0,40000
506842,3.579836845397949,-7.207159996032715,-577.0,195.0,11.358386993408203,-11.83184814453125,0,0,0,40000
506852,3.170466899871826,-7.067843914031982,-608.0,197.0,10.736186981201172,-9.475730895996094,0,0,0,40000
506862,2.889284610748291,-6.982256889343262,-613.0,184.0,10.433162689208984,-7.8787031173706055,0,0,0,40000
506872,2.4711101055145264,-6.866539001464844,-588.0,164.0,9.946189880371094,-5.448726654052734,0,0,0,40000
506882,2.2005276679992676,-6.805166721343994,-552.0,137.0,9.78286361694336,-3.894455909729004,0,0,0,40000
506892,1.81950044631958,-6.748097896575928,-522.0,81.0,9.643489837646484,-1.6673574447631836,0,0,0,40000
506902,1.5901013612747192,-6.720239162445068,-479.0,65.0,9.67828369140625,-0.34140491485595703,0,0,0,40000
506912,1.2796982526779175,-6.688443660736084,-421.0,40.0,9.688547134399414,1.479039192199707,0,0,0,40000
506922,1.1028820276260376,-6.690300464630127,-344.0,-17.0,9.900337219238281,2.5047645568847656,0,0,0,40000
506932,0.8918601870536804,-6.714443206787109,-283.0,-48.0,10.246238708496094,3.7417259216308594,0,0,0,40000
506942,0.7794893980026245,-6.744326114654541,-185.0,-94.0,10.627498626708984,4.391304969787598,0,0,0,40000
506952,0.6781083941459656,-6.805017948150635,-107.0,-99.0,11.195014953613281,4.978209495544434,0,0,0,40000
506962,0.6319087147712708,-6.842897415161133,-61.0,-80.0,11.627147674560547,5.235936164855957,0,0,0,40000
506972,0.6149625182151794,-6.875270843505859,8.0,-18.0,12.027400970458984,5.319115161895752,0,0,0,40000
506982,0.6405062675476074,-6.890227794647217,46.0,-22.0,12.323665618896484,5.146933555603027,0,0,0,40000
506992,0.7116721272468567,-6.895288944244385,122.0,6.0,12.56093978881836,4.699605941772461,0,0,0,40000
507002,0.7867603898048401,-6.869412422180176,159.0,78.0,12.612091064453125,4.22637414932251,0,0,0,40000
507012,0.9188469052314758,-6.80432653427124,201.0,105.0,12.426525115966797,3.4079971313476562,0,0,0,40000
507022,1.0216089487075806,-6.745728969573975,252.0,132.0,12.278038024902344,2.7620296478271484,0,0,0,40000
507032,1.2088412046432495,-6.631155967712402,287.0,172.0,11.790931701660156,1.604701042175293,0,0,0,40000
507042,1.343584656715393,-6.56245756149292,299.0,169.0,11.576435089111328,0.7575607299804688,0,0,0,40000
507052,1.5510926246643066,-6.4478840827941895,302.0,133.0,11.083690643310547,-0.5315446853637695,0,0,0,40000
507062,1.688421368598938,-6.384428977966309,279.0,135.0,10.895252227783203,-1.4045476913452148,0,0,0,40000
507072,1.885354995727539,-6.286444664001465,279.0,118.0,10.497047424316406,-2.6403465270996094,0,0,0,40000
507082,2.0129971504211426,-6.22680139541626,254.0,105.0,10.326679229736328,-3.4650821685791016,0,0,0,40000
507092,2.188793897628784,-6.152442455291748,256.0,102.0,10.06597900390625,-4.5833892822265625,0,0,0,40000
507102,2.28928542137146,-6.121446132659912,192.0,69.0,10.063983917236328,-5.253843307495117,0,0,0,40000
507112,2.4149863719940186,-6.080555438995361,162.0,36.0,10.001472473144531,-6.079082489013672,0,0,0,40000
507122,2.4759998321533203,-6.066028118133545,127.0,7.0,10.096416473388672,-6.518732070922852,0,0,0,40000
507132,2.556225299835205,-6.068557262420654,103.0,-15.0,10.293567657470703,-7.075823783874512,0,0,0,40000
507142,2.578389883041382,-6.0967183113098145,35.0,-85.0,10.645042419433594,-7.285950660705566,0,0,0,40000
507152,2.588762044906616,-6.155004024505615,10.0,-69.0,11.178707122802734,-7.425745964050293,0,0,0,40000
507162,2.576101064682007,-6.188023567199707,-34.0,-65.0,11.562080383300781,-7.427236557006836,0,0,0,40000
507172,2.5337955951690674,-6.225228309631348,-73.0,-56.0,11.971626281738281,-7.250007629394531,0,0,0,40000
507182,2.49267578125,-6.241702556610107,-88.0,-31.0,12.25754165649414,-7.078568458557129,0,0,0,40000
507192,2.4058921337127686,-6.242369174957275,-138.0,32.0,12.44896125793457,-6.631201267242432,0,0,0,40000
507202,2.3344857692718506,-6.223639011383057,-168.0,51.0,12.52349853515625,-6.273677825927734,0,0,0,40000
507212,2.2089664936065674,-6.177240371704102,-191.0,82.0,12.431058883666992,-5.588409423828125,0,0,0,40000
507222,2.114853858947754,-6.131322383880615,-218.0,121.0,12.340072631835938,-5.088335037231445,0,0,0,40000
507232,1.9671657085418701,-6.041106700897217,-221.0,139.0,11.981119155883789,-4.263009548187256,0,0,0,40000
507242,1.8621145486831665,-5.970026016235352,-224.0,183.0,11.734607696533203,-3.689815044403076,0,0,0,40000
507252,1.7031651735305786,-5.847000598907471,-227.0,180.0,11.17336654663086,-2.7891159057617188,0,0,0,40000
507262,1.6002846956253052,-5.774535655975342,-222.0,150.0,10.912664413452148,-2.221086025238037,0,0,0,40000
507272,1.4597766399383545,-5.674166679382324,-205.0,132.0,10.481849670410156,-1.4235095977783203,0,0,0,40000
507282,1.3766815662384033,-5.613647937774658,-201.0,136.0,10.287872314453125,-0.9672479629516602,0,0,0,40000
507292,1.2977194786071777,-5.545958518981934,-148.0,141.0,10.01522445678711,-0.5250334739685059,0,0,0,40000
507302,1.199044108390808,-5.456177234649658,-125.0,153.0,9.641271591186523,0.029940128326416016,0,0,0,40000
507312,1.1453230381011963,-5.401857376098633,-110.0,102.0,9.47802734375,0.317263126373291,0,0,0,40000
507322,1.0813709497451782,-5.3334808349609375,-82.0,103.0,9.228546142578125,0.6678314208984375,0,0,0,40000
507332,1.0458134412765503,-5.2880330085754395,-74.0,50.0,9.115036010742188,0.8493814468383789,0,0,0,40000
507342,1.0304079055786133,-5.243599891662598,-13.0,33.0,9.006250381469727,0.9108710289001465,0,0,0,40000
507352,1.028901219367981,-5.230153560638428,10.0,38.0,9.082618713378906,0.8890604972839355,0,0,0,40000
507362,1.0518401861190796,-5.20235013961792,49.0,54.0,9.072257995605469,0.7202510833740234,0,0,0,40000
507372,1.0782716274261475,-5.182329177856445,83.0,51.0,9.10784912109375,0.5296411514282227,0,0,0,40000
507382,1.1462386846542358,-5.154041767120361,105.0,40.0,9.093097686767578,0.08829402923583984,0,0,0,40000
507392,1.2078016996383667,-5.138948440551758,114.0,23.0,9.1568603515625,-0.3166041374206543,0,0,0,40000
507402,1.303707480430603,-5.118039608001709,156.0,37.0,9.185260772705078,-0.9299101829528809,0,0,0,40000
507412,1.378434419631958,-5.095396041870117,162.0,62.0,9.20254898071289,-1.4187302589416504,0,0,0,40000
507422,1.495378017425537,-5.042271614074707,189.0,83.0,9.035724639892578,-2.1637887954711914,0,0,0,40000
507432,1.5807795524597168,-5.002171039581299,183.0,86.0,8.945663452148438,-2.7225723266601562,0,0,0,40000
507442,1.712085247039795,-4.933025360107422,179.0,116.0,8.67965316772461,-3.5601840019226074,0,0,0,40000
507452,1.7922338247299194,-4.873935699462891,182.0,127.0,8.472042083740234,-4.093861103057861,0,0,0,40000
507462,1.9071154594421387,-4.778548717498779,171.0,156.0,8.044290542602539,-4.838996887207031,0,0,0,40000
507472,1.977577567100525,-4.70278263092041,149.0,159.0,7.731679916381836,-5.3203043937683105,0,0,0,40000
507482,2.0680227279663086,-4.606886863708496,96.0,117.0,7.2955474853515625,-5.924075603485107,0,0,0,40000
507492,2.110337018966675,-4.567249774932861,64.0,64.0,7.195198059082031,-6.240778923034668,0,0,0,40000
507502,2.1461691856384277,-4.531247138977051,41.0,45.0,7.115499496459961,-6.519731521606445,0,0,0,40000
507512,2.1623592376708984,-4.515992641448975,27.0,-11.0,7.15962028503418,-6.681527137756348,0,0,0,40000
507522,2.1709868907928467,-4.519211292266846,15.0,-4.0,7.314411163330078,-6.798366546630859,0,0,0,40000
507532,2.1576688289642334,-4.526574611663818,-42.0,3.0,7.494314193725586,-6.783417701721191,0,0,0,40000
507542,2.1342055797576904,-4.506936550140381,-59.0,41.0,7.511993408203125,-6.707004547119141,0,0,0,40000
507552,2.098909616470337,-4.482580661773682,-103.0,89.0,7.500633239746094,-6.558629512786865,0,0,0,40000
507562,2.0385806560516357,-4.3969035148620605,-80.0,154.0,7.1197052001953125,-6.258441925048828,0,0,0,40000
507572,1.9784736633300781,-4.324951648712158,-109.0,173.0,6.81861686706543,-5.957892417907715,0,0,0,40000
507582,1.8973091840744019,-4.21193790435791,-99.0,159.0,6.26823616027832,-5.528794288635254,0,0,0,40000
507592,1.8452575206756592,-4.145738124847412,-143.0,144.0,5.996166229248047,-5.272503852844238,0,0,0,40000
507602,1.7470585107803345,-4.078063488006592,-152.0,94.0,5.713171005249023,-4.736929893493652,0,0,0,40000
507612,1.6765691041946411,-4.049999237060547,-158.0,35.0,5.666603088378906,-4.365145206451416,0,0,0,40000
507622,1.5673246383666992,-4.03251838684082,-151.0,7.0,5.6828765869140625,-3.7579970359802246,0,0,0,40000
507632,1.4928659200668335,-4.034343242645264,-154.0,-2.0,5.814800262451172,-3.3569297790527344,0,0,0,40000
507642,1.390518307685852,-4.034934997558594,-135.0,1.0,5.939403533935547,-2.785701274871826,0,0,0,40000
507652,1.3321788311004639,-4.035007953643799,-129.0,-7.0,6.060878753662109,-2.476315498352051,0,0,0,40000
507662,1.2466379404067993,-4.033061504364014,-106.0,3.0,6.170234680175781,-2.001434803009033,0,0,0,40000
507672,1.195578694343567,-4.0246686935424805,-94.0,27.0,6.240732192993164,-1.7315473556518555,0,0,0,40000
507682,1.1307121515274048,-4.007756233215332,-78.0,40.0,6.259706497192383,-1.377018928527832,0,0,0,40000
507692,1.0996578931808472,-3.98506760597229,-58.0,54.0,6.243429183959961,-1.2240638732910156,0,0,0,40000
507702,1.071954369544983,-3.929840326309204,-29.0,83.0,6.030681610107422,-1.0902624130249023,0,0,0,40000
507712,1.0630511045455933,-3.8810713291168213,-10.0,120.0,5.855113983154297,-1.068826675415039,0,0,0,40000
507722,1.0709431171417236,-3.7980093955993652,7.0,101.0,5.471582412719727,-1.1481752395629883,0,0,0,40000
507732,1.0864224433898926,-3.7598278522491455,41.0,94.0,5.355747222900391,-1.2734498977661133,0,0,0,40000
507742,1.1047236919403076,-3.7116384506225586,24.0,64.0,5.178472518920898,-1.4161944389343262,0,0,0,40000
507752,1.1238605976104736,-3.692561626434326,66.0,41.0,5.175018310546875,-1.5644536018371582,0,0,0,40000
507762,1.160021424293518,-3.652621030807495,55.0,52.0,5.045452117919922,-1.8158421516418457,0,0,0,40000
507772,1.1920613050460815,-3.620213508605957,76.0,67.0,4.960020065307617,-2.043442726135254,0,0,0,40000
507782,1.2422878742218018,-3.5623154640197754,55.0,60.0,4.720144271850586,-2.381547451019287,0,0,0,40000
507792,1.275382399559021,-3.534104108810425,55.0,49.0,4.657238006591797,-2.617982864379883,0,0,0,40000
507802,1.3171424865722656,-3.5168230533599854,59.0,9.0,4.659175872802734,-2.9075446128845215,0,0,0,40000
507812,1.3326627016067505,-3.532135009765625,40.0,-47.0,4.85679817199707,-3.040475845336914,0,0,0,40000
507822,1.3532569408416748,-3.5655951499938965,37.0,-25.0,5.164213180541992,-3.204378128051758,0,0,0,40000
507832,1.3643522262573242,-3.5767393112182617,24.0,4.0,5.33827018737793,-3.3117523193359375,0,0,0,40000
507842,1.384901762008667,-3.548147678375244,19.0,62.0,5.273618698120117,-3.4763736724853516,0,0,0,40000
507852,1.3958728313446045,-3.4911043643951416,13.0,160.0,5.0368499755859375,-3.5839529037475586,0,0,0,40000
507862,1.410112738609314,-3.3507893085479736,15.0,213.0,4.297244071960449,-3.711554527282715,0,0,0,40000
507872,1.4178496599197388,-3.244706869125366,10.0,257.0,3.7593936920166016,-3.800440788269043,0,0,0,40000
507882,1.4272469282150269,-3.0742084980010986,10.0,248.0,2.830617904663086,-3.8995394706726074,0,0,0,40000
507892,1.4253573417663574,-2.973879098892212,-7.0,219.0,2.3190670013427734,-3.930992603302002,0,0,0,40000
507902,1.4196789264678955,-2.8470704555511475,-8.0,151.0,1.645009994506836,-3.9395666122436523,0,0,0,40000
507912,1.4136972427368164,-2.802544116973877,-25.0,49.0,1.4624013900756836,-3.9461746215820312,0,0,0,40000
507922,1.3934139013290405,-2.808610677719116,-18.0,-68.0,1.582733154296875,-3.866558074951172,0,0,0,40000
507932,1.3836055994033813,-2.84548020362854,-42.0,-109.0,1.8888435363769531,-3.849374771118164,0,0,0,40000
507942,1.365883231163025,-2.9416980743408203,-33.0,-157.0,2.553159713745117,-3.7841782569885254,0,0,0,40000
507952,1.354081630706787,-3.0125932693481445,-27.0,-173.0,3.0680437088012695,-3.7541027069091797,0,0,0,40000
507962,1.3428603410720825,-3.128117084503174,-35.0,-138.0,3.8537187576293945,-3.727174758911133,0,0,0,40000
507972,1.32438063621521,-3.1764259338378906,-30.0,-88.0,4.238336563110352,-3.65620756149292,0,0,0,40000
507982,1.2998102903366089,-3.2134335041046143,-36.0,-30.0,4.5564470291137695,-3.5480799674987793,0,0,0,40000
507992,1.2803480625152588,-3.2142770290374756,-20.0,41.0,4.657960891723633,-3.4699349403381348,0,0,0,40000
508002,1.2573575973510742,-3.1544642448425293,-40.0,135.0,4.394615173339844,-3.370023727416992,0,0,0,40000
508012,1.2433547973632812,-3.080767869949341,-42.0,172.0,4.045771598815918,-3.323485851287842,0,0,0,40000
508022,1.2131167650222778,-2.948591470718384,-28.0,213.0,3.342794418334961,-3.1787567138671875,0,0,0,40000
508032,1.1915555000305176,-2.8546271324157715,-46.0,207.0,2.865774154663086,-3.085397720336914,0,0,0,40000
508042,1.1568764448165894,-2.7154433727264404,-41.0,214.0,2.1138267517089844,-2.912445068359375,0,0,0,40000
508052,1.1332441568374634,-2.625760316848755,-66.0,153.0,1.6555500030517578,-2.80495285987854,0,0,0,40000
508062,1.0932364463806152,-2.5356125831604004,-67.0,78.0,1.1916437149047852,-2.598224639892578,0,0,0,40000
508072,1.07198965549469,-2.519282341003418,-60.0,14.0,1.1694231033325195,-2.5031578540802,0,0,0,40000
508082,1.0378884077072144,-2.5231130123138428,-54.0,-39.0,1.2679328918457031,-2.3300657272338867,0,0,0,40000
508092,1.0046435594558716,-2.5390079021453857,-44.0,-42.0,1.4392986297607422,-2.161118268966675,0,0,0,40000
508102,0.9605565071105957,-2.564521551132202,-41.0,-31.0,1.6690473556518555,-1.925931453704834,0,0,0,40000
508112,0.9386515617370605,-2.5820205211639404,-50.0,-32.0,1.851297378540039,-1.822941541671753,0,0,0,40000
508122,0.9203482866287231,-2.6010665893554688,-24.0,6.0,2.0435028076171875,-1.74094820022583,0,0,0,40000
508132,0.9037892818450928,-2.6125922203063965,-32.0,-41.0,2.190871238708496,-1.6689033508300781,0,0,0,40000
508142,0.8775283098220825,-2.6413025856018066,-27.0,-31.0,2.442103385925293,-1.5379638671875,0,0,0,40000
508152,0.864913284778595,-2.647345781326294,-34.0,-13.0,2.557724952697754,-1.4883768558502197,0,0,0,40000
508162,0.8409596681594849,-2.636101007461548,-41.0,39.0,2.569643020629883,-1.370157241821289,0,0,0,40000
508172,0.8308525085449219,-2.6143832206726074,-25.0,66.0,2.518026351928711,-1.3345377445220947,0,0,0,40000
508182,0.8181896805763245,-2.5726735591888428,-20.0,81.0,2.3454856872558594,-1.2832489013671875,0,0,0,40000
508192,0.821609377861023,-2.5122296810150146,-4.0,149.0,2.05893611907959,-1.3283634185791016,0,0,0,40000
508202,0.8214545249938965,-2.401930570602417,-23.0,192.0,1.4706039428710938,-1.3521580696105957,0,0,0,40000
508212,0.8212604522705078,-2.3117775917053223,7.0,190.0,1.000107765197754,-1.3756012916564941,0,0,0,40000
508222,0.820383608341217,-2.1915955543518066,8.0,144.0,0.3461122512817383,-1.394942283630371,0,0,0,40000
508232,0.8191062211990356,-2.142817497253418,16.0,62.0,0.1182260513305664,-1.4118592739105225,0,0,0,40000
508242,0.8122611045837402,-2.1421308517456055,-13.0,-32.0,0.17818069458007812,-1.3952770233154297,0,0,0,40000
508252,0.8126869201660156,-2.1825501918792725,0.0,-107.0,0.48564815521240234,-1.4222023487091064,0,0,0,40000
508262,0.8093664050102234,-2.2845816612243652,-13.0,-163.0,1.1650371551513672,-1.4266319274902344,0,0,0,40000
508272,0.8202585577964783,-2.3604848384857178,18.0,-186.0,1.690373420715332,-1.516425371170044,0,0,0,40000
508282,0.815730631351471,-2.479525089263916,-10.0,-173.0,2.477585792541504,-1.5138449668884277,0,0,0,40000
508292,0.8108447194099426,-2.5647919178009033,9.0,-162.0,3.065113067626953,-1.5088889598846436,0,0,0,40000
508302,0.8006786704063416,-2.664968729019165,-17.0,-151.0,3.74495792388916,-1.472062587738037,0,0,0,40000
508312,0.7966381311416626,-2.7116665840148926,-28.0,-86.0,4.105989456176758,-1.4717698097229004,0,0,0,40000
508322,0.783113420009613,-2.7446036338806152,-39.0,-29.0,4.385704040527344,-1.414327621459961,0,0,0,40000
508332,0.7736052870750427,-2.7353765964508057,-33.0,30.0,4.412517547607422,-1.3806090354919434,0,0,0,40000
508342,0.7472934126853943,-2.6903865337371826,-34.0,93.0,4.224011421203613,-1.2454628944396973,0,0,0,40000
508352,0.7296543121337891,-2.6324517726898193,-15.0,133.0,3.9560699462890625,-1.1617255210876465,0,0,0,40000
508362,0.7127447128295898,-2.531536340713501,-31.0,149.0,3.4277725219726562,-1.0818922519683838,0,0,0,40000
508372,0.6962667107582092,-2.460359573364258,-29.0,138.0,3.075359344482422,-1.0041122436523438,0,0,0,40000
508382,0.6878564357757568,-2.3606536388397217,-10.0,133.0,2.5490989685058594,-0.9743478298187256,0,0,0,40000
508392,0.691867470741272,-2.303439140319824,-4.0,112.0,2.275592803955078,-1.0191166400909424,0,0,0,40000
508402,0.6898452639579773,-2.227405071258545,-9.0,114.0,1.8871526718139648,-1.0277132987976074,0,0,0,40000
508412,0.6840931177139282,-2.1748287677764893,9.0,116.0,1.6375856399536133,-1.0137529373168945,0,0,0,40000
508422,0.685011625289917,-2.088352680206299,8.0,129.0,1.182443618774414,-1.0398125648498535,0,0,0,40000
508432,0.6816630959510803,-2.042105197906494,-2.0,106.0,0.9667654037475586,-1.0402634143829346,0,0,0,40000
508442,0.6909902095794678,-1.9894171953201294,10.0,73.0,0.7109251022338867,-1.1168384552001953,0,0,0,40000
508452,0.7018885016441345,-1.9695496559143066,12.0,13.0,0.6510133743286133,-1.20316481590271,0,0,0,40000
508462,0.7114623188972473,-1.9785048961639404,16.0,-17.0,0.7639303207397461,-1.281785011291504,0,0,0,40000
508472,0.7209979891777039,-2.008216381072998,9.0,-70.0,1.0020666122436523,-1.3605291843414307,0,0,0,40000
508482,0.7242416143417358,-2.0639004707336426,9.0,-80.0,1.3973798751831055,-1.401679515838623,0,0,0,40000
508492,0.728914737701416,-2.1085355281829834,11.0,-93.0,1.7278985977172852,-1.4515483379364014,0,0,0,40000
508502,0.742648720741272,-2.1636383533477783,21.0,-74.0,2.122783660888672,-1.5560154914855957,0,0,0,40000
508512,0.7619080543518066,-2.1916656494140625,10.0,-24.0,2.3563785552978516,-1.6942172050476074,0,0,0,40000
508522,0.776641309261322,-2.1794092655181885,12.0,50.0,2.3485965728759766,-1.8057360649108887,0,0,0,40000
508532,0.7747244834899902,-2.1290202140808105,17.0,106.0,2.1107263565063477,-1.8174607753753662,0,0,0,40000
508542,0.7807002663612366,-2.038558006286621,22.0,130.0,1.6302032470703125,-1.87664794921875,0,0,0,40000
508552,0.7841379642486572,-1.9728670120239258,25.0,152.0,1.2960433959960938,-1.9207417964935303,0,0,0,40000
508562,0.7908207774162292,-1.8699980974197388,5.0,150.0,0.7360687255859375,-1.98451566696167,0,0,0,40000
508572,0.7861210703849792,-1.8214781284332275,-7.0,95.0,0.5001688003540039,-1.9799692630767822,0,0,0,40000
508582,0.7817220091819763,-1.783355712890625,-11.0,29.0,0.3252296447753906,-1.977118968963623,0,0,0,40000
508592,0.7686066031455994,-1.7874594926834106,-22.0,-32.0,0.4034109115600586,-1.921640157699585,0,0,0,40000
508602,0.75017911195755,-1.8142168521881104,-39.0,-61.0,0.6179904937744141,-1.8338823318481445,0,0,0,40000
508612,0.7356609106063843,-1.852890968322754,-40.0,-105.0,0.905116081237793,-1.769012212753296,0,0,0,40000
508622,0.7198547124862671,-1.9272451400756836,-17.0,-107.0,1.408177375793457,-1.6958987712860107,0,0,0,40000
508632,0.7081323862075806,-1.9574223756790161,-15.0,-37.0,1.6476335525512695,-1.6469314098358154,0,0,0,40000
508642,0.6887166500091553,-1.9556723833084106,-23.0,27.0,1.6959257125854492,-1.5512917041778564,0,0,0,40000
508652,0.6759042143821716,-1.9366424083709717,-55.0,56.0,1.6400814056396484,-1.4949052333831787,0,0,0,40000
508662,0.6419296860694885,-1.8754727840423584,-40.0,109.0,1.3301944732666016,-1.3106276988983154,0,0,0,40000
508672,0.6186643242835999,-1.8150545358657837,-47.0,134.0,1.022897720336914,-1.1898789405822754,0,0,0,40000
508682,0.5851498246192932,-1.7096389532089233,-40.0,138.0,0.4429178237915039,-1.0067427158355713,0,0,0,40000
508692,0.5607408881187439,-1.6514520645141602,-55.0,119.0,0.1440105438232422,-0.8773841857910156,0,0,0,40000
508702,0.5124022364616394,-1.5800753831863403,-61.0,86.0,-0.23607158660888672,-0.6032638549804688,0,0,0,40000
508712,0.4769667685031891,-1.5596580505371094,-59.0,29.0,-0.31157493591308594,-0.4053924083709717,0,0,0,40000
508722,0.42881619930267334,-1.5555943250656128,-83.0,21.0,-0.2892341613769531,-0.13001370429992676,0,0,0,40000
508732,0.38856106996536255,-1.5659246444702148,-80.0,-27.0,-0.18041229248046875,0.09938955307006836,0,0,0,40000
508742,0.33526262640953064,-1.5901294946670532,-83.0,-39.0,0.012195587158203125,0.4084787368774414,0,0,0,40000
508752,0.305655300617218,-1.617522954940796,-74.0,-91.0,0.22472381591796875,0.5765911340713501,0,0,0,40000
508762,0.24659788608551025,-1.6577122211456299,-93.0,-62.0,0.5151214599609375,0.9227447509765625,0,0,0,40000
508772,0.2181846797466278,-1.6757924556732178,-79.0,-34.0,0.6736621856689453,1.0863232612609863,0,0,0,40000
508782,0.1712832897901535,-1.6992164850234985,-82.0,-39.0,0.8649196624755859,1.3619859218597412,0,0,0,40000
508792,0.1495940238237381,-1.7162110805511475,-36.0,-22.0,1.0181884765625,1.4874162673950195,0,0,0,40000
508802,0.1043572798371315,-1.734948754310608,-63.0,-19.0,1.1824588775634766,1.7551302909851074,0,0,0,40000
508812,0.06588395684957504,-1.741499662399292,-89.0,14.0,1.2739524841308594,1.9835126399993896,0,0,0,40000
508822,0.00941492710262537,-1.7207587957382202,-90.0,42.0,1.2015419006347656,2.321366548538208,0,0,0,40000
508832,-0.02136559784412384,-1.6761366128921509,-86.0,89.0,0.9846277236938477,2.5062813758850098,0,0,0,40000
508842,-0.07654343545436859,-1.6079257726669312,-89.0,110.0,0.6244354248046875,2.8389534950256348,0,0,0,40000
508852,-0.11680172383785248,-1.5588675737380981,-77.0,82.0,0.3774118423461914,3.0835399627685547,0,0,0,40000
508862,-0.16706611216068268,-1.5112072229385376,-74.0,69.0,0.13732528686523438,3.3895416259765625,0,0,0,40000
508872,-0.1941838264465332,-1.4905321598052979,-61.0,45.0,0.0582275390625,3.5577096939086914,0,0,0,40000
508882,-0.21953120827674866,-1.4765368700027466,-58.0,15.0,0.018685340881347656,3.7160568237304688,0,0,0,40000
508892,-0.2336781620979309,-1.489222526550293,-24.0,-70.0,0.13930606842041016,3.807806968688965,0,0,0,40000
508902,-0.25401026010513306,-1.5491148233413696,-27.0,-106.0,0.5442838668823242,3.9371581077575684,0,0,0,40000
508912,-0.2662772238254547,-1.5936752557754517,-30.0,-104.0,0.8589200973510742,4.018574237823486,0,0,0,40000
508922,-0.27469226717948914,-1.6573017835617065,-17.0,-83.0,1.2896509170532227,4.077216148376465,0,0,0,40000
508932,-0.2850860059261322,-1.6964927911758423,-7.0,-78.0,1.575235366821289,4.148008346557617,0,0,0,40000
508942,-0.2868959605693817,-1.7489197254180908,-4.0,-59.0,1.941727638244629,4.167481422424316,0,0,0,40000
508952,-0.28078046441078186,-1.7658722400665283,11.0,-25.0,2.096196174621582,4.139312267303467,0,0,0,40000
508962,-0.27515172958374023,-1.7633072137832642,31.0,36.0,2.133939743041992,4.113927364349365,0,0,0,40000
508972,-0.26721781492233276,-1.734670639038086,32.0,49.0,2.01448917388916,4.07444953918457,0,0,0,40000
508982,-0.25619328022003174,-1.6878653764724731,11.0,83.0,1.7849483489990234,4.016070365905762,0,0,0,40000
508992,-0.23704808950424194,-1.645166277885437,36.0,103.0,1.5786218643188477,3.908505916595459,0,0,0,40000
509002,-0.2051708698272705,-1.5711829662322998,47.0,116.0,1.1827993392944336,3.723789930343628,0,0,0,40000
509012,-0.18962346017360687,-1.509671926498413,51.0,137.0,0.8597564697265625,3.6363978385925293,0,0,0,40000
509022,-0.15535186231136322,-1.424307942390442,54.0,121.0,0.3913116455078125,3.435856819152832,0,0,0,40000
509032,-0.12414964288473129,-1.3687995672225952,78.0,85.0,0.09996414184570312,3.252739429473877,0,0,0,40000
509042,-0.0757957324385643,-1.3352206945419312,76.0,38.0,-0.061120033264160156,2.965487003326416,0,0,0,40000
509052,-0.03910880908370018,-1.329445719718933,84.0,-5.0,-0.05582904815673828,2.746983051300049,0,0,0,40000
509062,0.01587102934718132,-1.3588272333145142,55.0,-67.0,0.16077709197998047,2.417221784591675,0,0,0,40000
509072,0.044209402054548264,-1.398173213005066,70.0,-105.0,0.4383077621459961,2.2462401390075684,0,0,0,40000
509082,0.0663326159119606,-1.4543062448501587,62.0,-118.0,0.9936847686767578,2.0220983028411865,0,0,0,40000
509092,0.11566219478845596,-1.5376417636871338,79.0,-113.0,1.3547954559326172,1.8132027387619019,0,0,0,40000
509102,0.13868029415607452,-1.5853157043457031,42.0,-101.0,1.6878175735473633,1.671189785003662,0,0,0,40000
509112,0.1701735109090805,-1.643424391746521,42.0,-78.0,2.085158348083496,1.4775105714797974,0,0,0,40000
509122,0.19536544382572174,-1.6684367656707764,32.0,-38.0,2.285022735595703,1.3207870721817017,0,0,0,40000
509132,0.22409534454345703,-1.6898906230926514,40.0,-20.0,2.4642701148986816,1.142073631286621,0,0,0,40000
509142,0.24356362223625183,-1.6891570091247559,51.0,10.0,2.510566234588623,1.0182063579559326,0,0,0,40000
509152,0.27828237414360046,-1.6495859622955322,55.0,116.0,2.3233642578125,0.8019559383392334,0,0,0,40000
509162,0.29804080724716187,-1.5925004482269287,50.0,147.0,2.0293216705322266,0.6746870279312134,0,0,0,40000
509172,0.33273303508758545,-1.4892923831939697,45.0,163.0,1.4560432434082031,0.45693087577819824,0,0,0,40000
509182,0.3552231788635254,-1.4203429222106934,49.0,142.0,1.0857796669006348,0.31160855293273926,0,0,0,40000
509192,0.3927363157272339,-1.3326659202575684,66.0,101.0,0.6006784439086914,0.07527518272399902,0,0,0,40000
509202,0.4127635359764099,-1.2884656190872192,30.0,86.0,0.37462902069091797,-0.05707216262817383,0,0,0,40000
509212,0.45317739248275757,-1.2392581701278687,53.0,63.0,0.1170964241027832,-0.31261181831359863,0,0,0,40000
509222,0.48581254482269287,-1.212196946144104,62.0,55.0,-0.008584976196289062,-0.5225868225097656,0,0,0,40000
509232,0.526107668876648,-1.1769297122955322,67.0,46.0,-0.18446969985961914,-0.7796180248260498,0,0,0,40000
509242,0.5472373366355896,-1.161824345588684,71.0,38.0,-0.2400674819946289,-0.922539472579956,0,0,0,40000
509252,0.5790219306945801,-1.1567069292068481,37.0,-1.0,-0.23607444763183594,-1.1303622722625732,0,0,0,40000
509262,0.6019405126571655,-1.1631990671157837,24.0,-24.0,-0.1623091697692871,-1.2856776714324951,0,0,0,40000
509272,0.6264352202415466,-1.174283742904663,38.0,-13.0,-0.06068849563598633,-1.4510951042175293,0,0,0,40000
509282,0.6465815901756287,-1.1826400756835938,40.0,-40.0,0.02480936050415039,-1.5911006927490234,0,0,0,40000
509292,0.6641241908073425,-1.2224488258361816,32.0,-79.0,0.29979419708251953,-1.7160565853118896,0,0,0,40000
509302,0.6741278171539307,-1.2601522207260132,31.0,-69.0,0.5633745193481445,-1.7961900234222412,0,0,0,40000
509312,0.6933996677398682,-1.2841436862945557,30.0,-20.0,0.7456083297729492,-1.9324040412902832,0,0,0,40000
509322,0.7171117067337036,-1.280495285987854,25.0,45.0,0.7621989250183105,-2.095895767211914,0,0,0,40000
509332,0.7392842769622803,-1.2446469068527222,27.0,77.0,0.5849285125732422,-2.2508344650268555,0,0,0,40000
509342,0.7469377517700195,-1.2072227001190186,23.0,78.0,0.39705848693847656,-2.3190770149230957,0,0,0,40000
509352,0.7689898610115051,-1.141334056854248,35.0,102.0,0.03677988052368164,-2.4741950035095215,0,0,0,40000
509362,0.7814731001853943,-1.0915892124176025,26.0,121.0,-0.22833251953125,-2.5723936557769775,0,0,0,40000
509372,0.8029363751411438,-1.0077272653579712,17.0,109.0,-0.7003078460693359,-2.725022077560425,0,0,0,40000
509382,0.8085165023803711,-0.9724676609039307,30.0,61.0,-0.882293701171875,-2.782676935195923,0,0,0,40000
509392,0.8223632574081421,-0.9389238953590393,12.0,28.0,-1.0550360679626465,-2.890320062637329,0,0,0,40000
509402,0.8222340941429138,-0.9339392185211182,0.0,4.0,-1.0568890571594238,-2.9142563343048096,0,0,0,40000
509412,0.8221091032028198,-0.927653431892395,-10.0,8.0,-1.0666484832763672,-2.93818998336792,0,0,0,40000
509422,0.8220794796943665,-0.9298343062400818,-12.0,6.0,-1.0256986618041992,-2.962667226791382,0,0,0,40000
509432,0.8193802237510681,-0.9406341314315796,-6.0,-27.0,-0.9328699111938477,-2.971036434173584,0,0,0,40000
509442,0.8047332167625427,-0.9429091811180115,-13.0,0.0,-0.890937328338623,-2.907458782196045,0,0,0,40000
509452,0.7922845482826233,-0.9346215724945068,-31.0,26.0,-0.9124388694763184,-2.8567583560943604,0,0,0,40000
509462,0.7823242545127869,-0.9207682609558105,-26.0,42.0,-0.9677767753601074,-2.820608139038086,0,0,0,40000
509472,0.7668545246124268,-0.8934365510940552,-38.0,26.0,-1.104684829711914,-2.7509958744049072,0,0,0,40000
509482,0.742874264717102,-0.8859133720397949,-35.0,2.0,-1.1231589317321777,-2.629671812057495,0,0,0,40000
509492,0.7108230590820312,-0.9033515453338623,-43.0,-28.0,-0.9917192459106445,-2.459042549133301,0,0,0,40000
509502,0.6905056834220886,-0.9183058738708496,-50.0,-20.0,-0.8746433258056641,-2.3580613136291504,0,0,0,40000
509512,0.6484717726707458,-0.9406985640525818,-53.0,-35.0,-0.7124085426330566,-2.125802516937256,0,0,0,40000
509522,0.6234926581382751,-0.9616992473602295,-50.0,-53.0,-0.5578265190124512,-1.9949274063110352,0,0,0,40000
509532,0.5830610990524292,-1.0093178749084473,-66.0,-76.0,-0.2424783706665039,-1.7703485488891602,0,0,0,40000
509542,0.5538584589958191,-1.0468766689300537,-93.0,-110.0,0.013805866241455078,-1.6121277809143066,0,0,0,40000
509552,0.5001716017723083,-1.1081950664520264,-72.0,-93.0,0.4142746925354004,-1.3055869340896606,0,0,0,40000
509562,0.4694161117076874,-1.1495239734649658,-57.0,-86.0,0.6962242126464844,-1.1354973316192627,0,0,0,40000
509572,0.42515403032302856,-1.2085627317428589,-61.0,-66.0,1.0860376358032227,-0.8832507133483887,0,0,0,40000
509582,0.39993196725845337,-1.2425198554992676,-77.0,-81.0,1.3266277313232422,-0.7442364692687988,0,0,0,40000
509592,0.34178680181503296,-1.3008043766021729,-79.0,-88.0,1.7146568298339844,-0.40633249282836914,0,0,0,40000
509602,0.3077224791049957,-1.3319405317306519,-74.0,-46.0,1.9410772323608398,-0.21158051490783691,0,0,0,40000
509612,0.25623345375061035,-1.338034749031067,-66.0,20.0,2.017857551574707,0.08906745910644531,0,0,0,40000
509622,0.22703850269317627,-1.3141372203826904,-56.0,55.0,1.9141736030578613,0.2570827007293701,0,0,0,40000
509632,0.18767255544662476,-1.2653543949127197,-74.0,64.0,1.6600193977355957,0.48712635040283203,0,0,0,40000
509642,0.1566500961780548,-1.2435883283615112,-63.0,41.0,1.5669670104980469,0.6681955456733704,0,0,0,40000
509652,0.11103415489196777,-1.2181185483932495,-73.0,46.0,1.4510087966918945,0.9379639625549316,0,0,0,40000
509662,0.08513311296701431,-1.1868354082107544,-47.0,76.0,1.299318790435791,1.0905146598815918,0,0,0,40000
509672,0.05002550035715103,-1.1364244222640991,-45.0,59.0,1.0315322875976562,1.299215316772461,0,0,0,40000
509682,0.03249974921345711,-1.122273325920105,-38.0,7.0,0.9804553985595703,1.4031920433044434,0,0,0,40000
509692,0.007791421376168728,-1.127547264099121,-44.0,-15.0,1.0458345413208008,1.550924301147461,0,0,0,40000
509702,-0.006451759021729231,-1.1415005922317505,-9.0,-49.0,1.1636133193969727,1.6364057064056396,0,0,0,40000
509712,-0.015387076884508133,-1.188258171081543,-6.0,-77.0,1.4791560173034668,1.6903778314590454,0,0,0,40000
509722,-0.01739255152642727,-1.2200219631195068,-12.0,-63.0,1.7059569358825684,1.7028884887695312,0,0,0,40000
509732,-0.02888188324868679,-1.2769089937210083,-18.0,-65.0,2.0848865509033203,1.7725588083267212,0,0,0,40000
509742,-0.030107809230685234,-1.2961207628250122,5.0,-35.0,2.2388415336608887,1.7808361053466797,0,0,0,40000
509752,-0.030191486701369286,-1.286192774772644,21.0,38.0,2.2181153297424316,1.7822849750518799,0,0,0,40000
509762,-0.020175065845251083,-1.2588506937026978,19.0,95.0,2.0922141075134277,1.7228896617889404,0,0,0,40000
509772,0.016289643943309784,-1.1765919923782349,49.0,135.0,1.635066032409668,1.504127025604248,0,0,0,40000
509782,0.0312613807618618,-1.1099478006362915,28.0,139.0,1.269317626953125,1.4135085344314575,0,0,0,40000
509792,0.059890709817409515,-1.0232880115509033,51.0,114.0,0.7810649871826172,1.2403435707092285,0,0,0,40000
509802,0.07286396622657776,-0.9815636277198792,34.0,88.0,0.5606822967529297,1.1604595184326172,0,0,0,40000
509812,0.09405562281608582,-0.9483246803283691,28.0,39.0,0.38997840881347656,1.0307276248931885,0,0,0,40000
509822,0.10563043504953384,-0.9464254379272461,40.0,6.0,0.406982421875,0.9582676887512207,0,0,0,40000
509832,0.1284753680229187,-0.9502400159835815,32.0,-3.0,0.4583253860473633,0.8175891637802124,0,0,0,40000
509842,0.13632436096668243,-0.9450213313102722,42.0,47.0,0.45546531677246094,0.7665023803710938,0,0,0,40000
509852,0.16225440800189972,-0.9106888175010681,17.0,63.0,0.27723217010498047,0.60628342628479,0,0,0,40000
509862,0.16744466125965118,-0.8880061507225037,9.0,69.0,0.16804933547973633,0.5701718330383301,0,0,0,40000
509872,0.17145340144634247,-0.8314286470413208,1.0,85.0,-0.14574337005615234,0.5410338640213013,0,0,0,40000
509882,0.17583951354026794,-0.7989598512649536,31.0,84.0,-0.31620121002197266,0.5095179080963135,0,0,0,40000
509892,0.17985311150550842,-0.76665198802948,-5.0,23.0,-0.4867396354675293,0.4799596071243286,0,0,0,40000
509902,0.17759816348552704,-0.7714239358901978,-10.0,-37.0,-0.4350624084472656,0.4881255626678467,0,0,0,40000
509912,0.17482724785804749,-0.8008190989494324,-5.0,-57.0,-0.23503923416137695,0.4994668960571289,0,0,0,40000
509922,0.17111048102378845,-0.8393152356147766,0.0,-127.0,0.020601272583007812,0.5166120529174805,0,0,0,40000
509932,0.1699870228767395,-0.933996319770813,-13.0,-163.0,0.6154603958129883,0.5181900262832642,0,0,0,40000
509942,0.16821704804897308,-1.0168434381484985,0.0,-178.0,1.1420526504516602,0.5237785577774048,0,0,0,40000
509952,0.16798147559165955,-1.1351666450500488,-2.0,-176.0,1.8846521377563477,0.5201964378356934,0,0,0,40000
509962,0.17385122179985046,-1.2012511491775513,-6.0,-113.0,2.3164472579956055,0.4798440933227539,0,0,0,40000
509972,0.1696028709411621,-1.266076683998108,-13.0,-69.0,2.7427024841308594,0.500167965888977,0,0,0,40000
509982,0.1736600399017334,-1.284780502319336,-3.0,-22.0,2.8932647705078125,0.47071099281311035,0,0,0,40000
509992,0.17040590941905975,-1.2909997701644897,11.0,3.0,2.969285011291504,0.48516178131103516,0,0,0,40000
510002,0.1697312593460083,-1.2850673198699951,-9.0,8.0,2.9723153114318848,0.4841017723083496,0,0,0,40000
510012,0.16720163822174072,-1.2617270946502686,3.0,42.0,2.8703999519348145,0.4942511320114136,0,0,0,40000
510022,0.16446931660175323,-1.2401012182235718,-7.0,71.0,2.778139114379883,0.5056829452514648,0,0,0,40000
510032,0.16531534492969513,-1.1743909120559692,6.0,105.0,2.419963836669922,0.4957101345062256,0,0,0,40000
510042,0.17739716172218323,-1.1141798496246338,31.0,158.0,2.092851161956787,0.41806793212890625,0,0,0,40000
510052,0.17948785424232483,-0.9912090301513672,-9.0,178.0,1.386281967163086,0.40010690689086914,0,0,0,40000
510062,0.17290352284908295,-0.9095422029495239,-35.0,186.0,0.9245357513427734,0.43429410457611084,0,0,0,40000
510072,0.14920850098133087,-0.7917624115943909,-35.0,156.0,0.2429509162902832,0.5716785192489624,0,0,0,40000
510082,0.13378624618053436,-0.7226598858833313,-59.0,143.0,-0.1491832733154297,0.6599676609039307,0,0,0,40000
510092,0.09743694961071014,-0.65644371509552,-66.0,78.0,-0.5261108875274658,0.8746432065963745,0,0,0,40000
510102,0.07222297787666321,-0.6294023394584656,-57.0,48.0,-0.6691732406616211,1.023453712463379,0,0,0,40000
510112,0.034758493304252625,-0.606548547744751,-53.0,10.0,-0.787874698638916,1.246806263923645,0,0,0,40000
510122,0.010112780146300793,-0.5982639789581299,-70.0,-13.0,-0.819547176361084,1.3940714597702026,0,0,0,40000
510132,-0.03665648400783539,-0.6275922656059265,-70.0,-63.0,-0.6251921653747559,1.6752370595932007,0,0,0,40000
510142,-0.07383466511964798,-0.6735142469406128,-61.0,-121.0,-0.3300504684448242,1.9000842571258545,0,0,0,40000
510152,-0.11688199639320374,-0.7617806196212769,-69.0,-118.0,0.22136735916137695,2.16129207611084,0,0,0,40000
510162,-0.14806309342384338,-0.814020574092865,-71.0,-114.0,0.5586180686950684,2.3524169921875,0,0,0,40000
510172,-0.18647539615631104,-0.8773980140686035,-60.0,-66.0,0.9645481109619141,2.588045120239258,0,0,0,40000
510182,-0.20762763917446136,-0.889153242111206,-42.0,2.0,1.0616397857666016,2.7209315299987793,0,0,0,40000
510192,-0.23923665285110474,-0.8864027857780457,-33.0,19.0,1.0718626976013184,2.9174575805664062,0,0,0,40000
510202,-0.24831698834896088,-0.8696877956390381,-5.0,50.0,0.9978675842285156,2.9793171882629395,0,0,0,40000
510212,-0.25056496262550354,-0.8108535408973694,-3.0,103.0,0.6699433326721191,3.0003128051757812,0,0,0,40000
510222,-0.2478894740343094,-0.7497808337211609,9.0,175.0,0.3267831802368164,2.991734504699707,0,0,0,40000
510232,-0.23144173622131348,-0.615309476852417,20.0,209.0,-0.45991992950439453,2.900176525115967,0,0,0,40000
510242,-0.22401021420955658,-0.5135571956634521,24.0,225.0,-1.0537829399108887,2.862407922744751,0,0,0,40000
510252,-0.20790594816207886,-0.3457580506801605,25.0,248.0,-2.0481247901916504,2.7722702026367188,0,0,0,40000
510262,-0.2005212903022766,-0.23417073488235474,19.0,266.0,-2.7092738151550293,2.73406720161438,0,0,0,40000
510272,-0.1833948940038681,-0.06977696716785431,21.0,211.0,-3.6917059421539307,2.6369729042053223,0,0,0,40000
510282,-0.16995100677013397,0.025134116411209106,19.0,196.0,-4.260776519775391,2.5615763664245605,0,0,0,40000
510292,-0.16140621900558472,0.14042678475379944,11.0,149.0,-4.95539665222168,2.5152547359466553,0,0,0,40000
510302,-0.1665133237838745,0.18839435279369354,-2.0,63.0,-5.248327255249023,2.550828456878662,0,0,0,40000
510312,-0.1766054630279541,0.21270684897899628,-19.0,8.0,-5.40040397644043,2.616499900817871,0,0,0,40000
510322,-0.18518152832984924,0.19216731190681458,-23.0,-90.0,-5.283228874206543,2.6734180450439453,0,0,0,40000
510332,-0.19770826399326324,0.12597955763339996,-28.0,-118.0,-4.890712261199951,2.754326581954956,0,0,0,40000
510342,-0.21025650203227997,0.06477494537830353,-47.0,-134.0,-4.526179313659668,2.835785388946533,0,0,0,40000
510352,-0.22769775986671448,-0.02913593128323555,-1.0,-135.0,-3.963003635406494,2.94716739654541,0,0,0,40000
510362,-0.24218229949474335,-0.09703702479600906,-23.0,-161.0,-3.553501844406128,3.041154384613037,0,0,0,40000
510372,-0.27042025327682495,-0.22137592732906342,-55.0,-180.0,-2.8023862838745117,3.2182745933532715,0,0,0,40000
510382,-0.27611106634140015,-0.3050917088985443,-26.0,-204.0,-2.291945457458496,3.2606558799743652,0,0,0,40000
510392,-0.2841290235519409,-0.44813382625579834,-12.0,-223.0,-1.4220564365386963,3.317228078842163,0,0,0,40000
510402,-0.27715614438056946,-0.5501781105995178,-2.0,-202.0,-0.7944841384887695,3.283787965774536,0,0,0,40000
510412,-0.27081599831581116,-0.6611251831054688,1.0,-132.0,-0.11011886596679688,3.2539243698120117,0,0,0,40000
510422,-0.2657585144042969,-0.7050813436508179,14.0,-84.0,0.17424964904785156,3.231632709503174,0,0,0,40000
510432,-0.24432925879955292,-0.7145919799804688,54.0,23.0,0.25284671783447266,3.1107561588287354,0,0,0,40000
510442,-0.22861123085021973,-0.6988160610198975,37.0,73.0,0.17936468124389648,3.023458957672119,0,0,0,40000
510452,-0.19172058999538422,-0.641029953956604,43.0,100.0,-0.14739155769348145,2.808259963989258,0,0,0,40000
510462,-0.1643979847431183,-0.5833587050437927,58.0,145.0,-0.475189208984375,2.6495723724365234,0,0,0,40000
510472,-0.12007581442594528,-0.48649922013282776,67.0,124.0,-1.0406196117401123,2.3877737522125244,0,0,0,40000
510482,-0.10307759046554565,-0.4314000904560089,64.0,120.0,-1.3575937747955322,2.2890982627868652,0,0,0,40000
510492,-0.0678071454167366,-0.3620207607746124,39.0,66.0,-1.7623376846313477,2.0798251628875732,0,0,0,40000
510502,-0.046345923095941544,-0.3509560227394104,49.0,16.0,-1.8180937767028809,1.9527274370193481,0,0,0,40000
510512,-0.019261550158262253,-0.36892613768577576,42.0,-53.0,-1.699570894241333,1.7911721467971802,0,0,0,40000
510522,-0.0006691804737783968,-0.4062274694442749,34.0,-102.0,-1.4640369415283203,1.6798710823059082,0,0,0,40000
510532,0.014531292021274567,-0.5046916007995605,3.0,-146.0,-0.859403133392334,1.5883392095565796,0,0,0,40000
510542,0.02278313599526882,-0.5839521884918213,18.0,-173.0,-0.3672802448272705,1.5382544994354248,0,0,0,40000
510552,0.024878794327378273,-0.713850736618042,13.0,-186.0,0.4319314956665039,1.5249601602554321,0,0,0,40000
510562,0.010357890278100967,-0.7996536493301392,-27.0,-159.0,0.969761848449707,1.611598253250122,0,0,0,40000
510572,-0.010085774585604668,-0.8865507245063782,-31.0,-111.0,1.516782522201538,1.734307885169983,0,0,0,40000
510582,-0.02025596611201763,-0.9239272475242615,-34.0,-49.0,1.7683377265930176,1.7958124876022339,0,0,0,40000
510592,-0.05083838105201721,-0.9207472801208496,-47.0,31.0,1.7770915031433105,1.980438232421875,0,0,0,40000
510602,-0.0756358876824379,-0.8790823817253113,-62.0,102.0,1.5539841651916504,2.1312034130096436,0,0,0,40000
510612,-0.10598502308130264,-0.7904458045959473,-42.0,148.0,1.0470366477966309,2.3161535263061523,0,0,0,40000
510622,-0.12477102875709534,-0.7201204299926758,-51.0,149.0,0.6475224494934082,2.4323861598968506,0,0,0,40000
510632,-0.16371989250183105,-0.6068041324615479,-39.0,174.0,-0.012743711471557617,2.6705946922302246,0,0,0,40000
510642,-0.17884205281734467,-0.5196317434310913,-25.0,194.0,-0.519179105758667,2.766543388366699,0,0,0,40000
510652,-0.18660873174667358,-0.38906556367874146,0.0,186.0,-1.2893142700195312,2.8186864852905273,0,0,0,40000
510662,-0.19633236527442932,-0.30145013332366943,-23.0,188.0,-1.8048841953277588,2.882791519165039,0,0,0,40000
510672,-0.21408802270889282,-0.19394466280937195,-27.0,149.0,-2.442863941192627,2.9955177307128906,0,0,0,40000
510682,-0.22073324024677277,-0.13603854179382324,-19.0,95.0,-2.785586357116699,3.041928768157959,0,0,0,40000
510692,-0.22291406989097595,-0.09539944678544998,5.0,27.0,-3.026212692260742,3.0617642402648926,0,0,0,40000
510702,-0.22099962830543518,-0.09153933078050613,0.0,-29.0,-3.0466041564941406,3.0569496154785156,0,0,0,40000
510712,-0.21691590547561646,-0.13245618343353271,8.0,-67.0,-2.7976741790771484,3.0390143394470215,0,0,0,40000
510722,-0.20387886464595795,-0.18726587295532227,27.0,-121.0,-2.46391224861145,2.967068672180176,0,0,0,40000
510732,-0.1912452131509781,-0.2777998149394989,2.0,-142.0,-1.9135105609893799,2.897089958190918,0,0,0,40000
510742,-0.1855008900165558,-0.3564222455024719,17.0,-175.0,-1.4320487976074219,2.8682737350463867,0,0,0,40000
510752,-0.1744881570339203,-0.46924734115600586,28.0,-155.0,-0.7423014640808105,2.8075718879699707,0,0,0,40000
510762,-0.1643068790435791,-0.5493139028549194,21.0,-166.0,-0.24639058113098145,2.7515177726745605,0,0,0,40000
510772,-0.1489577293395996,-0.6533792018890381,23.0,-146.0,0.39641404151916504,2.6640851497650146,0,0,0,40000
510782,-0.13757428526878357,-0.707221269607544,0.0,-108.0,0.7400171756744385,2.6000165939331055,0,0,0,40000
510792,-0.12781891226768494,-0.7548263669013977,17.0,-45.0,1.0478479862213135,2.54545521736145,0,0,0,40000
510802,-0.1227363646030426,-0.7598018050193787,16.0,8.0,1.100482702255249,2.518707752227783,0,0,0,40000
510812,-0.12213879823684692,-0.7279485464096069,6.0,45.0,0.931584358215332,2.518752098083496,0,0,0,40000
510822,-0.12391633540391922,-0.6859311461448669,13.0,134.0,0.7006053924560547,2.5331172943115234,0,0,0,40000
510832,-0.11607502400875092,-0.5866395831108093,15.0,151.0,0.12369728088378906,2.4896745681762695,0,0,0,40000
510842,-0.11240987479686737,-0.5022358894348145,-3.0,188.0,-0.3666064739227295,2.471085548400879,0,0,0,40000
510852,-0.10885108262300491,-0.4163314700126648,-15.0,176.0,-1.1074519157409668,2.4750757217407227,0,0,0,40000
510862,-0.11390538513660431,-0.3037588596343994,6.0,140.0,-1.536548137664795,2.4861457347869873,0,0,0,40000
510872,-0.11617908626794815,-0.241758331656456,0.0,101.0,-1.9005905389785767,2.503217935562134,0,0,0,40000
510882,-0.11220799386501312,-0.204828679561615,13.0,8.0,-2.1157588958740234,2.482788562774658,0,0,0,40000
510892,-0.10759627819061279,-0.21349000930786133,10.0,-76.0,-2.057516098022461,2.4584147930145264,0,0,0,40000
510902,-0.10797619819641113,-0.2956646978855133,3.0,-142.0,-1.5567095279693604,2.4639675617218018,0,0,0,40000
510912,-0.0988985151052475,-0.37524300813674927,-5.0,-206.0,-1.0689520835876465,2.412600517272949,0,0,0,40000
510922,-0.09429369121789932,-0.52242511510849,19.0,-237.0,-0.17204761505126953,2.3879165649414062,0,0,0,40000
510932,-0.07986225932836533,-0.6197664737701416,18.0,-184.0,0.42943453788757324,2.30389404296875,0,30,0,40000
510942,-0.05539326369762421,-0.7280899286270142,37.0,-144.0,-179.8000030517578,2.159130334854126,0,30,0,40000
510952,-0.03986523300409317,-0.812466025352478,30.0,-240.0,-180.1704559326172,2.0673325061798096,0,30,0,40000
510962,-0.010775367729365826,-1.064561367034912,68.0,-483.0,-179.52944946289062,1.893520712852478,0,30,0,40000
510972,0.012720768339931965,-1.3828351497650146,42.0,-914.0,-178.48239135742188,1.7524073123931885,0,30,0,40000
510982,0.0448010228574276,-2.1753480434417725,23.0,-1412.0,-174.57260131835938,1.5589278936386108,0,30,0,40000
510992,0.06860528141260147,-2.968148708343506,32.0,-2034.0,-170.63662719726562,1.4143332242965698,0,30,0,40000
511002,0.0957142561674118,-4.581786632537842,25.0,-2668.0,-161.73805236816406,1.2490984201431274,0,30,0,40000
511012,0.10533022880554199,-5.9414567947387695,32.0,-3252.0,-154.3184356689453,1.1883659362792969,0,30,0,40000
511022,0.12318521738052368,-8.330031394958496,38.0,-3691.0,-140.6666717529297,1.0777281522750854,0,30,0,40000
511032,0.13291427493095398,-10.09146785736084,27.0,-3956.0,-130.7165985107422,1.0155034065246582,0,30,0,40000
511042,0.1450820416212082,-12.841965675354004,4.0,-4021.0,-114.7614517211914,0.9382811784744263,0,30,0,40000
511052,0.16195474565029144,-14.640713691711426,43.0,-3835.0,-104.45121765136719,0.8324083089828491,0,30,0,40000
511062,0.17230653762817383,-17.144563674926758,38.0,-3462.0,-89.84297180175781,0.765239953994751,0,30,0,40000
511072,0.18116804957389832,-18.612829208374023,23.0,-2953.0,-81.392333984375,0.7067340612411499,0,30,0,40000
511082,0.18806812167167664,-20.427335739135742,11.0,-2345.0,-70.81293487548828,0.6597781181335449,0,30,0,40000
511092,0.19527839124202728,-21.360979080200195,45.0,-1725.0,-65.48110961914062,0.6107491254806519,0,30,0,40000
511102,0.20690128207206726,-22.327341079711914,-6.0,-1138.0,-59.92348098754883,0.5348409414291382,0,30,0,40000
511112,0.21003830432891846,-22.72571563720703,-10.0,-625.0,-57.75592041015625,0.5096848011016846,0,30,0,40000
511122,0.2180376797914505,-23.02106475830078,-8.0,-278.0,-56.196014404296875,0.4553341865539551,0,30,0,40000
511132,0.2240634262561798,-23.079538345336914,-2.0,-40.0,-56.05335998535156,0.41256678104400635,0,30,0,40000
511142,0.21933524310588837,-23.043962478637695,21.0,98.0,-56.474815368652344,0.4344353675842285,0,30,0,40000
511152,0.2175481766462326,-23.00410270690918,-4.0,53.0,-56.92338562011719,0.43857812881469727,0,30,0,40000
511162,0.20000451803207397,-23.005096435546875,-4.0,-98.0,-57.127620697021484,0.5374904870986938,0,30,0,40000
511172,0.20107945799827576,-23.102516174316406,-41.0,-313.0,-56.75132751464844,0.5250440835952759,0,30,0,40000
511182,0.19108371436595917,-23.418495178222656,1.0,-587.0,-55.0572509765625,0.5793032646179199,0,30,0,40000
511192,0.18741503357887268,-23.742395401000977,17.0,-833.0,-53.30561065673828,0.5956861972808838,0,30,0,40000
511202,0.17587797343730927,-24.422941207885742,19.0,-1136.0,-49.39842987060547,0.6594407558441162,0,30,0,40000
511212,0.1758238822221756,-24.99020004272461,-17.0,-1325.0,-46.152069091796875,0.6544513702392578,0,30,0,40000
511222,0.1781933307647705,-25.941617965698242,-15.0,-1438.0,-40.576988220214844,0.6349713802337646,0,30,0,40000
511232,0.18346644937992096,-26.599912643432617,47.0,-1442.0,-36.73715591430664,0.5979704856872559,0,30,0,40000
511242,0.20630288124084473,-27.5612850189209,56.0,-1357.0,-31.053424835205078,0.4550381898880005,0,30,0,40000
511252,0.22819548845291138,-28.14833641052246,37.0,-1190.0,-27.593612670898438,0.31708788871765137,0,30,0,40000
511262,0.27926895022392273,-28.902053833007812,52.0,-985.0,-23.112815856933594,0.0029239654541015625,0,30,0,40000
511272,0.32559192180633545,-29.292211532592773,70.0,-726.0,-20.797651290893555,-0.2842426300048828,0,30,0,40000
511282,0.39028117060661316,-29.701274871826172,69.0,-487.0,-18.356647491455078,-0.683279275894165,0,30,0,40000
511292,0.43629327416419983,-29.86911964416504,77.0,-249.0,-17.35538101196289,-0.9719047546386719,0,30,0,40000
511302,0.5159181952476501,-29.98228645324707,56.0,-102.0,-16.677940368652344,-1.4641849994659424,0,30,0,40000
511312,0.5590381026268005,-29.993194580078125,98.0,36.0,-16.612730026245117,-1.7391470670700073,0,30,0,40000
511322,0.6383084058761597,-29.962682723999023,84.0,43.0,-16.79657745361328,-2.233046293258667,0,30,0,40000
511332,0.6892685890197754,-29.94924545288086,62.0,15.0,-16.878559112548828,-2.558903932571411,0,30,0,40000
511342,0.7682968974113464,-29.966522216796875,73.0,-72.0,-16.776260375976562,-3.0551180839538574,0,30,0,40000
511352,0.8173522353172302,-30.014400482177734,93.0,-155.0,-16.48915672302246,-3.3733372688293457,0,30,0,40000
511362,0.8851261734962463,-30.159040451049805,88.0,-264.0,-15.618528366088867,-3.8057103157043457,0,30,0,40000
511372,0.9285494089126587,-30.294347763061523,75.0,-354.0,-14.799556732177734,-4.093603134155273,0,30,0,40000
511382,0.998046875,-30.563697814941406,37.0,-418.0,-13.16994857788086,-4.539782524108887,0,30,0,40000
511392,1.033473253250122,-30.768054962158203,17.0,-488.0,-11.923250198364258,-4.782904624938965,0,30,0,40000
511402,1.0843716859817505,-31.089580535888672,52.0,-492.0,-9.965246200561523,-5.1200270652771,0,30,0,40000
511412,1.1014796495437622,-31.31814193725586,26.0,-485.0,-8.557086944580078,-5.255499839782715,0,30,0,40000
511422,1.1199018955230713,-31.63005828857422,41.0,-426.0,-6.640281677246094,-5.399518966674805,0,30,0,40000
511432,1.1222102642059326,-31.81246566772461,2.0,-389.0,-5.493610382080078,-5.447049140930176,0,30,0,40000
511442,1.1307770013809204,-32.05033874511719,-1.0,-310.0,-4.007503509521484,-5.532256603240967,0,30,0,40000
511452,1.1391801834106445,-32.17610549926758,3.0,-238.0,-3.1890907287597656,-5.616706848144531,0,30,0,40000
511462,1.13291597366333,-32.3304557800293,-6.0,-199.0,-2.1948471069335938,-5.613156795501709,0,30,0,40000
