timestamp,stabilizer.roll,stabilizer.pitch,stateEstimateZ.rateRoll,stateEstimateZ.ratePitch,controller.pitchRate,controller.rollRate,roll,pitch,yawdot,thrust
63872,-42.53479766845703,67.42061614990234,0.0,4.0,-406.5462951660156,256.4847717285156,0,0,0,40000
63882,-42.551918029785156,67.41800689697266,-2.0,16.0,-408.55322265625,257.8638000488281,0,0,0,40000
63892,-42.595645904541016,67.40165710449219,-6.0,-40.0,-410.47747802734375,259.4035949707031,0,0,0,40000
63902,-42.591712951660156,67.36526489257812,29.0,-86.0,-412.280517578125,260.65777587890625,0,0,0,40000
63912,-42.483856201171875,67.25568389892578,57.0,-253.0,-413.6422424316406,261.2869567871094,0,0,0,40000
63922,-42.22904968261719,67.09274291992188,57.0,-507.0,-414.679443359375,261.0284729003906,0,0,0,40000
63932,-41.58094787597656,66.72911834716797,14.0,-825.0,-414.5043640136719,258.39605712890625,0,0,0,40000
63942,-40.820579528808594,66.33102416992188,58.0,-1395.0,-414.1107482910156,255.06808471679688,0,0,0,40000
63952,-39.14943313598633,65.44568634033203,126.0,-1981.0,-410.7737731933594,246.237548828125,0,0,0,40000
63962,-37.65127182006836,64.62186431884766,163.0,-2695.0,-407.7796936035156,238.396484375,0,0,0,40000
63972,-34.90151596069336,62.92603302001953,158.0,-3505.0,-399.51434326171875,222.97943115234375,0,0,0,40000
63982,-32.79542541503906,61.461761474609375,272.0,-4383.0,-392.5905456542969,211.352294921875,0,0,0,40000
63992,-29.441781997680664,58.66976547241211,372.0,-5359.0,-377.6342468261719,192.1547088623047,0,0,0,40000
64002,-27.148815155029297,56.361209869384766,466.0,-6286.0,-365.50201416015625,179.23876953125,0,0,0,40000
64012,-23.781940460205078,52.2706298828125,529.0,-7224.0,-342.5777587890625,159.79086303710938,0,0,0,40000
64022,-21.667015075683594,49.13798904418945,698.0,-7962.0,-325.2940979003906,147.7764892578125,0,0,0,40000
64032,-18.743810653686523,43.940086364746094,902.0,-8532.0,-295.4886169433594,130.83396911621094,0,0,0,40000
64042,-16.98031997680664,40.238304138183594,1154.0,-8816.0,-274.5296630859375,120.78345489501953,0,0,0,40000
64052,-14.55946159362793,34.51030731201172,1399.0,-8817.0,-241.26593017578125,106.7233657836914,0,0,0,40000
64062,-13.076507568359375,30.684484481811523,1669.0,-8592.0,-219.27734375,98.2355728149414,0,0,0,40000
64072,-10.99207592010498,25.13654327392578,1958.0,-8155.0,-186.80955505371094,86.08340454101562,0,0,0,40000
64082,-9.6640043258667,21.65763282775879,2196.0,-7472.0,-166.62721252441406,78.4207534790039,0,0,0,40000
64092,-7.696933269500732,16.937183380126953,2406.0,-6604.0,-138.86749267578125,66.8726806640625,0,0,0,40000
64102,-6.378148078918457,14.222945213317871,2590.0,-5452.0,-123.04074096679688,59.16716003417969,0,0,0,40000
64112,-4.406271457672119,10.938230514526367,2783.0,-4201.0,-103.69735717773438,47.49200439453125,0,0,0,40000
64122,-3.078251361846924,9.344335556030273,2879.0,-2850.0,-94.43267822265625,39.63224792480469,0,0,0,40000
64132,-1.0719808340072632,7.868793487548828,2910.0,-1523.0,-85.83038330078125,27.6508846282959,0,0,0,40000
64142,0.25064054131507874,7.454283237457275,2848.0,-346.0,-83.5712661743164,19.723453521728516,0,0,0,40000
64152,2.2023937702178955,7.5468950271606445,2756.0,592.0,-84.35020446777344,7.9701080322265625,0,0,0,40000
64162,3.46787691116333,7.97793436050415,2678.0,1192.0,-87.17023468017578,0.2883186340332031,0,0,0,40000
64172,5.29029655456543,8.99868392944336,2555.0,1699.0,-93.55139923095703,-10.783222198486328,0,0,0,40000
64182,6.460304260253906,9.83327865600586,2415.0,1990.0,-98.84382629394531,-17.98303985595703,0,0,0,40000
64192,8.090779304504395,11.202183723449707,2177.0,2115.0,-107.37664794921875,-27.98946762084961,0,0,0,40000
64202,9.079596519470215,12.130727767944336,1926.0,2113.0,-113.30071258544922,-34.183021545410156,0,0,0,40000
64212,10.4210844039917,13.455723762512207,1647.0,1983.0,-121.63878631591797,-42.529052734375,0,0,0,40000
64222,11.205190658569336,14.255498886108398,1425.0,1752.0,-126.85566711425781,-47.560569763183594,0,0,0,40000
64232,12.202471733093262,15.246222496032715,1170.0,1418.0,-133.246337890625,-53.89882278442383,0,0,0,40000
64242,12.730525016784668,15.731161117553711,897.0,1004.0,-136.62228393554688,-57.442928314208984,0,0,0,40000
64252,13.303507804870605,16.135604858398438,573.0,463.0,-139.52935791015625,-61.273887634277344,0,0,0,40000
64262,13.53387451171875,16.14369773864746,287.0,-167.0,-140.06243896484375,-63.059593200683594,0,0,0,40000
64272,13.662700653076172,15.708799362182617,42.0,-878.0,-137.93106079101562,-64.24163818359375,0,0,0,40000
64282,13.600069046020508,15.080577850341797,-207.0,-1632.0,-134.62210083007812,-64.27474975585938,0,0,0,40000
64292,13.307320594787598,13.628275871276855,-416.0,-2448.0,-126.33621215820312,-62.921531677246094,0,0,0,40000
64302,12.978165626525879,12.337178230285645,-665.0,-3129.0,-118.97559356689453,-61.34007263183594,0,0,0,40000
64312,12.334077835083008,9.997367858886719,-908.0,-3677.0,-105.26585388183594,-57.85392761230469,0,0,0,40000
64322,11.82424545288086,8.256169319152832,-1099.0,-4003.0,-95.08745574951172,-55.155914306640625,0,0,0,40000
64332,10.954740524291992,5.5139641761779785,-1245.0,-4070.0,-78.83264923095703,-50.27819061279297,0,0,0,40000
64342,10.325027465820312,3.699216604232788,-1353.0,-3976.0,-68.07685089111328,-46.817203521728516,0,0,0,40000
64352,9.311542510986328,1.1393258571624756,-1465.0,-3634.0,-52.78166580200195,-41.027923583984375,0,0,0,40000
64362,8.584754943847656,-0.3777528703212738,-1609.0,-3141.0,-43.6858024597168,-36.933555603027344,0,0,0,40000
64372,7.441574573516846,-2.271077871322632,-1704.0,-2527.0,-32.27916717529297,-30.31171417236328,0,0,0,40000
64382,6.661887168884277,-3.259658098220825,-1725.0,-1913.0,-26.261425018310547,-25.842805862426758,0,0,0,40000
64392,5.486478805541992,-4.310714244842529,-1695.0,-1290.0,-19.837020874023438,-18.96895408630371,0,0,0,40000
64402,4.707469463348389,-4.731603145599365,-1665.0,-689.0,-17.17449188232422,-14.445446968078613,0,0,0,40000
64412,3.588881731033325,-5.000929355621338,-1585.0,-206.0,-15.410697937011719,-7.854801177978516,0,0,0,40000
64422,2.881990432739258,-4.986198902130127,-1498.0,184.0,-15.34912109375,-3.708372116088867,0,0,0,40000
64432,1.8997598886489868,-4.759278297424316,-1388.0,426.0,-16.56464958190918,2.1164379119873047,0,0,0,40000
64442,1.314217209815979,-4.526993751525879,-1229.0,561.0,-17.8196964263916,5.583345413208008,0,0,0,40000
64452,0.5362510085105896,-4.147639751434326,-1059.0,539.0,-19.966888427734375,10.226123809814453,0,0,0,40000
64462,0.09030638635158539,-3.93074893951416,-885.0,434.0,-21.147775650024414,12.893836975097656,0,0,0,40000
64472,-0.4393114149570465,-3.7240025997161865,-702.0,198.0,-22.27458381652832,16.078752517700195,0,0,0,40000
64482,-0.7245168685913086,-3.7172765731811523,-555.0,-112.0,-22.20350456237793,17.808345794677734,0,0,0,40000
64492,-1.0165491104125977,-3.916893482208252,-366.0,-432.0,-20.891437530517578,19.587907791137695,0,0,0,40000
64502,-1.13270902633667,-4.211218357086182,-209.0,-732.0,-19.002864837646484,20.317516326904297,0,0,0,40000
64512,-1.183719277381897,-4.804441928863525,0.0,-954.0,-15.306949615478516,20.658857345581055,0,0,0,40000
64522,-1.143527865409851,-5.289066314697266,157.0,-1114.0,-12.246482849121094,20.45260238647461,0,0,0,40000
64532,-0.981477677822113,-6.080092906951904,309.0,-1176.0,-7.327503204345703,19.512014389038086,0,0,0,40000
64542,-0.8061419129371643,-6.6148576736450195,426.0,-1154.0,-3.9268798828125,18.48635482788086,0,0,0,40000
64552,-0.4576174318790436,-7.35243558883667,540.0,-1013.0,0.7106475830078125,16.41339111328125,0,0,0,40000
64562,-0.18034324049949646,-7.7641682624816895,633.0,-811.0,3.409137725830078,14.758552551269531,0,0,0,40000
64572,0.2823057770729065,-8.220829010009766,707.0,-566.0,6.390769958496094,11.979918479919434,0,0,0,40000
64582,0.6198002696037292,-8.411556243896484,759.0,-291.0,7.78533935546875,9.940463066101074,0,0,0,40000
64592,1.1557073593139648,-8.508501052856445,782.0,-24.0,8.621707916259766,6.696805953979492,0,0,0,40000
64602,1.518325924873352,-8.453222274780273,782.0,202.0,8.544422149658203,4.479917526245117,0,0,0,40000
64612,2.0676112174987793,-8.251578330993652,797.0,354.0,7.584842681884766,1.1288681030273438,0,0,0,40000
64622,2.4284074306488037,-8.060730934143066,754.0,433.0,6.683940887451172,-1.1044330596923828,0,0,0,40000
64632,2.9488658905029297,-7.76308536529541,734.0,420.0,5.1345062255859375,-4.3094987869262695,0,0,0,40000
64642,3.27925181388855,-7.588668346405029,675.0,356.0,4.317726135253906,-6.386264801025391,0,0,0,40000
64652,3.731121778488159,-7.386396884918213,628.0,257.0,3.3278961181640625,-9.204130172729492,0,0,0,40000
64662,4.004550933837891,-7.308996200561523,552.0,125.0,3.0836524963378906,-10.961568832397461,0,0,0,40000
64672,4.360244274139404,-7.297109127044678,480.0,-46.0,3.2310142517089844,-13.22242546081543,0,0,0,40000
64682,4.5545334815979,-7.364372730255127,388.0,-203.0,3.8546180725097656,-14.522507667541504,0,0,0,40000
64692,4.794056415557861,-7.561056613922119,286.0,-344.0,5.258892059326172,-16.100830078125,0,0,0,40000
64702,4.907776355743408,-7.7485032081604,175.0,-445.0,6.613746643066406,-16.929107666015625,0,0,0,40000
64712,5.00982666015625,-8.047980308532715,111.0,-448.0,8.648445129394531,-17.69064712524414,0,0,0,40000
64722,5.033107757568359,-8.252833366394043,26.0,-457.0,10.122669219970703,-17.981101989746094,0,0,0,40000
64732,5.009146213531494,-8.550089836120605,-88.0,-405.0,12.159320831298828,-17.98811912536621,0,0,0,40000
64742,4.950075149536133,-8.720354080200195,-154.0,-340.0,13.44051742553711,-17.782960891723633,0,0,0,40000
64752,4.8092169761657715,-8.926067352294922,-239.0,-251.0,14.940292358398438,-17.08395767211914,0,0,0,40000
64762,4.676299095153809,-9.018527030944824,-309.0,-155.0,15.764537811279297,-16.428390502929688,0,0,0,40000
64772,4.431910037994385,-9.086455345153809,-371.0,-43.0,16.444129943847656,-15.098054885864258,0,0,0,40000
64782,4.247170925140381,-9.076984405517578,-426.0,73.0,16.659793853759766,-14.119279861450195,0,0,0,40000
64792,3.933931350708008,-9.003540992736816,-446.0,156.0,16.490310668945312,-12.361674308776855,0,0,0,40000
64802,3.733078718185425,-8.900262832641602,-416.0,278.0,16.138980865478516,-11.27094554901123,0,0,0,40000
64812,3.4088587760925293,-8.67906379699707,-498.0,341.0,15.074897766113281,-9.432003021240234,0,0,0,40000
64822,3.1716055870056152,-8.505316734313965,-510.0,422.0,14.289691925048828,-8.10651683807373,0,0,0,40000
64832,2.8391308784484863,-8.230997085571289,-450.0,406.0,12.893970489501953,-6.200682640075684,0,0,0,40000
64842,2.6346709728240967,-8.055804252624512,-425.0,363.0,12.086566925048828,-5.0554046630859375,0,0,0,40000
64852,2.3363497257232666,-7.844705104827881,-403.0,280.0,11.057647705078125,-3.3391056060791016,0,0,0,40000
64862,2.1530723571777344,-7.748525142669678,-379.0,171.0,10.71413803100586,-2.3062143325805664,0,0,0,40000
64872,1.9102920293807983,-7.667660236358643,-317.0,75.0,10.459728240966797,-0.9096555709838867,0,0,0,40000
64882,1.7743829488754272,-7.651675701141357,-275.0,9.0,10.593502044677734,-0.14905357360839844,0,0,0,40000
64892,1.5987874269485474,-7.681852340698242,-232.0,-55.0,11.004570007324219,0.8545246124267578,0,0,0,40000
64902,1.5101547241210938,-7.71959114074707,-179.0,-70.0,11.462146759033203,1.339986801147461,0,0,0,40000
64912,1.4125003814697266,-7.781411647796631,-118.0,-78.0,12.065826416015625,1.8824520111083984,0,0,0,40000
64922,1.3677107095718384,-7.8231072425842285,-89.0,-81.0,12.55014419555664,2.1096277236938477,0,0,0,40000
64932,1.3242295980453491,-7.873562812805176,-49.0,-45.0,13.088645935058594,2.330317497253418,0,0,0,40000
64942,1.3144078254699707,-7.885646820068359,-3.0,-26.0,13.3975830078125,2.3497085571289062,0,0,0,40000
64952,1.3255095481872559,-7.882115840911865,37.0,56.0,13.613121032714844,2.2436256408691406,0,0,0,40000
64962,1.3534740209579468,-7.841336727142334,85.0,106.0,13.604209899902344,2.0356264114379883,0,0,0,40000
64972,1.4150227308273315,-7.74838924407959,102.0,160.0,13.280174255371094,1.6246662139892578,0,0,0,40000
64982,1.466162085533142,-7.671512603759766,112.0,189.0,13.049983978271484,1.2744531631469727,0,0,0,40000
64992,1.5502355098724365,-7.546621322631836,121.0,181.0,12.528514862060547,0.7245283126831055,0,0,0,40000
65002,1.617469310760498,-7.463532447814941,118.0,194.0,12.254875183105469,0.27339839935302734,0,0,0,40000
65012,1.703884243965149,-7.333099365234375,140.0,202.0,11.693851470947266,-0.2951698303222656,0,0,0,40000
65022,1.7676186561584473,-7.254448890686035,132.0,179.0,11.440544128417969,-0.729853630065918,0,0,0,40000
65032,1.8726989030838013,-7.138403415679932,164.0,153.0,10.959753036499023,-1.4152021408081055,0,0,0,40000
65042,1.9380042552947998,-7.090157508850098,143.0,115.0,10.883504867553711,-1.864396095275879,0,0,0,40000
65052,2.0054209232330322,-7.040876865386963,142.0,87.0,10.757089614868164,-2.3166303634643555,0,0,0,40000
65062,2.092299222946167,-6.978880882263184,110.0,78.0,10.637041091918945,-2.912200927734375,0,0,0,40000
65072,2.1405863761901855,-6.9442901611328125,115.0,66.0,10.596376419067383,-3.253024101257324,0,0,0,40000
65082,2.2048728466033936,-6.907777309417725,88.0,47.0,10.584915161132812,-3.7041263580322266,0,0,0,40000
65092,2.240078926086426,-6.892751693725586,58.0,18.0,10.701702117919922,-3.982187271118164,0,0,0,40000
65102,2.2853550910949707,-6.902296543121338,33.0,-11.0,10.96578598022461,-4.3219099044799805,0,0,0,40000
65112,2.3021483421325684,-6.9189534187316895,43.0,-32.0,11.273138046264648,-4.491497993469238,0,0,0,40000
65122,2.3239941596984863,-6.94171667098999,38.0,-32.0,11.617637634277344,-4.692038536071777,0,0,0,40000
65132,2.3360748291015625,-6.958854675292969,18.0,-22.0,11.929058074951172,-4.834491729736328,0,0,0,40000
65142,2.347477912902832,-6.964443206787109,-12.0,18.0,12.171577453613281,-4.973292350769043,0,0,0,40000
65152,2.3457021713256836,-6.941857814788818,-7.0,77.0,12.244613647460938,-5.033018112182617,0,0,0,40000
65162,2.3299407958984375,-6.888823986053467,-7.0,112.0,12.133758544921875,-5.008481025695801,0,0,0,40000
65172,2.3221275806427,-6.838572978973389,-6.0,135.0,12.038053512573242,-5.031346321105957,0,0,0,40000
65182,2.299616813659668,-6.750082015991211,-38.0,134.0,11.710670471191406,-4.965700149536133,0,0,0,40000
65192,2.277675151824951,-6.681763648986816,-42.0,183.0,11.502035140991211,-4.902650833129883,0,0,0,40000
65202,2.246396780014038,-6.545761585235596,-52.0,224.0,10.884132385253906,-4.782717704772949,0,0,0,40000
65212,2.2209808826446533,-6.447061061859131,-67.0,206.0,10.486486434936523,-4.697153091430664,0,0,0,40000
65222,2.1754257678985596,-6.31443452835083,-45.0,178.0,9.8817138671875,-4.489579200744629,0,0,0,40000
65232,2.1477530002593994,-6.237581253051758,-52.0,143.0,9.608625411987305,-4.388309478759766,0,0,0,40000
65242,2.1009654998779297,-6.155187129974365,-63.0,115.0,9.299842834472656,-4.171226501464844,0,0,0,40000
65252,2.073307991027832,-6.107556343078613,-85.0,110.0,9.197853088378906,-4.06785774230957,0,0,0,40000
65262,2.029588460922241,-6.021938323974609,-82.0,119.0,8.865848541259766,-3.8669357299804688,0,0,0,40000
65272,1.9934216737747192,-5.982514381408691,-73.0,92.0,8.809228897094727,-3.710137367248535,0,0,0,40000
65282,1.9462528228759766,-5.926639556884766,-38.0,87.0,8.652496337890625,-3.4859752655029297,0,0,0,40000
65292,1.9211119413375854,-5.886498928070068,-50.0,81.0,8.588741302490234,-3.393075942993164,0,0,0,40000
65302,1.8748629093170166,-5.826618194580078,-77.0,102.0,8.405059814453125,-3.172517776489258,0,0,0,40000
65312,1.8436671495437622,-5.777987957000732,-76.0,100.0,8.287212371826172,-3.0410547256469727,0,0,0,40000
65322,1.7952017784118652,-5.708357334136963,-72.0,101.0,8.041496276855469,-2.8047165870666504,0,0,0,40000
65332,1.7628345489501953,-5.674159049987793,-32.0,99.0,8.006937026977539,-2.663717269897461,0,0,0,40000
65342,1.7364763021469116,-5.611006259918213,-13.0,115.0,7.797176361083984,-2.5579137802124023,0,0,0,40000
65352,1.7191942930221558,-5.554008483886719,-41.0,118.0,7.622468948364258,-2.5060644149780273,0,0,0,40000
65362,1.6835694313049316,-5.463006973266602,-53.0,145.0,7.241462707519531,-2.3433194160461426,0,0,0,40000
65372,1.6552404165267944,-5.402446746826172,-59.0,147.0,7.040914535522461,-2.223341941833496,0,0,0,40000
65382,1.6182935237884521,-5.321197032928467,-50.0,104.0,6.7139892578125,-2.050626277923584,0,0,0,40000
65392,1.5966883897781372,-5.273942470550537,-18.0,98.0,6.5892181396484375,-1.9691410064697266,0,0,0,40000
65402,1.5765799283981323,-5.213515281677246,-30.0,71.0,6.383749008178711,-1.8960762023925781,0,0,0,40000
65412,1.5635979175567627,-5.1780195236206055,-22.0,79.0,6.326545715332031,-1.8652305603027344,0,0,0,40000
65422,1.54961359500885,-5.12278938293457,-16.0,77.0,6.149501800537109,-1.8279228210449219,0,0,0,40000
65432,1.541535496711731,-5.094236850738525,-17.0,64.0,6.131353378295898,-1.8257789611816406,0,0,0,40000
65442,1.531126856803894,-5.046195983886719,-2.0,91.0,5.995140075683594,-1.8093109130859375,0,0,0,40000
65452,1.5305416584014893,-4.997462749481201,-3.0,116.0,5.853288650512695,-1.8517093658447266,0,0,0,40000
65462,1.51858389377594,-4.897887706756592,-20.0,186.0,5.40410041809082,-1.825706958770752,0,0,0,40000
65472,1.5135945081710815,-4.809317111968994,3.0,183.0,5.018043518066406,-1.8412342071533203,0,0,0,40000
65482,1.5217136144638062,-4.670739650726318,0.0,191.0,4.328365325927734,-1.9354567527770996,0,0,0,40000
65492,1.5234259366989136,-4.592701435089111,2.0,164.0,3.9988670349121094,-1.9913759231567383,0,0,0,40000
65502,1.5168571472167969,-4.5073323249816895,12.0,121.0,3.6227779388427734,-1.997532844543457,0,0,0,40000
65512,1.5216835737228394,-4.447566509246826,-5.0,101.0,3.3983116149902344,-2.0721025466918945,0,0,0,40000
65522,1.5206106901168823,-4.419955253601074,-8.0,-2.0,3.3652706146240234,-2.111318588256836,0,0,0,40000
65532,1.526195764541626,-4.432385444641113,-3.0,-63.0,3.5726795196533203,-2.1905336380004883,0,0,0,40000
65542,1.5415252447128296,-4.465373992919922,15.0,-65.0,3.904193878173828,-2.3284969329833984,0,0,0,40000
65552,1.5570390224456787,-4.494316577911377,36.0,-40.0,4.212339401245117,-2.4680376052856445,0,0,0,40000
65562,1.573527455329895,-4.513187885284424,45.0,-28.0,4.46075439453125,-2.613926887512207,0,0,0,40000
65572,1.582268476486206,-4.5235114097595215,46.0,-23.0,4.658262252807617,-2.713742256164551,0,0,0,40000
65582,1.6057147979736328,-4.555760860443115,35.0,-49.0,4.987943649291992,-2.9023799896240234,0,0,0,40000
65592,1.6233375072479248,-4.584878921508789,17.0,-75.0,5.299808502197266,-3.05661678314209,0,0,0,40000
65602,1.6441470384597778,-4.649188041687012,14.0,-96.0,5.824380874633789,-3.2305727005004883,0,0,0,40000
65612,1.6512795686721802,-4.698878765106201,38.0,-75.0,6.262897491455078,-3.3227767944335938,0,0,0,40000
65622,1.6601041555404663,-4.78074836730957,10.0,-158.0,6.896389007568359,-3.425457000732422,0,0,0,40000
65632,1.6533905267715454,-4.8561811447143555,20.0,-170.0,7.49376106262207,-3.4348411560058594,0,0,0,40000
65642,1.665631890296936,-4.973087787628174,18.0,-158.0,8.343013763427734,-3.5581512451171875,0,0,0,40000
65652,1.6647541522979736,-5.037909030914307,-7.0,-135.0,8.882301330566406,-3.6028833389282227,0,0,0,40000
65662,1.6523821353912354,-5.124349117279053,-29.0,-77.0,9.553749084472656,-3.5784292221069336,0,0,0,40000
65672,1.6458284854888916,-5.14855432510376,-31.0,-17.0,9.85322380065918,-3.5885496139526367,0,0,0,40000
65682,1.6255059242248535,-5.134585857391357,-27.0,38.0,9.92373275756836,-3.515615463256836,0,0,0,40000
65692,1.605426549911499,-5.113473892211914,-49.0,86.0,9.950725555419922,-3.443549156188965,0,0,0,40000
65702,1.5756900310516357,-5.0207366943359375,-56.0,195.0,9.546279907226562,-3.312814712524414,0,0,0,40000
65712,1.5459331274032593,-4.916141986846924,-92.0,262.0,9.06747817993164,-3.181032180786133,0,0,0,40000
65722,1.4857499599456787,-4.706681251525879,-67.0,340.0,7.954591751098633,-2.8651623725891113,0,0,0,40000
65732,1.4508368968963623,-4.550699710845947,-75.0,347.0,7.157077789306641,-2.699617385864258,0,0,0,40000
65742,1.3912746906280518,-4.3297953605651855,-84.0,329.0,5.964191436767578,-2.3846912384033203,0,0,0,40000
65752,1.3500853776931763,-4.195995330810547,-83.0,258.0,5.288829803466797,-2.1785545349121094,0,0,0,40000
65762,1.2922970056533813,-4.034233093261719,-85.0,214.0,4.441139221191406,-1.8713436126708984,0,0,0,40000
65772,1.2418590784072876,-3.949413776397705,-133.0,133.0,4.051708221435547,-1.6066102981567383,0,0,0,40000
65782,1.1646649837493896,-3.8913345336914062,-109.0,51.0,3.8205032348632812,-1.1792197227478027,0,0,0,40000
65792,1.1203768253326416,-3.8869709968566895,-67.0,-21.0,3.9109420776367188,-0.9475893974304199,0,0,0,40000
65802,1.0601266622543335,-3.9487013816833496,-65.0,-113.0,4.398792266845703,-0.6186280250549316,0,0,0,40000
65812,1.0232807397842407,-4.0126495361328125,-88.0,-132.0,4.902091979980469,-0.42873525619506836,0,0,0,40000
65822,0.9764671325683594,-4.1132426261901855,-69.0,-135.0,5.627782821655273,-0.17767095565795898,0,0,0,40000
65832,0.9472222328186035,-4.182394981384277,-52.0,-115.0,6.16734504699707,-0.030994415283203125,0,0,0,40000
65842,0.9170940518379211,-4.256019115447998,-33.0,-111.0,6.735876083374023,0.12197637557983398,0,0,0,40000
65852,0.9038869738578796,-4.287257194519043,-22.0,-54.0,7.051565170288086,0.17397499084472656,0,0,0,40000
65862,0.8850884437561035,-4.3051958084106445,0.0,11.0,7.288299560546875,0.2600588798522949,0,0,0,40000
65872,0.8914732933044434,-4.300693988800049,8.0,42.0,7.390363693237305,0.1950702667236328,0,0,0,40000
65882,0.8986998200416565,-4.240109920501709,2.0,122.0,7.154918670654297,0.12481021881103516,0,0,0,40000
65892,0.9025425314903259,-4.173742294311523,0.0,203.0,6.882762908935547,0.07475137710571289,0,0,0,40000
65902,0.9141901135444641,-4.020241737365723,36.0,241.0,6.084329605102539,-0.022305011749267578,0,0,0,40000
65912,0.9318640232086182,-3.897383451461792,39.0,290.0,5.465583801269531,-0.1561117172241211,0,0,0,40000
65922,0.9624736309051514,-3.704702138900757,44.0,273.0,4.422868728637695,-0.36826086044311523,0,0,0,40000
65932,0.9918953776359558,-3.5917551517486572,51.0,219.0,3.8542919158935547,-0.5741920471191406,0,0,0,40000
65942,1.0380383729934692,-3.4615659713745117,62.0,171.0,3.1784324645996094,-0.8816161155700684,0,0,0,40000
65952,1.0667835474014282,-3.4088687896728516,82.0,76.0,2.965089797973633,-1.0857410430908203,0,0,0,40000
65962,1.1185482740402222,-3.3860559463500977,83.0,3.0,2.9298248291015625,-1.4292244911193848,0,0,0,40000
65972,1.1549452543258667,-3.408221483230591,82.0,-61.0,3.164762496948242,-1.6818408966064453,0,0,0,40000
65982,1.215351939201355,-3.473296880722046,76.0,-100.0,3.658559799194336,-2.0800728797912598,0,0,0,40000
65992,1.2538063526153564,-3.5236458778381348,93.0,-115.0,4.065753936767578,-2.347930431365967,0,0,0,40000
66002,1.3151289224624634,-3.5951437950134277,94.0,-113.0,4.601718902587891,-2.7545037269592285,0,0,0,40000
66012,1.3471933603286743,-3.6394731998443604,60.0,-75.0,4.976381301879883,-2.9869675636291504,0,0,0,40000
66022,1.389513611793518,-3.702965021133423,49.0,-88.0,5.467580795288086,-3.282175064086914,0,0,0,40000
66032,1.4125709533691406,-3.733074426651001,41.0,-36.0,5.759908676147461,-3.462597370147705,0,0,0,40000
66042,1.4479151964187622,-3.7341103553771973,60.0,35.0,5.878326416015625,-3.7175941467285156,0,0,0,40000
66052,1.4639915227890015,-3.7043066024780273,34.0,96.0,5.811017990112305,-3.857783317565918,0,0,0,40000
66062,1.4769996404647827,-3.621035099029541,20.0,141.0,5.421134948730469,-3.9800033569335938,0,0,0,40000
66072,1.4851800203323364,-3.5365726947784424,-2.0,177.0,5.021476745605469,-4.073578357696533,0,0,0,40000
66082,1.475320816040039,-3.407834529876709,-21.0,190.0,4.352869033813477,-4.058844566345215,0,0,0,40000
66092,1.4748191833496094,-3.329586982727051,0.0,159.0,3.9842119216918945,-4.100065231323242,0,0,0,40000
66102,1.4626017808914185,-3.228710889816284,-20.0,155.0,3.4770021438598633,-4.070839881896973,0,0,0,40000
66112,1.4482516050338745,-3.185281991958618,-31.0,84.0,3.3124656677246094,-4.028359413146973,0,0,0,40000
66122,1.4310282468795776,-3.139101505279541,-26.0,58.0,3.130080223083496,-3.968155860900879,0,0,0,40000
66132,1.404800295829773,-3.1345298290252686,-65.0,4.0,3.1967248916625977,-3.853273391723633,0,0,0,40000
66142,1.3632363080978394,-3.144207715988159,-72.0,-14.0,3.3490114212036133,-3.6453466415405273,0,0,0,40000
66152,1.338419795036316,-3.1441752910614014,-46.0,1.0,3.4431276321411133,-3.536874771118164,0,0,0,40000
66162,1.2871503829956055,-3.1493399143218994,-51.0,-3.0,3.56854248046875,-3.2684531211853027,0,0,0,40000
66172,1.2563385963439941,-3.160536050796509,-64.0,-31.0,3.73038387298584,-3.1216745376586914,0,0,0,40000
66182,1.2105969190597534,-3.1741867065429688,-64.0,-8.0,3.9073734283447266,-2.884143829345703,0,0,0,40000
66192,1.1905670166015625,-3.1824889183044434,-65.0,-26.0,4.052543640136719,-2.7999439239501953,0,0,0,40000
66202,1.1539254188537598,-3.194322109222412,-44.0,15.0,4.219369888305664,-2.6150474548339844,0,0,0,40000
66212,1.1258245706558228,-3.16719388961792,-67.0,60.0,4.151955604553223,-2.4805660247802734,0,0,0,40000
66222,1.0777069330215454,-3.1177446842193604,-68.0,74.0,3.949350357055664,-2.224808692932129,0,0,0,40000
66232,1.0439872741699219,-3.0839717388153076,-45.0,87.0,3.8396568298339844,-2.054184913635254,0,0,0,40000
66242,1.0081981420516968,-3.0180695056915283,-43.0,88.0,3.535520553588867,-1.870107650756836,0,0,0,40000
66252,0.9896242618560791,-2.9910082817077637,-34.0,73.0,3.4632043838500977,-1.7885570526123047,0,0,0,40000
66262,0.967350423336029,-2.946479082107544,-20.0,67.0,3.284971237182617,-1.6841883659362793,0,0,0,40000
66272,0.9547369480133057,-2.9314792156219482,-11.0,45.0,3.28310489654541,-1.6372761726379395,0,0,0,40000
66282,0.9504686594009399,-2.8994553089141846,-10.0,45.0,3.1783275604248047,-1.6403098106384277,0,0,0,40000
66292,0.9390263557434082,-2.8795900344848633,-21.0,41.0,3.145766258239746,-1.5999603271484375,0,0,0,40000
66302,0.9291373491287231,-2.855668067932129,-1.0,25.0,3.088125228881836,-1.5685882568359375,0,0,0,40000
66312,0.9254745841026306,-2.837064027786255,-2.0,66.0,3.0618371963500977,-1.57440185546875,0,0,0,40000
66322,0.9306657910346985,-2.807253122329712,8.0,46.0,2.9675378799438477,-1.633413553237915,0,0,0,40000
66332,0.9421910047531128,-2.7870984077453613,17.0,53.0,2.9304752349853516,-1.73067045211792,0,0,0,40000
66342,0.9497897624969482,-2.7876572608947754,15.0,-14.0,3.017364501953125,-1.8046154975891113,0,0,0,40000
66352,0.9470658898353577,-2.801931381225586,-3.0,-44.0,3.1868505477905273,-1.8167529106140137,0,0,0,40000
66362,0.9622739553451538,-2.8377435207366943,15.0,-52.0,3.486477851867676,-1.9367098808288574,0,0,0,40000
66372,0.9736132621765137,-2.8754961490631104,27.0,-85.0,3.798773765563965,-2.033815383911133,0,0,0,40000
66382,0.9969725012779236,-2.9292726516723633,29.0,-71.0,4.208710670471191,-2.2036209106445312,0,0,0,40000
66392,1.004298448562622,-2.9584240913391113,22.0,-48.0,4.4720258712768555,-2.277611017227173,0,0,0,40000
66402,1.0257315635681152,-2.9792640209198,21.0,0.0,4.6863508224487305,-2.436751365661621,0,0,0,40000
66412,1.034468173980713,-2.9660379886627197,14.0,80.0,4.696185111999512,-2.5201120376586914,0,0,0,40000
66422,1.0419882535934448,-2.89428448677063,13.0,139.0,4.353589057922363,-2.5964195728302,0,0,0,40000
66432,1.0467814207077026,-2.8218345642089844,8.0,154.0,4.004413604736328,-2.656536817550659,0,0,0,40000
66442,1.057706594467163,-2.70096755027771,26.0,183.0,3.361736297607422,-2.7536439895629883,0,0,0,40000
66452,1.0628217458724976,-2.630035877227783,24.0,155.0,3.015878677368164,-2.8161497116088867,0,0,0,40000
66462,1.0738822221755981,-2.550386428833008,16.0,121.0,2.6154136657714844,-2.9146127700805664,0,0,0,40000
66472,1.0784615278244019,-2.498262882232666,5.0,98.0,2.3782310485839844,-2.974400043487549,0,0,0,40000
66482,1.0743134021759033,-2.4556236267089844,-11.0,46.0,2.196413040161133,-2.981802463531494,0,0,0,40000
66492,1.0784416198730469,-2.442519187927246,-5.0,15.0,2.1912031173706055,-3.0388641357421875,0,0,0,40000
66502,1.0682899951934814,-2.4560699462890625,5.0,-30.0,2.3459243774414062,-3.0100560188293457,0,0,0,40000
66512,1.0604840517044067,-2.4764657020568848,5.0,-40.0,2.5423707962036133,-2.9951171875,0,0,0,40000
66522,1.0596544742584229,-2.5102951526641846,-2.0,-57.0,2.8201675415039062,-3.021963357925415,0,0,0,40000
66532,1.0485327243804932,-2.541428565979004,-14.0,-63.0,3.082843780517578,-2.986813545227051,0,0,0,40000
66542,1.0542160272598267,-2.5806405544281006,0.0,-40.0,3.395136833190918,-3.052445888519287,0,0,0,40000
66552,1.046814203262329,-2.606053113937378,-21.0,-25.0,3.625483512878418,-3.0395429134368896,0,0,0,40000
66562,1.0396555662155151,-2.6230521202087402,3.0,-16.0,3.8059778213500977,-3.0277700424194336,0,0,0,40000
66572,1.0321189165115356,-2.6226885318756104,-3.0,-5.0,3.8824987411499023,-3.0135750770568848,0,0,0,40000
66582,1.0179153680801392,-2.622420310974121,-3.0,17.0,3.959573745727539,-2.959049701690674,0,0,0,40000
66592,1.0165660381317139,-2.6182994842529297,-14.0,30.0,4.013467788696289,-2.9814791679382324,0,0,0,40000
66602,1.012676477432251,-2.5733091831207275,-21.0,91.0,3.8214149475097656,-2.9885401725769043,0,0,0,40000
66612,1.0120689868927002,-2.5291528701782227,-21.0,113.0,3.632894515991211,-3.015263557434082,0,0,0,40000
66622,0.9955322742462158,-2.4324522018432617,-22.0,155.0,3.126873016357422,-2.9460818767547607,0,0,0,40000
66632,0.982211172580719,-2.3728153705596924,-17.0,145.0,2.8409252166748047,-2.895761251449585,0,0,0,40000
66642,0.9600182771682739,-2.317204713821411,-34.0,126.0,2.563206672668457,-2.7857847213745117,0,0,0,40000
66652,0.9319787621498108,-2.227602005004883,-38.0,93.0,2.1068248748779297,-2.65142822265625,0,0,0,40000
66662,0.9195874929428101,-2.1918649673461914,-38.0,57.0,1.9452009201049805,-2.5992074012756348,0,0,0,40000
66672,0.8941445350646973,-2.167459011077881,-47.0,3.0,1.8769855499267578,-2.4790525436401367,0,0,0,40000
66682,0.8730982542037964,-2.1716790199279785,-42.0,-23.0,1.9544000625610352,-2.373851776123047,0,0,0,40000
66692,0.8526897430419922,-2.2092418670654297,-8.0,-60.0,2.2587528228759766,-2.2822659015655518,0,0,0,40000
66702,0.8248776793479919,-2.2341420650482178,-68.0,-43.0,2.4616260528564453,-2.135395050048828,0,0,0,40000
66712,0.778967559337616,-2.2538866996765137,-58.0,-17.0,2.6610937118530273,-1.8885116577148438,0,0,0,40000
66722,0.7576331496238708,-2.260345935821533,-44.0,-10.0,2.754055976867676,-1.7788090705871582,0,0,0,40000
66732,0.7262793183326721,-2.264289617538452,-56.0,20.0,2.8592376708984375,-1.6172761917114258,0,0,0,40000
66742,0.7129411697387695,-2.2525200843811035,-39.0,22.0,2.8427324295043945,-1.5544087886810303,0,0,0,40000
66752,0.680053174495697,-2.237957715988159,-38.0,16.0,2.8361263275146484,-1.3820128440856934,0,0,0,40000
66762,0.6598413586616516,-2.2250254154205322,-42.0,36.0,2.811990737915039,-1.2767143249511719,0,0,0,40000
66772,0.6363015174865723,-2.205272912979126,-13.0,14.0,2.773120880126953,-1.158623218536377,0,0,0,40000
66782,0.6193447113037109,-2.197592258453369,-29.0,30.0,2.7798337936401367,-1.0718841552734375,0,0,0,40000
66792,0.6047253608703613,-2.1794028282165527,-13.0,20.0,2.749283790588379,-1.0060844421386719,0,0,0,40000
66802,0.597378671169281,-2.1678805351257324,-29.0,10.0,2.732234001159668,-0.9764046669006348,0,0,0,40000
66812,0.5884113311767578,-2.158572196960449,-8.0,18.0,2.7542123794555664,-0.9438178539276123,0,0,0,40000
66822,0.5863957405090332,-2.155247688293457,-17.0,33.0,2.7860326766967773,-0.945803165435791,0,0,0,40000
66832,0.5896593332290649,-2.137692451477051,0.0,32.0,2.757852554321289,-0.9864761829376221,0,0,0,40000
66842,0.5872654318809509,-2.126077651977539,25.0,21.0,2.7392616271972656,-0.986198902130127,0,0,0,40000
66852,0.6032992601394653,-2.093219757080078,13.0,38.0,2.6053380966186523,-1.1003592014312744,0,0,0,40000
66862,0.6046014428138733,-2.0737881660461426,13.0,58.0,2.551205635070801,-1.1262893676757812,0,0,0,40000
66872,0.6334974765777588,-2.0295238494873047,25.0,74.0,2.3471107482910156,-1.3183274269104004,0,0,0,40000
66882,0.6396487355232239,-1.999360203742981,7.0,84.0,2.2264747619628906,-1.374359369277954,0,0,0,40000
66892,0.6492242813110352,-1.9417986869812012,24.0,90.0,1.9401273727416992,-1.4510831832885742,0,0,0,40000
66902,0.6497322916984558,-1.9101084470748901,38.0,72.0,1.8076562881469727,-1.4736058712005615,0,0,0,40000
66912,0.669182300567627,-1.8772413730621338,66.0,58.0,1.6671810150146484,-1.6100945472717285,0,0,0,40000
66922,0.6764140129089355,-1.8568977117538452,1.0,19.0,1.6010503768920898,-1.6737546920776367,0,0,0,40000
66932,0.694760799407959,-1.846732258796692,2.0,13.0,1.595576286315918,-1.8044795989990234,0,0,0,40000
66942,0.694619357585907,-1.8489201068878174,4.0,-16.0,1.6641311645507812,-1.8244667053222656,0,0,0,40000
66952,0.6982719302177429,-1.8656939268112183,-6.0,-33.0,1.82049560546875,-1.8672869205474854,0,0,0,40000
66962,0.6908389925956726,-1.877817988395691,25.0,-2.0,1.9494085311889648,-1.8434762954711914,0,0,0,40000
66972,0.6873328685760498,-1.8907078504562378,4.0,-10.0,2.083279609680176,-1.8431429862976074,0,0,0,40000
66982,0.6866399049758911,-1.9036751985549927,13.0,-16.0,2.2180490493774414,-1.8596107959747314,0,0,0,40000
66992,0.6778557896614075,-1.9094828367233276,-38.0,10.0,2.310140609741211,-1.8275351524353027,0,0,0,40000
67002,0.6689651608467102,-1.8986011743545532,-33.0,43.0,2.301952362060547,-1.7943387031555176,0,0,0,40000
67012,0.6481950879096985,-1.8660211563110352,-31.0,56.0,2.1628637313842773,-1.6893291473388672,0,0,0,40000
67022,0.6307066082954407,-1.8339157104492188,-17.0,96.0,2.025655746459961,-1.6035130023956299,0,0,0,40000
67032,0.6005845069885254,-1.7668566703796387,-38.0,108.0,1.6771392822265625,-1.441236972808838,0,0,0,40000
67042,0.5812019109725952,-1.7304364442825317,-40.0,75.0,1.5109453201293945,-1.3426225185394287,0,0,0,40000
67052,0.544417142868042,-1.6972705125808716,-65.0,29.0,1.3631315231323242,-1.138725757598877,0,0,0,40000
67062,0.5268248319625854,-1.6906472444534302,-42.0,1.0,1.3741788864135742,-1.0491478443145752,0,0,0,40000
67072,0.49856969714164734,-1.694557547569275,-42.0,3.0,1.448465347290039,-0.8949129581451416,0,0,0,40000
67082,0.47474002838134766,-1.6982146501541138,-38.0,16.0,1.521315574645996,-0.766448974609375,0,0,0,40000
67092,0.43864285945892334,-1.6935300827026367,-25.0,11.0,1.5440683364868164,-0.5634329319000244,0,0,0,40000
67102,0.4227786362171173,-1.6832115650177002,-39.0,20.0,1.5327568054199219,-0.4811363220214844,0,0,0,40000
67112,0.39590755105018616,-1.6732466220855713,-47.0,15.0,1.523275375366211,-0.3321218490600586,0,0,0,40000
67122,0.38726210594177246,-1.66478431224823,-21.0,9.0,1.5225610733032227,-0.29192233085632324,0,0,0,40000
67132,0.37804076075553894,-1.6506907939910889,3.0,18.0,1.487685203552246,-0.24792122840881348,0,0,0,40000
67142,0.37802964448928833,-1.6457021236419678,7.0,-4.0,1.5071649551391602,-0.2591838836669922,0,0,0,40000
67152,0.3767167925834656,-1.637524962425232,4.0,27.0,1.5073814392089844,-0.2626488208770752,0,0,0,40000
67162,0.37407800555229187,-1.6199344396591187,-4.0,54.0,1.4506797790527344,-0.2580772638320923,0,0,0,40000
67172,0.37471312284469604,-1.5684500932693481,7.0,87.0,1.189504623413086,-0.2731187343597412,0,0,0,40000
67182,0.3762883245944977,-1.53061044216156,8.0,92.0,1.00885009765625,-0.29383909702301025,0,0,0,40000
67192,0.39810580015182495,-1.4718694686889648,25.0,50.0,0.7012119293212891,-0.43638062477111816,0,0,0,40000
67202,0.41524675488471985,-1.4538190364837646,30.0,40.0,0.6367073059082031,-0.5514681339263916,0,0,0,40000
67212,0.4388079047203064,-1.4461913108825684,52.0,21.0,0.6344261169433594,-0.7056515216827393,0,0,0,40000
67222,0.45532867312431335,-1.4442285299301147,41.0,13.0,0.6660051345825195,-0.8182458877563477,0,0,0,40000
67232,0.46768444776535034,-1.454435110092163,8.0,-16.0,0.7707414627075195,-0.906402587890625,0,0,0,40000
67242,0.4773833453655243,-1.4607540369033813,7.0,-18.0,0.852409839630127,-0.9788068532943726,0,0,0,40000
67252,0.49782660603523254,-1.4812068939208984,15.0,-20.0,1.0193471908569336,-1.1161067485809326,0,0,0,40000
67262,0.5080265402793884,-1.4918028116226196,15.0,-39.0,1.1275157928466797,-1.1924259662628174,0,0,0,40000
67272,0.5115899443626404,-1.5169776678085327,-3.0,-7.0,1.3238019943237305,-1.2291715145111084,0,0,0,40000
67282,0.5131040811538696,-1.517356038093567,-11.0,-13.0,1.3715667724609375,-1.25364089012146,0,0,0,40000
67292,0.49710342288017273,-1.5304005146026611,-22.0,-4.0,1.4955716133117676,-1.1727298498153687,0,0,0,40000
67302,0.48372122645378113,-1.5390737056732178,-7.0,-14.0,1.5936894416809082,-1.107088327407837,0,0,0,40000
67312,0.47423484921455383,-1.5505971908569336,-21.0,-19.0,1.7092018127441406,-1.064560890197754,0,0,0,40000
67322,0.4569835066795349,-1.5581640005111694,-38.0,0.0,1.8012661933898926,-0.9749943017959595,0,0,0,40000
67332,0.43043893575668335,-1.5509843826293945,-38.0,6.0,1.804849624633789,-0.8289620876312256,0,0,0,40000
67342,0.40877431631088257,-1.5449192523956299,-45.0,22.0,1.8148717880249023,-0.7115026712417603,0,0,0,40000
67352,0.37532275915145874,-1.5353577136993408,-48.0,41.0,1.8037066459655762,-0.5224637985229492,0,0,0,40000
67362,0.351532906293869,-1.5157389640808105,-63.0,20.0,1.7316884994506836,-0.3905766010284424,0,0,0,40000
67372,0.3084429204463959,-1.4811606407165527,-63.0,54.0,1.5691242218017578,-0.14183640480041504,0,0,0,40000
67382,0.2804226875305176,-1.455329418182373,-67.0,62.0,1.4581003189086914,0.017518043518066406,0,0,0,40000
67392,0.2336883544921875,-1.4230334758758545,-65.0,67.0,1.3074407577514648,0.2903575897216797,0,0,0,40000
67402,0.2095455825328827,-1.400107979774475,-61.0,52.0,1.2121620178222656,0.4286379814147949,0,0,0,40000
67412,0.1682865023612976,-1.3629002571105957,-56.0,58.0,1.0302705764770508,0.670660138130188,0,0,0,40000
67422,0.14504727721214294,-1.332501769065857,-64.0,70.0,0.8882236480712891,0.8054446578025818,0,0,0,40000
67432,0.10620715469121933,-1.286299467086792,-61.0,66.0,0.6501059532165527,1.0348268747329712,0,0,0,40000
67442,0.0748336911201477,-1.2479509115219116,-49.0,98.0,0.4579172134399414,1.2204258441925049,0,0,0,40000
67452,0.04015956073999405,-1.181270718574524,-50.0,106.0,0.09411334991455078,1.4268423318862915,0,0,0,40000
67462,0.024081625044345856,-1.1434810161590576,-44.0,70.0,-0.09787988662719727,1.5223801136016846,0,0,0,40000
67472,-0.004192811902612448,-1.1075711250305176,-38.0,27.0,-0.27979564666748047,1.6918095350265503,0,0,0,40000
67482,-0.028353141620755196,-1.1031908988952637,-17.0,22.0,-0.2729358673095703,1.8373323678970337,0,0,0,40000
67492,-0.04460366815328598,-1.0967497825622559,-24.0,-9.0,-0.2786679267883301,1.935903549194336,0,0,0,40000
67502,-0.050791461020708084,-1.104690432548523,-20.0,-11.0,-0.19798660278320312,1.9744682312011719,0,0,0,40000
67512,-0.05756860971450806,-1.1220133304595947,-17.0,-30.0,-0.0605921745300293,2.0167956352233887,0,0,0,40000
67522,-0.061911389231681824,-1.1476590633392334,-1.0,-57.0,0.1273784637451172,2.0447115898132324,0,0,0,40000
67532,-0.05212081968784332,-1.1822675466537476,32.0,-53.0,0.37013673782348633,1.9877270460128784,0,0,0,40000
67542,-0.04187619686126709,-1.2126705646514893,25.0,-56.0,0.5885367393493652,1.9276227951049805,0,0,0,40000
67552,-0.015536920167505741,-1.2561231851577759,46.0,-52.0,0.8864936828613281,1.7704066038131714,0,0,0,40000
67562,0.007050207816064358,-1.285190463066101,52.0,-51.0,1.0990824699401855,1.6349555253982544,0,0,0,40000
67572,0.03918907791376114,-1.3221497535705566,63.0,-33.0,1.3601093292236328,1.4413303136825562,0,0,0,40000
67582,0.06978054344654083,-1.3203152418136597,68.0,44.0,1.3887953758239746,1.2560694217681885,0,0,0,40000
67592,0.11672145128250122,-1.2894080877304077,87.0,42.0,1.2424168586730957,0.9715367555618286,0,0,0,40000
67602,0.14963474869728088,-1.2712315320968628,69.0,64.0,1.1717238426208496,0.7699329257011414,0,0,0,40000
67612,0.1990586519241333,-1.235908031463623,50.0,53.0,0.9972953796386719,0.4679598808288574,0,0,0,40000
67622,0.2333420217037201,-1.2043997049331665,58.0,50.0,0.8447351455688477,0.2557131052017212,0,0,0,40000
67632,0.2736419141292572,-1.159148931503296,64.0,66.0,0.6086511611938477,0.00625765323638916,0,0,0,40000
67642,0.29713502526283264,-1.127070426940918,56.0,66.0,0.4503664970397949,-0.1433103084564209,0,0,0,40000
67652,0.330644816160202,-1.1040793657302856,57.0,27.0,0.34573984146118164,-0.35389161109924316,0,0,0,40000
67662,0.3475009799003601,-1.0841422080993652,33.0,26.0,0.25885534286499023,-0.46527087688446045,0,0,0,40000
67672,0.37482646107673645,-1.0766026973724365,33.0,2.0,0.2459416389465332,-0.6401429176330566,0,0,0,40000
67682,0.39717841148376465,-1.0705724954605103,31.0,8.0,0.2419590950012207,-0.7858829498291016,0,0,0,40000
67692,0.4197809398174286,-1.073011875152588,37.0,13.0,0.28875255584716797,-0.9337654113769531,0,0,0,40000
67702,0.4289108216762543,-1.0821555852890015,40.0,-19.0,0.37595319747924805,-1.001266598701477,0,0,0,40000
67712,0.4383315443992615,-1.0911552906036377,7.0,-10.0,0.4625725746154785,-1.0709344148635864,0,0,0,40000
67722,0.4342203140258789,-1.1096301078796387,-14.0,-25.0,0.6064953804016113,-1.0593695640563965,0,0,0,40000
67732,0.4369557499885559,-1.110449194908142,-18.0,-7.0,0.644749641418457,-1.088866114616394,0,0,0,40000
67742,0.4349953830242157,-1.1148287057876587,0.0,12.0,0.7044367790222168,-1.0901578664779663,0,0,0,40000
67752,0.44038546085357666,-1.1188573837280273,-4.0,7.0,0.7620840072631836,-1.135629653930664,0,0,0,40000
67762,0.4341508448123932,-1.12892746925354,0.0,-32.0,0.8562374114990234,-1.1113042831420898,0,0,0,40000
67772,0.4308127760887146,-1.1530202627182007,-17.0,-22.0,1.0351653099060059,-1.1043200492858887,0,0,0,40000
67782,0.41733789443969727,-1.1563249826431274,-40.0,14.0,1.0896778106689453,-1.036167860031128,0,0,0,40000
67792,0.41069069504737854,-1.1499862670898438,-13.0,5.0,1.0862236022949219,-1.0086252689361572,0,0,0,40000
67802,0.4005741775035858,-1.1339815855026245,-25.0,48.0,1.0244474411010742,-0.9600602388381958,0,0,0,40000
67812,0.381105899810791,-1.1092607975006104,-13.0,52.0,0.9097113609313965,-0.8548401594161987,0,0,0,40000
67822,0.3698340058326721,-1.086220383644104,-23.0,36.0,0.8043365478515625,-0.7984459400177002,0,0,0,40000
67832,0.34603720903396606,-1.0711685419082642,-43.0,30.0,0.746333122253418,-0.6664016246795654,0,0,0,40000
67842,0.32549378275871277,-1.0731312036514282,-40.0,-14.0,0.7902708053588867,-0.5531586408615112,0,0,0,40000
67852,0.31198903918266296,-1.0885062217712402,-38.0,-26.0,0.9150199890136719,-0.4816625118255615,0,0,0,40000
67862,0.2955288290977478,-1.1047409772872925,-22.0,-25.0,1.045365810394287,-0.3919273614883423,0,0,0,40000
67872,0.2736712396144867,-1.1221405267715454,-22.0,-25.0,1.1832261085510254,-0.26922333240509033,0,0,0,40000
67882,0.2559266984462738,-1.1406623125076294,-35.0,-37.0,1.3283233642578125,-0.1706702709197998,0,0,0,40000
67892,0.23218129575252533,-1.1890925168991089,-26.0,-67.0,1.6539740562438965,-0.035439133644104004,0,0,0,40000
67902,0.22495751082897186,-1.2305197715759277,-20.0,-90.0,1.9389572143554688,0.0010563135147094727,0,0,0,40000
67912,0.21631468832492828,-1.2910233736038208,-25.0,-90.0,2.339959144592285,0.046309828758239746,0,0,0,40000
67922,0.2134893536567688,-1.3200833797454834,-6.0,-56.0,2.5535922050476074,0.056838274002075195,0,0,0,40000
67932,0.21108059585094452,-1.3544788360595703,2.0,-38.0,2.8002429008483887,0.06499552726745605,0,0,0,40000
67942,0.21875843405723572,-1.3720484972000122,1.0,-15.0,2.946652412414551,0.012442231178283691,0,0,0,40000
67952,0.2305990606546402,-1.3722138404846191,22.0,20.0,2.9888782501220703,-0.06535470485687256,0,0,0,40000
67962,0.24055789411067963,-1.3655532598495483,19.0,40.0,2.9899816513061523,-0.1321929693222046,0,0,0,40000
67972,0.25164294242858887,-1.3116586208343506,13.0,97.0,2.7067389488220215,-0.20614123344421387,0,0,0,40000
67982,0.25547119975090027,-1.2680944204330444,-7.0,97.0,2.483908176422119,-0.23676633834838867,0,0,0,40000
67992,0.2660452723503113,-1.2015725374221802,8.0,93.0,2.1216249465942383,-0.308056116104126,0,0,0,40000
68002,0.2756032943725586,-1.1481083631515503,5.0,106.0,1.8359150886535645,-0.3735753297805786,0,0,0,40000
68012,0.2834378778934479,-1.076775312423706,15.0,106.0,1.4410510063171387,-0.42897236347198486,0,0,0,40000
68022,0.2953070402145386,-1.0305562019348145,26.0,120.0,1.1952333450317383,-0.5089086294174194,0,0,0,40000
68032,0.3100664019584656,-0.9673616886138916,17.0,80.0,0.8457221984863281,-0.6066293716430664,0,0,0,40000
68042,0.32477521896362305,-0.9435924887657166,34.0,28.0,0.731694221496582,-0.7044497728347778,0,0,0,40000
68052,0.34945958852767944,-0.9556328654289246,41.0,-36.0,0.8323540687561035,-0.8626707792282104,0,0,0,40000
68062,0.36421430110931396,-0.9709145426750183,33.0,-15.0,0.9529852867126465,-0.961959719657898,0,0,0,40000
68072,0.3885093927383423,-0.9884594678878784,27.0,-6.0,1.0877118110656738,-1.1191354990005493,0,0,0,40000
68082,0.40501856803894043,-0.9805356860160828,25.0,31.0,1.0697107315063477,-1.2301545143127441,0,0,0,40000
68092,0.42164862155914307,-0.9598132967948914,19.0,40.0,0.9743709564208984,-1.3424103260040283,0,0,0,40000
68102,0.43052688241004944,-0.9357354640960693,37.0,36.0,0.8582930564880371,-1.4084606170654297,0,0,0,40000
68112,0.4507908821105957,-0.9027560353279114,19.0,43.0,0.6878824234008789,-1.5433646440505981,0,0,0,40000
68122,0.4612988531589508,-0.8702309727668762,25.0,90.0,0.5192656517028809,-1.6201151609420776,0,0,0,40000
68132,0.4690632224082947,-0.8359477519989014,9.0,55.0,0.3389911651611328,-1.6806994676589966,0,0,0,40000
68142,0.47356799244880676,-0.8126589059829712,28.0,25.0,0.2238922119140625,-1.72184157371521,0,0,0,40000
68152,0.4674893617630005,-0.8130195736885071,-6.0,-14.0,0.2503032684326172,-1.6994965076446533,0,0,0,40000
68162,0.4562925100326538,-0.833215594291687,-28.0,-60.0,0.39620542526245117,-1.646146297454834,0,0,0,40000
68172,0.45105987787246704,-0.8780490756034851,-18.0,-49.0,0.6910858154296875,-1.6283068656921387,0,0,0,40000
68182,0.43935614824295044,-0.8920562267303467,-37.0,-29.0,0.8017549514770508,-1.5714272260665894,0,0,0,40000
68192,0.4142429232597351,-0.9160758256912231,-23.0,-24.0,0.9730625152587891,-1.4334306716918945,0,0,0,40000
68202,0.4001259505748749,-0.9377111792564392,-16.0,-46.0,1.1307249069213867,-1.3608756065368652,0,0,0,40000
68212,0.38134363293647766,-0.9785649180412292,-15.0,-56.0,1.404698371887207,-1.2597988843917847,0,0,0,40000
68222,0.3651275634765625,-1.001257300376892,-37.0,-59.0,1.5706267356872559,-1.173665165901184,0,0,0,40000
68232,0.34952661395072937,-1.0487700700759888,-42.0,-68.0,1.8865766525268555,-1.0907710790634155,0,0,0,40000
68242,0.33592644333839417,-1.064687967300415,-38.0,-18.0,2.0138792991638184,-1.0194118022918701,0,0,0,40000
68252,0.3055706322193146,-1.0798466205596924,-50.0,-10.0,2.137092113494873,-0.8468225002288818,0,0,0,40000
68262,0.2879640460014343,-1.067456603050232,-27.0,50.0,2.0949854850769043,-0.7500181198120117,0,0,0,40000
68272,0.26507502794265747,-1.051759123802185,-36.0,39.0,2.032538890838623,-0.6209569573402405,0,0,0,40000
68282,0.25149253010749817,-1.0348010063171387,-26.0,45.0,1.9620485305786133,-0.5471796989440918,0,0,0,40000
68292,0.2387278974056244,-1.012196660041809,-22.0,27.0,1.856980323791504,-0.47789502143859863,0,0,0,40000
68302,0.23577028512954712,-1.0004053115844727,-20.0,17.0,1.8163728713989258,-0.46727633476257324,0,0,0,40000
68312,0.2266356498003006,-0.9854626059532166,-11.0,38.0,1.7565059661865234,-0.41935795545578003,0,0,0,40000
68322,0.22754718363285065,-0.968042254447937,-2.0,2.0,1.6811938285827637,-0.4316542148590088,0,0,0,40000
68332,0.2189539223909378,-0.9863682985305786,-8.0,-36.0,1.820420265197754,-0.386760950088501,0,0,0,40000
68342,0.220258429646492,-1.0093873739242554,4.0,-30.0,1.988553524017334,-0.40117788314819336,0,0,0,40000
68352,0.23965635895729065,-1.0340769290924072,17.0,-27.0,2.1674389839172363,-0.5245333909988403,0,0,0,40000
68362,0.24826323986053467,-1.0529180765151978,16.0,-26.0,2.311842441558838,-0.5834978818893433,0,0,0,40000
68372,0.2618022859096527,-1.059680700302124,13.0,-16.0,2.3840994834899902,-0.6724383234977722,0,0,0,40000
68382,0.26764246821403503,-1.056787133216858,23.0,34.0,2.398499011993408,-0.7154195308685303,0,0,0,40000
68392,0.2687804102897644,-1.0458128452301025,11.0,12.0,2.364124298095703,-0.7303162813186646,0,0,0,40000
68402,0.27754440903663635,-1.0277149677276611,26.0,63.0,2.2866015434265137,-0.7911243438720703,0,0,0,40000
68412,0.291013240814209,-0.9853180646896362,23.0,68.0,2.0622265338897705,-0.8805246353149414,0,0,0,40000
68422,0.3005910813808441,-0.9532280564308167,15.0,98.0,1.898693561553955,-0.9469155073165894,0,0,0,40000
68432,0.31230998039245605,-0.8902674913406372,4.0,89.0,1.5484027862548828,-1.0265233516693115,0,0,0,40000
68442,0.3233872354030609,-0.8493348360061646,21.0,82.0,1.3287625312805176,-1.102563738822937,0,0,0,40000
68452,0.3358815610408783,-0.796728253364563,26.0,64.0,1.0376017093658447,-1.1874418258666992,0,0,0,40000
68462,0.3479064404964447,-0.7718488574028015,35.0,44.0,0.9117255210876465,-1.2698882818222046,0,0,0,40000
68472,0.3704340159893036,-0.7374902367591858,37.0,40.0,0.7280943393707275,-1.4158868789672852,0,0,0,40000
68482,0.38215598464012146,-0.7354064583778381,14.0,3.0,0.7376728057861328,-1.497571349143982,0,0,0,40000
68492,0.396110475063324,-0.7441065907478333,10.0,-12.0,0.8120937347412109,-1.593076467514038,0,0,0,40000
68502,0.4038134813308716,-0.7507089376449585,3.0,-10.0,0.8741683959960938,-1.6513075828552246,0,0,0,40000
68512,0.4170324504375458,-0.7640681266784668,28.0,-17.0,0.9771344661712646,-1.7428615093231201,0,0,0,40000
68522,0.4228222668170929,-0.7635179758071899,29.0,17.0,0.9967303276062012,-1.790209412574768,0,0,0,40000
68532,0.417193204164505,-0.7356469631195068,-14.0,59.0,0.8520464897155762,-1.7691131830215454,0,0,0,40000
68542,0.42220237851142883,-0.6908597350120544,7.0,91.0,0.6045899391174316,-1.8117936849594116,0,0,0,40000
68552,0.44281628727912903,-0.6141624450683594,22.0,130.0,0.16382598876953125,-1.9484771490097046,0,0,0,40000
68562,0.45301178097724915,-0.5449460744857788,13.0,150.0,-0.23428750038146973,-2.02311372756958,0,0,0,40000
68572,0.4471193552017212,-0.4523801803588867,-9.0,136.0,-0.7750473022460938,-2.0012729167938232,0,0,0,40000
68582,0.43693190813064575,-0.3964304029941559,-8.0,106.0,-1.0981864929199219,-1.9534063339233398,0,0,0,40000
68592,0.4231112003326416,-0.34830430150032043,-14.0,67.0,-1.3760154247283936,-1.8833420276641846,0,0,0,40000
68602,0.42414119839668274,-0.32213327288627625,-14.0,33.0,-1.523054838180542,-1.9022369384765625,0,0,0,40000
68612,0.4137764275074005,-0.3165754973888397,-19.0,-3.0,-1.5469081401824951,-1.85256028175354,0,0,0,40000
68622,0.4097525179386139,-0.30674272775650024,-15.0,1.0,-1.5965787172317505,-1.8407585620880127,0,0,0,40000
68632,0.39517807960510254,-0.32869642972946167,-29.0,-48.0,-1.4554470777511597,-1.7653801441192627,0,0,0,40000
68642,0.3867132365703583,-0.3635421693325043,-32.0,-60.0,-1.2358975410461426,-1.7263219356536865,0,0,0,40000
68652,0.3595817983150482,-0.4157540202140808,-32.0,-68.0,-0.9107656478881836,-1.5746594667434692,0,0,0,40000
68662,0.3453247547149658,-0.44396477937698364,-23.0,-42.0,-0.7311630249023438,-1.4975602626800537,0,0,0,40000
68672,0.3384580612182617,-0.4492695927619934,-44.0,-8.0,-0.6858959197998047,-1.4666054248809814,0,0,0,40000
68682,0.3275561034679413,-0.4528326988220215,-38.0,-1.0,-0.6509120464324951,-1.4111108779907227,0,0,0,40000
68692,0.30858761072158813,-0.43691572546958923,-47.0,54.0,-0.7330870628356934,-1.3067867755889893,0,0,0,40000
68702,0.2778145670890808,-0.4236043095588684,-38.0,26.0,-0.8001904487609863,-1.1308341026306152,0,0,0,40000
68712,0.25532421469688416,-0.41489818692207336,-41.0,17.0,-0.8398621082305908,-1.0038037300109863,0,0,0,40000
68722,0.22760704159736633,-0.43230417370796204,-46.0,-56.0,-0.7228851318359375,-0.8446313142776489,0,0,0,40000
68732,0.21568381786346436,-0.4543285369873047,-30.0,-45.0,-0.5773868560791016,-0.7796680927276611,0,0,0,40000
68742,0.1936677098274231,-0.4867299199104309,-33.0,-21.0,-0.3686800003051758,-0.653610348701477,0,0,0,40000
68752,0.1795830875635147,-0.489550918340683,-13.0,-1.0,-0.33709287643432617,-0.574658989906311,0,0,0,40000
68762,0.16798065602779388,-0.466136634349823,-13.0,40.0,-0.4632110595703125,-0.5102194547653198,0,0,0,40000
68772,0.16603504121303558,-0.4452049136161804,-15.0,36.0,-0.5751857757568359,-0.5035334825515747,0,0,0,40000
68782,0.15807312726974487,-0.43936774134635925,-18.0,-6.0,-0.5970685482025146,-0.4605925977230072,0,0,0,40000
68792,0.15413635969161987,-0.45418551564216614,9.0,-15.0,-0.49474167823791504,-0.44159209728240967,0,0,0,40000
68802,0.16186577081680298,-0.46944189071655273,24.0,-22.0,-0.3893089294433594,-0.4926428198814392,0,0,0,40000
68812,0.16615021228790283,-0.47661954164505005,4.0,-27.0,-0.33204221725463867,-0.5233080983161926,0,0,0,40000
68822,0.18392051756381989,-0.4853026568889618,29.0,-10.0,-0.2654726505279541,-0.6351956129074097,0,0,0,40000
68832,0.2032768726348877,-0.4727802574634552,17.0,9.0,-0.3262498378753662,-0.7571855783462524,0,0,0,40000
68842,0.2137715071439743,-0.460625559091568,20.0,40.0,-0.3852047920227051,-0.8263894319534302,0,0,0,40000
68852,0.21890299022197723,-0.43302321434020996,39.0,68.0,-0.5374765396118164,-0.8636699318885803,0,0,0,40000
68862,0.24057576060295105,-0.38568753004074097,22.0,78.0,-0.8093223571777344,-1.0006804466247559,0,0,0,40000
68872,0.24679024517536163,-0.35093337297439575,7.0,83.0,-1.0069317817687988,-1.0453306436538696,0,30,0,40000
68882,0.2641529440879822,-0.2885521352291107,33.0,118.0,-181.91175842285156,-1.1571629047393799,0,30,0,40000
68892,0.27928951382637024,-0.24109943211078644,33.0,31.0,-183.08871459960938,-1.2561562061309814,0,30,0,40000
68902,0.29816508293151855,-0.28272274136543274,26.0,-196.0,-183.73147583007812,-1.3781375885009766,0,30,0,40000
68912,0.3070741295814514,-0.4443204998970032,34.0,-538.0,-183.6507110595703,-1.4407178163528442,0,30,0,40000
68922,0.32052019238471985,-0.970386266708374,20.0,-1021.0,-181.37257385253906,-1.5309128761291504,0,30,0,40000
68932,0.330735445022583,-1.569277048110962,28.0,-1619.0,-178.63967895507812,-1.6020123958587646,0,30,0,40000
68942,0.3665473759174347,-2.9037559032440186,34.0,-2273.0,-171.4631805419922,-1.8274184465408325,0,30,0,40000
68952,0.38065454363822937,-4.099438667297363,46.0,-2937.0,-165.08082580566406,-1.9232646226882935,0,30,0,40000
68962,0.39878198504447937,-6.321186065673828,32.0,-3533.0,-152.48867797851562,-2.0438168048858643,0,30,0,40000
68972,0.4073482155799866,-8.037068367004395,31.0,-3943.0,-142.87306213378906,-2.1073391437530518,0,30,0,40000
68982,0.42101216316223145,-10.814148902893066,11.0,-4152.0,-126.81997680664062,-2.20186448097229,0,30,0,40000
68992,0.4238708019256592,-12.716665267944336,0.0,-4140.0,-115.94619750976562,-2.2316951751708984,0,30,0,40000
69002,0.4163254499435425,-15.493902206420898,-16.0,-3937.0,-99.75086975097656,-2.199004888534546,0,30,0,40000
69012,0.39663025736808777,-17.20461082458496,-22.0,-3507.0,-89.89076232910156,-2.0929510593414307,0,30,0,40000
69022,0.3649984300136566,-19.426788330078125,-50.0,-2960.0,-76.90034484863281,-1.914583444595337,0,30,0,40000
69032,0.33495190739631653,-20.623332977294922,-78.0,-2273.0,-70.01634979248047,-1.7446942329406738,0,30,0,40000
69042,0.2708035111427307,-21.944730758666992,-62.0,-1575.0,-62.343875885009766,-1.3686829805374146,0,30,0,40000
69052,0.2385897934436798,-22.523256301879883,-78.0,-978.0,-59.10364532470703,-1.182907223701477,0,30,0,40000
69062,0.16640007495880127,-23.002988815307617,-72.0,-444.0,-56.439666748046875,-0.7556489706039429,0,30,0,40000
69072,0.11894282698631287,-23.11040687561035,-88.0,-46.0,-56.0029182434082,-0.47503501176834106,0,30,0,40000
69082,0.05843302235007286,-23.059185028076172,-73.0,175.0,-56.517333984375,-0.11446982622146606,0,30,0,40000
69092,0.015967437997460365,-22.948816299438477,-61.0,246.0,-57.38975143432617,0.13935647904872894,0,30,0,40000
69102,-0.05035727471113205,-22.806095123291016,-68.0,184.0,-58.4603157043457,0.5380293130874634,0,30,0,40000
69112,-0.09561798721551895,-22.759584426879883,-55.0,0.0,-58.95615005493164,0.8119281530380249,0,30,0,40000
69122,-0.14526835083961487,-22.84495735168457,-78.0,-258.0,-58.66014862060547,1.1135365962982178,0,30,0,40000
69132,-0.17839650809764862,-23.02812385559082,-52.0,-568.0,-57.77269744873047,1.317276954650879,0,30,0,40000
69142,-0.21823067963123322,-23.530420303344727,-26.0,-888.0,-54.95970153808594,1.5623867511749268,0,30,0,40000
69152,-0.23810453712940216,-24.009737014770508,-19.0,-1178.0,-52.2694091796875,1.6885333061218262,0,30,0,40000
69162,-0.2519643306732178,-24.914873123168945,-4.0,-1461.0,-47.00263977050781,1.779053807258606,0,30,0,40000
69172,-0.2569524943828583,-25.613500595092773,-20.0,-1604.0,-42.95091247558594,1.8166166543960571,0,30,0,40000
69182,-0.27479788661003113,-26.753873825073242,-15.0,-1684.0,-36.21990203857422,1.9316682815551758,0,30,0,40000
69192,-0.2771441638469696,-27.514108657836914,11.0,-1641.0,-31.74215316772461,1.9540882110595703,0,30,0,40000
69202,-0.27119964361190796,-28.599943161010742,20.0,-1496.0,-25.281822204589844,1.9267451763153076,0,30,0,40000
69212,-0.2572358250617981,-29.229022979736328,52.0,-1244.0,-21.537872314453125,1.850820541381836,0,30,0,40000
69222,-0.2455853968858719,-29.98478126525879,7.0,-964.0,-17.012271881103516,1.788421630859375,0,30,0,40000
69232,-0.232715904712677,-30.355371475219727,4.0,-656.0,-14.782390594482422,1.7183120250701904,0,30,0,40000
69242,-0.2159988284111023,-30.70045280456543,22.0,-398.0,-12.694480895996094,1.6248254776000977,0,30,0,40000
69252,-0.21108172833919525,-30.83106231689453,14.0,-146.0,-11.887317657470703,1.601733684539795,0,30,0,40000
69262,-0.204423725605011,-30.88457679748535,37.0,0.0,-11.540031433105469,1.5679583549499512,0,30,0,40000
69272,-0.1886642724275589,-30.857975006103516,3.0,127.0,-11.673538208007812,1.4792388677597046,0,30,0,40000
69282,-0.16567394137382507,-30.75020980834961,40.0,174.0,-12.296199798583984,1.3465009927749634,0,30,0,40000
69292,-0.14044097065925598,-30.664566040039062,17.0,170.0,-12.789115905761719,1.1996091604232788,0,30,0,40000
69302,-0.11820676922798157,-30.556123733520508,31.0,139.0,-13.421833038330078,1.0699841976165771,0,30,0,40000
69312,-0.09758879244327545,-30.525236129760742,24.0,25.0,-13.591079711914062,0.9494476318359375,0,30,0,40000
69322,-0.06438624113798141,-30.554323196411133,51.0,-101.0,-13.400592803955078,0.7526343464851379,0,30,0,40000
69332,-0.030948499217629433,-30.638023376464844,70.0,-238.0,-12.88034439086914,0.5533225536346436,0,30,0,40000
69342,0.012908464297652245,-30.827573776245117,56.0,-329.0,-11.720657348632812,0.29032617807388306,0,30,0,40000
69352,0.06448182463645935,-31.007535934448242,29.0,-412.0,-10.612878799438477,-0.020395100116729736,0,30,0,40000
69362,0.12856659293174744,-31.306007385253906,91.0,-451.0,-8.78653335571289,-0.40792304277420044,0,30,0,40000
69372,0.15890592336654663,-31.521217346191406,81.0,-474.0,-7.452243804931641,-0.5942947268486023,0,30,0,40000
69382,0.21612578630447388,-31.842655181884766,100.0,-457.0,-5.47215461730957,-0.9435470104217529,0,30,0,40000
69392,0.2508782148361206,-32.04607009887695,21.0,-404.0,-4.192699432373047,-1.159232258796692,0,30,0,40000
69402,0.3122432827949524,-32.305152893066406,49.0,-325.0,-2.571941375732422,-1.5361506938934326,0,30,0,40000
69412,0.351511687040329,-32.44053268432617,36.0,-230.0,-1.6880321502685547,-1.7817482948303223,0,30,0,40000
69422,0.40886199474334717,-32.568382263183594,76.0,-151.0,-0.8451766967773438,-2.1374549865722656,0,30,0,40000
69432,0.4170522093772888,-32.612281799316406,21.0,-22.0,-0.5038909912109375,-2.199016571044922,0,30,0,40000
69442,0.4536351263523102,-32.6107063293457,6.0,47.0,-0.43480682373046875,-2.4318249225616455,0,30,0,40000
69452,0.4591836631298065,-32.57563018798828,16.0,94.0,-0.56756591796875,-2.47884202003479,0,30,0,40000
69462,0.48067253828048706,-32.50945281982422,-3.0,137.0,-0.8884296417236328,-2.621858596801758,0,30,0,40000
69472,0.4662479758262634,-32.4351806640625,-1.0,154.0,-1.2601003646850586,-2.5494837760925293,0,30,0,40000
