timestamp,stabilizer.roll,stabilizer.pitch,stateEstimateZ.rateRoll,stateEstimateZ.ratePitch,controller.pitchRate,controller.rollRate,roll,pitch,yawdot,thrust
5344083,-24.621280670166016,59.67455291748047,-4.0,0.0,-360.9117126464844,148.61395263671875,0,0,0,40000
5344093,-24.641822814941406,59.66745376586914,-14.0,-7.0,-362.7786560058594,149.32833862304688,0,0,0,40000
5344103,-24.673404693603516,59.6581916809082,-16.0,-40.0,-365.1095886230469,150.25765991210938,0,0,0,40000
5344113,-24.718015670776367,59.59507751464844,12.0,-83.0,-367.1158142089844,151.26625061035156,0,0,0,40000
5344123,-24.75557518005371,59.51351547241211,-49.0,-188.0,-369.00830078125,152.23370361328125,0,0,0,40000
5344133,-24.760643005371094,59.268802642822266,-124.0,-508.0,-369.91552734375,153.00697326660156,0,0,0,40000
5344143,-24.701021194458008,58.99884796142578,-96.0,-685.0,-370.66015625,153.39112854003906,0,0,0,40000
5344153,-24.51654624938965,58.40404510498047,40.0,-1076.0,-369.4380798339844,153.02293395996094,0,0,0,40000
5344163,-24.2954158782959,57.82550048828125,-35.0,-1503.0,-368.28936767578125,152.42779541015625,0,0,0,40000
5344173,-23.74565887451172,56.67326736450195,-122.0,-2056.0,-363.6627502441406,149.84854125976562,0,0,0,40000
5344183,-23.229433059692383,55.675785064697266,-32.0,-2619.0,-359.9212646484375,147.45449829101562,0,0,0,40000
5344193,-22.281431198120117,53.78990173339844,65.0,-3250.0,-350.78955078125,142.44708251953125,0,0,0,40000
5344203,-21.51359748840332,52.23565673828125,34.0,-4004.0,-343.578857421875,138.49481201171875,0,0,0,40000
5344213,-20.205394744873047,49.419551849365234,43.0,-4785.0,-328.7061462402344,131.26783752441406,0,0,0,40000
5344223,-19.237459182739258,47.206764221191406,154.0,-5569.0,-317.35369873046875,126.049072265625,0,0,0,40000
5344233,-17.712158203125,43.38089370727539,310.0,-6302.0,-296.1968994140625,117.44733428955078,0,0,0,40000
5344243,-16.6617488861084,40.52419662475586,392.0,-6927.0,-280.72381591796875,111.65735626220703,0,0,0,40000
5344253,-15.059549331665039,35.85558319091797,643.0,-7429.0,-254.2226104736328,102.51522827148438,0,0,0,40000
5344263,-13.97870922088623,32.5660514831543,831.0,-7706.0,-235.84091186523438,96.46244812011719,0,0,0,40000
5344273,-12.390235900878906,27.498750686645508,1087.0,-7706.0,-206.61831665039062,87.32229614257812,0,0,0,40000
5344283,-11.355730056762695,24.14897346496582,1343.0,-7477.0,-187.53904724121094,81.46835327148438,0,0,0,40000
5344293,-9.82807731628418,19.348154067993164,1571.0,-6995.0,-159.58358764648438,72.61553955078125,0,0,0,40000
5344303,-8.807764053344727,16.417211532592773,1743.0,-6243.0,-142.70098876953125,66.77008056640625,0,0,0,40000
5344313,-7.281235694885254,12.55525016784668,1929.0,-5323.0,-120.09074401855469,57.84762191772461,0,0,0,40000
5344323,-6.253363609313965,10.427042961120605,2053.0,-4177.0,-107.77180480957031,51.88035583496094,0,0,0,40000
5344333,-4.719490051269531,8.029288291931152,2157.0,-2964.0,-93.74130249023438,42.837249755859375,0,0,0,40000
5344343,-3.685776710510254,6.987198352813721,2225.0,-1717.0,-87.78402709960938,36.75799560546875,0,0,0,40000
5344353,-2.1462764739990234,6.183215141296387,2203.0,-700.0,-83.21736145019531,27.603761672973633,0,0,0,40000
5344363,-1.1332497596740723,6.065443992614746,2158.0,95.0,-82.75468444824219,21.571697235107422,0,0,0,40000
5344373,0.33691805601119995,6.30151891708374,2068.0,583.0,-84.41796875,12.757977485656738,0,0,0,40000
5344383,1.2969797849655151,6.638977527618408,1997.0,829.0,-86.70268249511719,6.970165252685547,0,0,0,40000
5344393,2.660742998123169,7.2337212562561035,1882.0,889.0,-90.55078887939453,-1.2761268615722656,0,0,0,40000
5344403,3.516446113586426,7.615636825561523,1747.0,751.0,-93.14089965820312,-6.505611419677734,0,0,0,40000
5344413,4.699963569641113,8.044207572937012,1623.0,519.0,-96.02786254882812,-13.733772277832031,0,0,0,40000
5344423,5.416631698608398,8.18155574798584,1434.0,118.0,-97.17733001708984,-18.187789916992188,0,0,0,40000
5344433,6.364506244659424,8.08203411102295,1246.0,-372.0,-96.90650939941406,-24.05508804321289,0,0,0,40000
5344443,6.905688762664795,7.764970302581787,1072.0,-962.0,-95.3201904296875,-27.502933502197266,0,0,0,40000
5344453,7.5698561668396,6.882757663726807,867.0,-1571.0,-90.31809997558594,-31.70760726928711,0,0,0,40000
5344463,7.904753684997559,6.03410530090332,632.0,-2131.0,-85.48149108886719,-33.95023727416992,0,0,0,40000
5344473,8.246310234069824,4.4067792892456055,395.0,-2594.0,-75.92112731933594,-36.243404388427734,0,0,0,40000
5344483,8.375475883483887,3.16339111328125,163.0,-2849.0,-68.60743713378906,-37.26824188232422,0,0,0,40000
5344493,8.385038375854492,1.200342059135437,-65.0,-2869.0,-56.90863037109375,-37.577552795410156,0,0,0,40000
5344503,8.312929153442383,-0.05734347924590111,-270.0,-2642.0,-49.3801383972168,-37.395225524902344,0,0,0,40000
5344513,8.053061485290527,-1.7380632162094116,-470.0,-2281.0,-39.25209045410156,-36.081138610839844,0,0,0,40000
5344523,7.795966625213623,-2.6700055599212646,-666.0,-1801.0,-33.568206787109375,-34.7756462097168,0,0,0,40000
5344533,7.28860330581665,-3.740736722946167,-799.0,-1300.0,-27.009891510009766,-31.956497192382812,0,0,0,40000
5344543,6.883289813995361,-4.225523948669434,-950.0,-820.0,-23.93951988220215,-29.736095428466797,0,0,0,40000
5344553,6.207025527954102,-4.628607749938965,-1031.0,-379.0,-21.341081619262695,-25.873046875,0,0,0,40000
5344563,5.712180137634277,-4.735562324523926,-1116.0,-104.0,-20.5114688873291,-23.0813045501709,0,0,0,40000
5344573,4.935375690460205,-4.757787704467773,-1082.0,71.0,-20.187633514404297,-18.577754974365234,0,0,0,40000
5344583,4.4243083000183105,-4.714702606201172,-1112.0,96.0,-20.256813049316406,-15.650222778320312,0,0,0,40000
5344593,3.666835308074951,-4.6786603927612305,-1086.0,18.0,-20.28559684753418,-11.224433898925781,0,0,0,40000
5344603,3.172252655029297,-4.693892002105713,-1039.0,-99.0,-20.00676727294922,-8.358023643493652,0,0,0,40000
5344613,2.4794838428497314,-4.82146692276001,-974.0,-292.0,-19.05112075805664,-4.283964157104492,0,0,0,40000
5344623,2.0533969402313232,-4.997817516326904,-868.0,-499.0,-17.796062469482422,-1.7941112518310547,0,0,0,40000
5344633,1.492542028427124,-5.393350124359131,-751.0,-652.0,-15.21389389038086,1.5197315216064453,0,0,0,40000
5344643,1.1844899654388428,-5.708428382873535,-614.0,-757.0,-13.100173950195312,3.3288798332214355,0,0,0,40000
5344653,0.8100471496582031,-6.252731800079346,-454.0,-832.0,-9.593124389648438,5.547123908996582,0,0,0,40000
5344663,0.6314465999603271,-6.625373840332031,-308.0,-792.0,-7.098243713378906,6.597714900970459,0,0,0,40000
5344673,0.4602261781692505,-7.146872520446777,-180.0,-735.0,-3.691558837890625,7.609432220458984,0,0,0,40000
5344683,0.40285396575927734,-7.464743137359619,-51.0,-609.0,-1.4907455444335938,7.940948486328125,0,0,0,40000
5344693,0.4194081425666809,-7.820730686187744,84.0,-423.0,0.9528617858886719,7.829586029052734,0,0,0,40000
5344703,0.48107656836509705,-7.974027633666992,208.0,-249.0,2.1892738342285156,7.445959091186523,0,0,0,40000
5344713,0.6502333283424377,-8.082578659057617,310.0,-95.0,3.1625709533691406,6.413708209991455,0,0,0,40000
5344723,0.8098706007003784,-8.105792999267578,374.0,-15.0,3.6257781982421875,5.433518409729004,0,0,0,40000
5344733,1.1040688753128052,-8.074508666992188,449.0,81.0,3.761829376220703,3.638890266418457,0,0,0,40000
5344743,1.325649619102478,-8.043795585632324,485.0,61.0,3.8997726440429688,2.272317886352539,0,0,0,40000
5344753,1.6689121723175049,-8.007633209228516,490.0,37.0,4.003582000732422,0.1667470932006836,0,0,0,40000
5344763,1.9021714925765991,-7.9948835372924805,520.0,5.0,4.247100830078125,-1.2870521545410156,0,0,0,40000
5344773,2.249183416366577,-7.994767665863037,482.0,-50.0,4.566009521484375,-3.432546615600586,0,0,0,40000
5344783,2.4734833240509033,-8.027833938598633,465.0,-81.0,5.084964752197266,-4.849895477294922,0,0,0,40000
5344793,2.785464286804199,-8.100619316101074,404.0,-140.0,5.844367980957031,-6.801730155944824,0,0,0,40000
5344803,2.9588680267333984,-8.165719032287598,337.0,-160.0,6.560539245605469,-7.92887020111084,0,0,0,40000
5344813,3.1651084423065186,-8.267728805541992,278.0,-152.0,7.501708984375,-9.258858680725098,0,0,0,40000
5344823,3.2669458389282227,-8.339012145996094,168.0,-167.0,8.261795043945312,-9.966719627380371,0,0,0,40000
5344833,3.3930978775024414,-8.402374267578125,131.0,-59.0,8.977214813232422,-10.824014663696289,0,0,0,40000
5344843,3.423058271408081,-8.417445182800293,80.0,8.0,9.404136657714844,-11.106165885925293,0,0,0,40000
5344853,3.4782211780548096,-8.39006519317627,34.0,48.0,9.57595443725586,-11.540971755981445,0,0,0,40000
5344863,3.4814951419830322,-8.363208770751953,-22.0,77.0,9.749809265136719,-11.665042877197266,0,0,0,40000
5344873,3.454322576522827,-8.288825035095215,-66.0,119.0,9.636333465576172,-11.606039047241211,0,0,0,40000
5344883,3.401512384414673,-8.236285209655762,-123.0,124.0,9.651390075683594,-11.391864776611328,0,0,0,40000
5344893,3.3026349544525146,-8.15427303314209,-156.0,108.0,9.48672866821289,-10.898961067199707,0,0,0,40000
5344903,3.211486339569092,-8.111784934997559,-205.0,73.0,9.556907653808594,-10.449565887451172,0,0,0,40000
5344913,3.062079668045044,-8.07028865814209,-234.0,60.0,9.631336212158203,-9.646843910217285,0,0,0,40000
5344923,2.940268039703369,-8.053335189819336,-287.0,41.0,9.852031707763672,-9.005668640136719,0,0,0,40000
5344933,2.736654043197632,-8.028397560119629,-286.0,36.0,10.02389144897461,-7.868442535400391,0,0,0,40000
5344943,2.5926880836486816,-8.017630577087402,-290.0,14.0,10.280166625976562,-7.084149360656738,0,0,0,40000
5344953,2.3737683296203613,-8.015868186950684,-319.0,-6.0,10.590164184570312,-5.8445329666137695,0,0,0,40000
5344963,2.2344577312469482,-8.027420043945312,-301.0,-11.0,10.980400085449219,-5.077384948730469,0,0,0,40000
5344973,2.019073009490967,-8.050199508666992,-321.0,-25.0,11.438739776611328,-3.848263740539551,0,0,0,40000
5344983,1.876660704612732,-8.04702377319336,-275.0,15.0,11.741661071777344,-3.051786422729492,0,0,0,40000
5344993,1.6874363422393799,-8.025772094726562,-250.0,46.0,11.935596466064453,-1.9692344665527344,0,0,0,40000
5345003,1.5763740539550781,-8.007377624511719,-234.0,45.0,12.145797729492188,-1.3514766693115234,0,0,0,40000
5345013,1.4215216636657715,-7.970880508422852,-190.0,60.0,12.246265411376953,-0.4666624069213867,0,0,0,40000
5345023,1.3430957794189453,-7.946228981018066,-147.0,47.0,12.416610717773438,-0.037326812744140625,0,0,0,40000
5345033,1.2599974870681763,-7.88256311416626,-108.0,119.0,12.351131439208984,0.42254638671875,0,0,0,40000
5345043,1.2129428386688232,-7.827682018280029,-98.0,98.0,12.335765838623047,0.6679158210754395,0,0,0,40000
5345053,1.1691570281982422,-7.753930568695068,-47.0,119.0,12.204730987548828,0.8951325416564941,0,0,0,40000
5345063,1.1560943126678467,-7.69674015045166,-17.0,128.0,12.170387268066406,0.938683032989502,0,0,0,40000
5345073,1.1554293632507324,-7.616338729858398,1.0,118.0,11.993881225585938,0.9080543518066406,0,0,0,40000
5345083,1.1712477207183838,-7.565680027008057,49.0,102.0,11.993362426757812,0.7782125473022461,0,0,0,40000
5345093,1.2070691585540771,-7.503735542297363,81.0,85.0,11.922706604003906,0.5276327133178711,0,0,0,40000
5345103,1.2387402057647705,-7.467236042022705,90.0,95.0,12.003009796142578,0.3008236885070801,0,0,0,40000
5345113,1.3089807033538818,-7.428577423095703,96.0,57.0,12.068782806396484,-0.15904760360717773,0,0,0,40000
5345123,1.3595093488693237,-7.404868125915527,91.0,41.0,12.223098754882812,-0.5024075508117676,0,0,0,40000
5345133,1.4369292259216309,-7.381997108459473,120.0,29.0,12.381494522094727,-1.0090270042419434,0,0,0,40000
5345143,1.4912246465682983,-7.362205505371094,136.0,37.0,12.557554244995117,-1.3788604736328125,0,0,0,40000
5345153,1.59525728225708,-7.328344821929932,136.0,71.0,12.648216247558594,-2.0496668815612793,0,0,0,40000
5345163,1.6571779251098633,-7.28906774520874,141.0,94.0,12.704740524291992,-2.4701356887817383,0,0,0,40000
5345173,1.7474408149719238,-7.206971168518066,102.0,136.0,12.501859664916992,-3.063155174255371,0,0,0,40000
5345183,1.8052316904067993,-7.129946231842041,131.0,203.0,12.326208114624023,-3.463320732116699,0,0,0,40000
5345193,1.8850140571594238,-6.967944622039795,98.0,253.0,11.635652542114258,-3.997666358947754,0,0,0,40000
5345203,1.9236021041870117,-6.829023361206055,67.0,300.0,11.077535629272461,-4.286487579345703,0,0,0,40000
5345213,1.9680027961730957,-6.635140419006348,73.0,265.0,10.18263053894043,-4.611363410949707,0,0,0,40000
5345223,1.9904152154922485,-6.51646614074707,47.0,246.0,9.733152389526367,-4.805319309234619,0,0,0,40000
5345233,2.0067687034606934,-6.360095977783203,7.0,216.0,9.051698684692383,-4.963542938232422,0,0,0,40000
5345243,2.0087296962738037,-6.278524398803711,-19.0,158.0,8.814653396606445,-5.035577297210693,0,0,0,40000
5345253,1.9862295389175415,-6.196908950805664,-25.0,91.0,8.573854446411133,-4.960419654846191,0,0,0,40000
5345263,1.9595465660095215,-6.18439245223999,-59.0,1.0,8.74629020690918,-4.859453201293945,0,0,0,40000
5345273,1.9082194566726685,-6.188536643981934,-91.0,-24.0,9.018482208251953,-4.6094160079956055,0,0,0,40000
5345283,1.8727636337280273,-6.2140703201293945,-88.0,-49.0,9.419862747192383,-4.453293800354004,0,0,0,40000
5345293,1.8054068088531494,-6.257168292999268,-96.0,-76.0,9.927915573120117,-4.104129791259766,0,0,0,40000
5345303,1.7552049160003662,-6.28909969329834,-112.0,-69.0,10.370573043823242,-3.8561906814575195,0,0,0,40000
5345313,1.6868911981582642,-6.332979202270508,-87.0,-59.0,10.886434555053711,-3.497677803039551,0,0,0,40000
5345323,1.6476272344589233,-6.337920665740967,-97.0,67.0,11.169672012329102,-3.3120064735412598,0,0,0,40000
5345333,1.5812044143676758,-6.2501373291015625,-120.0,166.0,10.894710540771484,-2.9618024826049805,0,0,0,40000
5345343,1.5402637720108032,-6.149425029754639,-89.0,245.0,10.538084030151367,-2.762852191925049,0,0,0,40000
5345353,1.4867507219314575,-5.958380222320557,-68.0,294.0,9.63330078125,-2.486973762512207,0,0,0,40000
5345363,1.4514825344085693,-5.825568199157715,-45.0,283.0,9.071550369262695,-2.3193092346191406,0,0,0,40000
5345373,1.418817400932312,-5.643826007843018,-37.0,231.0,8.209539413452148,-2.1662368774414062,0,0,0,40000
5345383,1.393977403640747,-5.5467071533203125,-55.0,178.0,7.850221633911133,-2.059329032897949,0,0,0,40000
5345393,1.3577854633331299,-5.44611930847168,-42.0,132.0,7.465946197509766,-1.8833231925964355,0,0,0,40000
5345403,1.337671160697937,-5.401637554168701,-41.0,99.0,7.415830612182617,-1.8029913902282715,0,0,0,40000
5345413,1.3243390321731567,-5.35225772857666,-4.0,63.0,7.334369659423828,-1.7628021240234375,0,0,0,40000
5345423,1.3291689157485962,-5.33208703994751,0.0,34.0,7.426919937133789,-1.8316192626953125,0,0,0,40000
5345433,1.3319488763809204,-5.293743133544922,16.0,41.0,7.409177780151367,-1.888199806213379,0,0,0,40000
5345443,1.3317135572433472,-5.270749568939209,-13.0,67.0,7.482446670532227,-1.9267592430114746,0,0,0,40000
5345453,1.3371657133102417,-5.228113174438477,10.0,59.0,7.436452865600586,-1.9994945526123047,0,0,0,40000
5345463,1.3428657054901123,-5.21359920501709,11.0,5.0,7.55810546875,-2.0739288330078125,0,0,0,40000
5345473,1.3536871671676636,-5.2176384925842285,17.0,-14.0,7.790929794311523,-2.179372787475586,0,0,0,40000
5345483,1.3528199195861816,-5.223348617553711,-15.0,0.0,8.034029006958008,-2.214794635772705,0,0,0,40000
5345493,1.35306715965271,-5.2139482498168945,-16.0,26.0,8.186483383178711,-2.2569103240966797,0,0,0,40000
5345503,1.352040410041809,-5.1896514892578125,0.0,84.0,8.24873161315918,-2.291316509246826,0,0,0,40000
5345513,1.3442784547805786,-5.105234622955322,-6.0,127.0,7.947887420654297,-2.2851810455322266,0,0,0,40000
5345523,1.3450279235839844,-5.031828880310059,-3.0,174.0,7.709922790527344,-2.3299994468688965,0,0,0,40000
5345533,1.340295672416687,-4.8880205154418945,33.0,203.0,7.0449066162109375,-2.3417744636535645,0,0,0,40000
5345543,1.3417158126831055,-4.7934160232543945,-5.0,207.0,6.670505523681641,-2.390552520751953,0,0,0,40000
5345553,1.3367518186569214,-4.662885665893555,14.0,162.0,6.075799942016602,-2.400906562805176,0,0,0,40000
5345563,1.3408315181732178,-4.608434677124023,-7.0,88.0,5.93425178527832,-2.465543746948242,0,0,0,40000
5345573,1.3369165658950806,-4.571511745452881,-3.0,20.0,5.895956039428711,-2.482257843017578,0,0,0,40000
5345583,1.3237065076828003,-4.58608865737915,-38.0,-41.0,6.166566848754883,-2.442882537841797,0,0,0,40000
5345593,1.3033149242401123,-4.628150939941406,-22.0,-66.0,6.603399276733398,-2.3598523139953613,0,0,0,40000
5345603,1.286728024482727,-4.657784461975098,-39.0,-73.0,6.967029571533203,-2.299142360687256,0,0,0,40000
5345613,1.2519198656082153,-4.69544792175293,-49.0,-52.0,7.380311965942383,-2.1283154487609863,0,0,0,40000
5345623,1.231282114982605,-4.718380928039551,-56.0,-32.0,7.706287384033203,-2.0416698455810547,0,0,0,40000
5345633,1.1926289796829224,-4.702819347381592,-49.0,41.0,7.801525115966797,-1.8459663391113281,0,0,0,40000
5345643,1.1723780632019043,-4.673149108886719,-67.0,73.0,7.810918807983398,-1.7598915100097656,0,0,0,40000
5345653,1.131723403930664,-4.581647872924805,-60.0,161.0,7.4468841552734375,-1.5504698753356934,0,0,0,40000
5345663,1.1052966117858887,-4.501257419586182,-55.0,209.0,7.145906448364258,-1.4253864288330078,0,0,0,40000
5345673,1.0703166723251343,-4.34414005279541,-46.0,223.0,6.379552841186523,-1.2480134963989258,0,0,0,40000
5345683,1.0401959419250488,-4.240588188171387,-56.0,208.0,5.929531097412109,-1.0988655090332031,0,0,0,40000
5345693,1.008314847946167,-4.133547306060791,-42.0,114.0,5.454090118408203,-0.9382033348083496,0,0,0,40000
5345703,0.986785888671875,-4.1080851554870605,-58.0,27.0,5.465986251831055,-0.838900089263916,0,0,0,40000
5345713,0.9477500915527344,-4.122187614440918,-70.0,-60.0,5.715003967285156,-0.6336460113525391,0,0,0,40000
5345723,0.918361485004425,-4.153331756591797,-55.0,-73.0,6.067480087280273,-0.48520898818969727,0,0,0,40000
5345733,0.8916715383529663,-4.195582389831543,-54.0,-96.0,6.454853057861328,-0.3466453552246094,0,0,0,40000
5345743,0.8535116314888,-4.237393379211426,-62.0,-52.0,6.874654769897461,-0.14376592636108398,0,0,0,40000
5345753,0.836995542049408,-4.256912708282471,-47.0,-17.0,7.161752700805664,-0.06995534896850586,0,0,0,40000
5345763,0.8240731358528137,-4.229760646820068,-14.0,62.0,7.1686553955078125,-0.017206192016601562,0,0,0,40000
5345773,0.811250627040863,-4.183367729187012,-10.0,146.0,7.058414459228516,0.035248756408691406,0,0,0,40000
5345783,0.8040868043899536,-4.047638416290283,-13.0,240.0,6.40838623046875,0.05399036407470703,0,0,0,40000
5345793,0.7910280227661133,-3.9398651123046875,-15.0,235.0,5.92106819152832,0.10843086242675781,0,0,0,40000
5345803,0.7821033000946045,-3.785183906555176,-32.0,217.0,5.1467742919921875,0.13837528228759766,0,0,0,40000
5345813,0.7754501700401306,-3.684317111968994,-9.0,207.0,4.69056510925293,0.15497159957885742,0,0,0,40000
5345823,0.7708173394203186,-3.5519638061523438,2.0,160.0,4.040498733520508,0.15966558456420898,0,0,0,40000
5345833,0.7679336071014404,-3.4846925735473633,2.0,116.0,3.7772903442382812,0.1539163589477539,0,0,0,40000
5345843,0.7673024535179138,-3.4152824878692627,-2.0,86.0,3.4984397888183594,0.13463640213012695,0,0,0,40000
5345853,0.7611010074615479,-3.3942134380340576,-38.0,34.0,3.508115768432617,0.14888715744018555,0,0,0,40000
5345863,0.7309655547142029,-3.3908205032348633,-46.0,-15.0,3.6232643127441406,0.307370662689209,0,0,0,40000
5345873,0.7213730812072754,-3.4021077156066895,-44.0,-19.0,3.8268985748291016,0.3431873321533203,0,0,0,40000
5345883,0.6908978819847107,-3.4130349159240723,-24.0,-13.0,4.028820037841797,0.5050530433654785,0,0,0,40000
5345893,0.6721331477165222,-3.4157748222351074,-28.0,13.0,4.181867599487305,0.5972709655761719,0,0,0,40000
5345903,0.6476566791534424,-3.3746750354766846,-31.0,87.0,4.071142196655273,0.7243962287902832,0,0,0,40000
5345913,0.6298806071281433,-3.3266329765319824,-26.0,125.0,3.9167842864990234,0.8119597434997559,0,0,0,40000
5345923,0.6160041689872742,-3.2186343669891357,0.0,165.0,3.399416923522949,0.8766164779663086,0,0,0,40000
5345933,0.6016948819160461,-3.1440155506134033,-14.0,169.0,3.078669548034668,0.9442334175109863,0,0,0,40000
5345943,0.5999184846878052,-3.0376017093658447,-5.0,147.0,2.563352584838867,0.9369113445281982,0,0,0,40000
5345953,0.5999259948730469,-2.97765851020813,-18.0,126.0,2.3237295150756836,0.9188742637634277,0,0,0,40000
5345963,0.5927436351776123,-2.9129719734191895,8.0,74.0,2.0530309677124023,0.9441695213317871,0,0,0,40000
5345973,0.6002842783927917,-2.885673761367798,26.0,30.0,2.005093574523926,0.8810491561889648,0,0,0,40000
5345983,0.6250500679016113,-2.8787169456481934,27.0,-22.0,2.078486442565918,0.7140212059020996,0,0,0,40000
5345993,0.6399557590484619,-2.9020209312438965,33.0,-69.0,2.333989143371582,0.6055808067321777,0,0,0,40000
5346003,0.658152163028717,-2.9451498985290527,22.0,-68.0,2.70992374420166,0.47682952880859375,0,0,0,40000
5346013,0.6788633465766907,-2.9696736335754395,58.0,-55.0,2.975478172302246,0.3325057029724121,0,0,0,40000
5346023,0.7086867690086365,-2.988986015319824,44.0,21.0,3.2108840942382812,0.13263988494873047,0,0,0,40000
5346033,0.7254542708396912,-2.9624578952789307,36.0,91.0,3.170670509338379,0.01047658920288086,0,0,0,40000
5346043,0.7499489784240723,-2.8618788719177246,30.0,172.0,2.6835365295410156,-0.15871000289916992,0,0,0,40000
5346053,0.7701619267463684,-2.7716968059539795,46.0,192.0,2.2547731399536133,-0.3028392791748047,0,0,0,40000
5346063,0.8063592910766602,-2.6418910026550293,43.0,178.0,1.5836162567138672,-0.5437779426574707,0,0,0,40000
5346073,0.8219024538993835,-2.566239833831787,51.0,149.0,1.2335338592529297,-0.6614928245544434,0,0,0,40000
5346083,0.84980708360672,-2.4706268310546875,36.0,142.0,0.7601566314697266,-0.8541154861450195,0,0,0,40000
5346093,0.8620373010635376,-2.401951551437378,26.0,129.0,0.44527530670166016,-0.9532370567321777,0,0,0,40000
5346103,0.8886716365814209,-2.3340442180633545,22.0,66.0,0.13205337524414062,-1.1394009590148926,0,0,0,40000
5346113,0.9078713059425354,-2.3188350200653076,41.0,-6.0,0.13374805450439453,-1.2815589904785156,0,0,0,40000
5346123,0.9409255385398865,-2.334669828414917,30.0,-64.0,0.3216896057128906,-1.5076851844787598,0,0,0,40000
5346133,0.9489901661872864,-2.365614891052246,36.0,-68.0,0.6015024185180664,-1.5844225883483887,0,0,0,40000
5346143,0.9602218866348267,-2.42262864112854,17.0,-71.0,1.0395479202270508,-1.6805419921875,0,0,0,40000
5346153,0.9783499240875244,-2.457120418548584,7.0,-87.0,1.3442230224609375,-1.8184523582458496,0,0,0,40000
5346163,0.9695644378662109,-2.5135409832000732,0.0,-52.0,1.7825088500976562,-1.7948856353759766,0,0,0,40000
5346173,0.955342173576355,-2.5189356803894043,-13.0,-1.0,1.9155693054199219,-1.7383875846862793,0,0,0,40000
5346183,0.9423959255218506,-2.4877257347106934,-15.0,66.0,1.8285017013549805,-1.689182996749878,0,0,0,40000
5346193,0.9402751326560974,-2.430893659591675,-7.0,110.0,1.5856828689575195,-1.7046961784362793,0,0,0,40000
5346203,0.9320607781410217,-2.361133575439453,-23.0,82.0,1.262603759765625,-1.6835429668426514,0,0,0,40000
5346213,0.9276871085166931,-2.3335506916046143,-18.0,37.0,1.1908674240112305,-1.6851873397827148,0,0,0,40000
5346223,0.9247494339942932,-2.3120594024658203,-13.0,25.0,1.1547164916992188,-1.695281744003296,0,0,0,40000
5346233,0.9068920016288757,-2.308903455734253,-43.0,4.0,1.2281732559204102,-1.6155571937561035,0,0,0,40000
5346243,0.8757964372634888,-2.3250620365142822,-37.0,-43.0,1.4177160263061523,-1.4556100368499756,0,0,0,40000
5346253,0.8616011142730713,-2.347764730453491,-33.0,-58.0,1.647475242614746,-1.396449089050293,0,0,0,40000
5346263,0.8414016366004944,-2.3795864582061768,-47.0,-69.0,1.9330005645751953,-1.3007984161376953,0,0,0,40000
5346273,0.827299177646637,-2.3973374366760254,-45.0,-23.0,2.135129928588867,-1.2411646842956543,0,0,0,40000
5346283,0.8077707290649414,-2.396822214126587,-20.0,21.0,2.2280492782592773,-1.1483769416809082,0,0,0,40000
5346293,0.7996578216552734,-2.3727166652679443,4.0,67.0,2.178767204284668,-1.1237688064575195,0,0,0,40000
5346303,0.796965479850769,-2.3273818492889404,3.0,42.0,2.000530242919922,-1.1315243244171143,0,0,0,40000
5346313,0.8090182542800903,-2.293006658554077,17.0,99.0,1.8865842819213867,-1.2279744148254395,0,0,0,40000
5346323,0.8196096420288086,-2.2346067428588867,21.0,67.0,1.6263847351074219,-1.316002607345581,0,0,0,40000
5346333,0.8344582915306091,-2.209735631942749,13.0,6.0,1.5658674240112305,-1.4299712181091309,0,0,0,40000
5346343,0.8460107445716858,-2.2103590965270996,18.0,-26.0,1.6578826904296875,-1.524538516998291,0,0,0,40000
5346353,0.8536077737808228,-2.219533920288086,9.0,-8.0,1.8015985488891602,-1.5956411361694336,0,0,0,40000
5346363,0.8632126450538635,-2.2345316410064697,26.0,7.0,1.9808216094970703,-1.678980827331543,0,0,0,40000
5346373,0.8678264617919922,-2.230440139770508,19.0,-14.0,2.045529365539551,-1.7326464653015137,0,0,0,40000
5346383,0.8807198405265808,-2.2511651515960693,21.0,-46.0,2.259507179260254,-1.836254596710205,0,0,0,40000
5346393,0.8913227319717407,-2.278639793395996,8.0,-81.0,2.515059471130371,-1.9264945983886719,0,0,0,40000
5346403,0.8944331407546997,-2.3334474563598633,-10.0,-86.0,2.936295509338379,-1.9719862937927246,0,0,0,40000
5346413,0.8890364170074463,-2.3677501678466797,-12.0,-65.0,3.236294746398926,-1.966334342956543,0,0,0,40000
5346423,0.8862505555152893,-2.3925421237945557,0.0,16.0,3.480574607849121,-1.9762012958526611,0,0,0,40000
5346433,0.8781064748764038,-2.382437229156494,5.0,47.0,3.5154170989990234,-1.953782558441162,0,0,0,40000
5346443,0.8900522589683533,-2.317410707473755,18.0,118.0,3.219223976135254,-2.0519566535949707,0,0,0,40000
5346453,0.8978083729743958,-2.255950450897217,13.0,150.0,2.9417247772216797,-2.125330924987793,0,0,0,40000
5346463,0.9021665453910828,-2.138230085372925,-1.0,208.0,2.3229732513427734,-2.1785244941711426,0,0,0,40000
5346473,0.9027727842330933,-2.03399395942688,0.0,232.0,1.780604362487793,-2.209232807159424,0,0,0,40000
5346483,0.8912155628204346,-1.8775511980056763,-4.0,173.0,0.9192962646484375,-2.166769027709961,0,0,0,40000
5346493,0.8911207914352417,-1.816091537475586,4.0,78.0,0.6240758895874023,-2.192918300628662,0,0,0,40000
5346503,0.8876866698265076,-1.7759966850280762,6.0,38.0,0.4550056457519531,-2.1990303993225098,0,0,0,40000
5346513,0.8783534169197083,-1.7710936069488525,-19.0,7.0,0.49651050567626953,-2.169525146484375,0,0,0,40000
5346523,0.8808412551879883,-1.7635176181793213,-13.0,-12.0,0.5216445922851562,-2.210815906524658,0,0,0,40000
5346533,0.8691033720970154,-1.7822880744934082,-23.0,-37.0,0.7052650451660156,-2.1665987968444824,0,0,0,40000
5346543,0.8571611642837524,-1.8079767227172852,0.0,-53.0,0.9312257766723633,-2.120739221572876,0,0,0,40000
5346553,0.8503828644752502,-1.836120843887329,-4.0,-52.0,1.1730947494506836,-2.105668544769287,0,0,0,40000
5346563,0.8379802703857422,-1.859806776046753,-29.0,-30.0,1.3892498016357422,-2.0566258430480957,0,0,0,40000
5346573,0.8427585959434509,-1.8640213012695312,-5.0,-16.0,1.4890336990356445,-2.110507011413574,0,0,0,40000
5346583,0.8379167318344116,-1.8849810361862183,-14.0,-41.0,1.6898040771484375,-2.106670379638672,0,0,0,40000
5346593,0.8406667113304138,-1.9100629091262817,11.0,-61.0,1.9162921905517578,-2.1483423709869385,0,0,0,40000
5346603,0.8387025594711304,-1.9474622011184692,-11.0,-48.0,2.2180843353271484,-2.1617915630340576,0,0,0,40000
5346613,0.8290117383003235,-1.963250756263733,-15.0,-1.0,2.391139030456543,-2.1286401748657227,0,0,0,40000
5346623,0.8217203617095947,-1.9322972297668457,-8.0,69.0,2.283474922180176,-2.109616279602051,0,0,0,40000
5346633,0.8221799731254578,-1.8855644464492798,10.0,119.0,2.0792627334594727,-2.1370177268981934,0,0,0,40000
5346643,0.8336963653564453,-1.7795168161392212,2.0,165.0,1.5159921646118164,-2.2310142517089844,0,0,0,40000
5346653,0.8404255509376526,-1.715678095817566,13.0,148.0,1.2026176452636719,-2.2965097427368164,0,0,0,40000
5346663,0.8550850749015808,-1.6226574182510376,36.0,114.0,0.7107839584350586,-2.4098873138427734,0,0,0,40000
5346673,0.861018717288971,-1.583709716796875,4.0,71.0,0.5410470962524414,-2.4712719917297363,0,0,0,40000
5346683,0.8793519735336304,-1.5756546258926392,22.0,-38.0,0.555567741394043,-2.60744047164917,0,0,0,40000
5346693,0.8849396705627441,-1.6137313842773438,5.0,-121.0,0.8479032516479492,-2.667445421218872,0,0,0,40000
5346703,0.884066641330719,-1.7237424850463867,11.0,-180.0,1.5749921798706055,-2.688697576522827,0,0,0,40000
5346713,0.8930225372314453,-1.7942101955413818,7.0,-122.0,2.0684938430786133,-2.7691450119018555,0,0,0,40000
5346723,0.9017126560211182,-1.8500702381134033,0.0,-70.0,2.4768590927124023,-2.8482766151428223,0,0,0,40000
5346733,0.9087193608283997,-1.8720097541809082,11.0,-11.0,2.6830902099609375,-2.917492151260376,0,0,0,40000
5346743,0.9147406220436096,-1.8642725944519043,14.0,38.0,2.7115049362182617,-2.9809718132019043,0,0,0,40000
5346753,0.9193525910377502,-1.8327808380126953,17.0,84.0,2.596390724182129,-3.0361673831939697,0,0,0,40000
5346763,0.9285852909088135,-1.7786186933517456,14.0,86.0,2.3434505462646484,-3.1193337440490723,0,0,0,40000
5346773,0.928560197353363,-1.7275892496109009,5.0,86.0,2.107184410095215,-3.1470398902893066,0,0,0,40000
5346783,0.9293596148490906,-1.6884459257125854,-6.0,46.0,1.9404315948486328,-3.1797471046447754,0,0,0,40000
5346793,0.924567461013794,-1.6927798986434937,-7.0,-18.0,2.0340280532836914,-3.1787705421447754,0,0,0,40000
5346803,0.9210709929466248,-1.7186166048049927,-10.0,-44.0,2.257309913635254,-3.185469627380371,0,0,0,40000
5346813,0.9168796539306641,-1.7407037019729614,-1.0,-72.0,2.459087371826172,-3.1878867149353027,0,0,0,40000
5346823,0.9144958853721619,-1.7832647562026978,-10.0,-68.0,2.785098075866699,-3.201103448867798,0,0,0,40000
5346833,0.917646050453186,-1.8243035078048706,-10.0,-97.0,3.10361385345459,-3.2475085258483887,0,0,0,40000
5346843,0.9142231345176697,-1.9064931869506836,-19.0,-118.0,3.6716699600219727,-3.2544541358947754,0,0,0,40000
5346853,0.9102335572242737,-1.9536898136138916,-10.0,-92.0,4.032269477844238,-3.2578611373901367,0,0,0,40000
5346863,0.9084703922271729,-1.9957821369171143,21.0,-28.0,4.3641815185546875,-3.274466037750244,0,0,0,40000
5346873,0.9104110598564148,-1.9876292943954468,0.0,46.0,4.394984245300293,-3.3134098052978516,0,0,0,40000
5346883,0.9125092029571533,-1.9425163269042969,6.0,97.0,4.202893257141113,-3.3533153533935547,0,0,0,40000
5346893,0.91634202003479,-1.8806489706039429,-4.0,166.0,3.907978057861328,-3.40377140045166,0,0,0,40000
5346903,0.9105166792869568,-1.750149130821228,-4.0,202.0,3.1972146034240723,-3.396156072616577,0,0,0,40000
5346913,0.9116117358207703,-1.6406099796295166,0.0,259.0,2.607396125793457,-3.43002986907959,0,0,0,40000
5346923,0.893424928188324,-1.4715452194213867,-33.0,229.0,1.654489517211914,-3.348024845123291,0,0,0,40000
5346933,0.8762825727462769,-1.38105309009552,-34.0,171.0,1.1681785583496094,-3.271665096282959,0,0,0,40000
5346943,0.845666766166687,-1.2899482250213623,-60.0,89.0,0.6743645668029785,-3.1137497425079346,0,0,0,40000
5346953,0.8209950923919678,-1.2648249864578247,-58.0,31.0,0.5745611190795898,-2.990652322769165,0,0,0,40000
5346963,0.7843549251556396,-1.2803676128387451,-57.0,-57.0,0.7185420989990234,-2.7947769165039062,0,0,0,40000
5346973,0.7513163685798645,-1.3192657232284546,-63.0,-106.0,1.004037857055664,-2.619475841522217,0,0,0,40000
5346983,0.6992049217224121,-1.4042439460754395,-80.0,-124.0,1.5687880516052246,-2.3284618854522705,0,0,0,40000
5346993,0.6678810715675354,-1.4490593671798706,-84.0,-101.0,1.8949155807495117,-2.1609673500061035,0,0,0,40000
5347003,0.6157853603363037,-1.4967212677001953,-84.0,-55.0,2.240147113800049,-1.8675438165664673,0,0,0,40000
5347013,0.5873616337776184,-1.509677767753601,-64.0,-6.0,2.3780946731567383,-1.7149609327316284,0,0,0,40000
5347023,0.5451188087463379,-1.5007678270339966,-51.0,32.0,2.3849940299987793,-1.4783523082733154,0,0,0,40000
5347033,0.5242401361465454,-1.4708828926086426,-44.0,88.0,2.2650375366210938,-1.3690670728683472,0,0,0,40000
5347043,0.5015813708305359,-1.3886293172836304,-26.0,145.0,1.828535556793213,-1.248392939567566,0,0,0,40000
5347053,0.4944431483745575,-1.3036260604858398,-23.0,206.0,1.3720722198486328,-1.2204906940460205,0,0,0,40000
5347063,0.49613726139068604,-1.1323965787887573,11.0,266.0,0.39288902282714844,-1.2454004287719727,0,0,0,40000
5347073,0.49213340878486633,-1.0129808187484741,-11.0,228.0,-0.2812023162841797,-1.2362035512924194,0,0,0,40000
5347083,0.48454609513282776,-0.9055827260017395,-6.0,120.0,-0.8879694938659668,-1.2052781581878662,0,0,0,40000
5347093,0.4762185215950012,-0.8775520920753479,-15.0,4.0,-1.020678997039795,-1.169708251953125,0,0,0,40000
5347103,0.4734373986721039,-0.9000811576843262,-37.0,-66.0,-0.8501334190368652,-1.167370080947876,0,0,0,40000
5347113,0.4685865044593811,-0.9496989250183105,-29.0,-135.0,-0.5152673721313477,-1.15237295627594,0,0,0,40000
5347123,0.44491323828697205,-1.0693821907043457,-36.0,-190.0,0.24355268478393555,-1.02394437789917,0,0,0,40000
5347133,0.4297966957092285,-1.1466673612594604,-18.0,-149.0,0.7519426345825195,-0.9463040828704834,0,0,0,40000
5347143,0.4176279902458191,-1.2311347723007202,-13.0,-120.0,1.3067069053649902,-0.8859364986419678,0,0,0,40000
5347153,0.4139196574687958,-1.2680904865264893,0.0,-60.0,1.5786080360412598,-0.876132607460022,0,0,0,40000
5347163,0.40739768743515015,-1.2768537998199463,-3.0,14.0,1.6823601722717285,-0.8492988348007202,0,0,0,40000
5347173,0.41329002380371094,-1.2530319690704346,12.0,84.0,1.5899958610534668,-0.8969789743423462,0,0,0,40000
5347183,0.4279381036758423,-1.191450834274292,14.0,99.0,1.2691936492919922,-0.9975383281707764,0,0,0,40000
5347193,0.43810293078422546,-1.1419479846954346,27.0,106.0,1.0186676979064941,-1.0715343952178955,0,0,0,40000
5347203,0.47290942072868347,-1.0631663799285889,58.0,105.0,0.5897207260131836,-1.2940822839736938,0,0,0,40000
5347213,0.4885295331478119,-1.0142202377319336,45.0,99.0,0.3373994827270508,-1.4022536277770996,0,0,0,40000
5347223,0.5158783793449402,-0.9558920860290527,27.0,76.0,0.026537418365478516,-1.5815712213516235,0,0,0,40000
5347233,0.5269572138786316,-0.9409777522087097,34.0,-4.0,-0.025114059448242188,-1.6637276411056519,0,0,0,40000
5347243,0.557564914226532,-0.9810118675231934,42.0,-100.0,0.2533736228942871,-1.8637003898620605,0,0,0,40000
5347253,0.5749903917312622,-1.0372169017791748,32.0,-138.0,0.6311554908752441,-1.9852757453918457,0,0,0,40000
5347263,0.5940144062042236,-1.14458429813385,35.0,-173.0,1.3193316459655762,-2.1169707775115967,0,0,0,40000
5347273,0.598461389541626,-1.210601568222046,18.0,-138.0,1.7628235816955566,-2.1615548133850098,0,0,0,40000
5347283,0.6089890003204346,-1.3020204305648804,12.0,-112.0,2.362135887145996,-2.242903232574463,0,0,0,40000
5347293,0.6207587122917175,-1.3314465284347534,26.0,-29.0,2.5915536880493164,-2.3319973945617676,0,0,0,40000
5347303,0.6463038921356201,-1.319179654121399,45.0,38.0,2.5711231231689453,-2.5043416023254395,0,0,0,40000
5347313,0.6595375537872314,-1.2885571718215942,16.0,85.0,2.439446449279785,-2.603395938873291,0,0,0,40000
5347323,0.6790255308151245,-1.2170097827911377,29.0,119.0,2.0600733757019043,-2.7404422760009766,0,0,0,40000
5347333,0.6923026442527771,-1.1657363176345825,29.0,114.0,1.7998924255371094,-2.840724229812622,0,0,0,40000
5347343,0.7114832401275635,-1.099471092224121,18.0,79.0,1.4472761154174805,-2.976972818374634,0,0,0,40000
5347353,0.7122381925582886,-1.060449242591858,-11.0,65.0,1.2476725578308105,-2.9986233711242676,0,0,0,40000
5347363,0.706592857837677,-1.0344520807266235,-6.0,33.0,1.1334562301635742,-2.986020088195801,0,0,0,40000
5347373,0.6905328035354614,-1.0048043727874756,-33.0,42.0,0.9962716102600098,-2.9106645584106445,0,0,0,40000
5347383,0.6811270713806152,-0.9940853714942932,-47.0,6.0,0.9718708992004395,-2.8748011589050293,0,0,0,40000
5347393,0.6476459503173828,-1.0075348615646362,-69.0,-42.0,1.0924816131591797,-2.693760395050049,0,0,0,40000
5347403,0.6151720285415649,-1.033576250076294,-51.0,-60.0,1.289625644683838,-2.5177297592163086,0,0,0,40000
5347413,0.5746483206748962,-1.0744785070419312,-52.0,-51.0,1.57737398147583,-2.292335033416748,0,0,0,40000
5347423,0.5448837280273438,-1.094779133796692,-56.0,-31.0,1.7426538467407227,-2.1304819583892822,0,0,0,40000
5347433,0.502008318901062,-1.0839000940322876,-93.0,36.0,1.7211480140686035,-1.888920783996582,0,0,0,40000
5347443,0.4764620065689087,-1.062421441078186,-70.0,55.0,1.6351375579833984,-1.7502386569976807,0,0,0,40000
5347453,0.4423854649066925,-1.0160821676254272,-42.0,68.0,1.3985495567321777,-1.559345006942749,0,0,0,40000
5347463,0.4218868017196655,-0.9812360405921936,-36.0,78.0,1.2292675971984863,-1.4492542743682861,0,0,0,40000
5347473,0.3985994756221771,-0.928208589553833,-28.0,70.0,0.949070930480957,-1.3217389583587646,0,0,0,40000
5347483,0.38176771998405457,-0.8967924118041992,-21.0,88.0,0.796966552734375,-1.2324022054672241,0,0,0,40000
5347493,0.35729309916496277,-0.8484911322593689,-69.0,68.0,0.5418214797973633,-1.09672212600708,0,0,0,40000
5347503,0.3372712731361389,-0.8267560005187988,-63.0,34.0,0.4447813034057617,-0.9869656562805176,0,0,0,40000
5347513,0.30280497670173645,-0.8198078274726868,-54.0,-1.0,0.4358673095703125,-0.7896356582641602,0,0,0,40000
5347523,0.2703147828578949,-0.827338695526123,-49.0,-14.0,0.5140104293823242,-0.6031601428985596,0,0,0,40000
5347533,0.2239723950624466,-0.8415842652320862,-58.0,-9.0,0.632929801940918,-0.33238351345062256,0,0,0,40000
5347543,0.20270201563835144,-0.8354329466819763,-58.0,14.0,0.6295685768127441,-0.21111929416656494,0,0,0,40000
5347553,0.17287568747997284,-0.826195240020752,-67.0,8.0,0.6072793006896973,-0.037740230560302734,0,0,0,40000
5347563,0.14882485568523407,-0.8305323719978333,-77.0,-16.0,0.6664514541625977,0.10180675983428955,0,0,0,40000
5347573,0.09768088161945343,-0.8334749341011047,-77.0,-7.0,0.7174067497253418,0.4051288366317749,0,0,0,40000
5347583,0.06599593162536621,-0.8352473378181458,-76.0,-12.0,0.7614402770996094,0.5928974747657776,0,0,0,40000
5347593,0.016842368990182877,-0.8316511511802673,-81.0,25.0,0.7732858657836914,0.8867497444152832,0,0,0,40000
5347603,-0.021550361067056656,-0.8103867173194885,-79.0,68.0,0.6784358024597168,1.1173081398010254,0,0,0,40000
5347613,-0.07583282887935638,-0.7314472198486328,-93.0,152.0,0.23555564880371094,1.4445871114730835,0,0,0,40000
5347623,-0.11566415429115295,-0.6428176760673523,-76.0,234.0,-0.2690448760986328,1.6865862607955933,0,0,0,40000
5347633,-0.16770724952220917,-0.46070462465286255,-82.0,293.0,-1.3401665687561035,2.0032074451446533,0,0,0,40000
5347643,-0.2020844668149948,-0.32211121916770935,-69.0,288.0,-2.1565890312194824,2.2151496410369873,0,0,0,40000
5347653,-0.2595115005970001,-0.12022632360458374,-99.0,271.0,-3.359910011291504,2.5667285919189453,0,0,0,40000
5347663,-0.30509424209594727,-0.004598679952323437,-89.0,235.0,-4.0516486167907715,2.8488526344299316,0,0,0,40000
5347673,-0.35972145199775696,0.14970684051513672,-71.0,200.0,-4.981090545654297,3.186837911605835,0,0,0,40000
5347683,-0.3984289765357971,0.21100960671901703,-80.0,88.0,-5.356420040130615,3.4305737018585205,0,0,0,40000
5347693,-0.45757561922073364,0.2437029331922531,-97.0,13.0,-5.562070846557617,3.798459053039551,0,0,0,40000
5347703,-0.5050938129425049,0.24038048088550568,-86.0,-27.0,-5.551824569702148,4.098174095153809,0,0,0,40000
5347713,-0.5686308145523071,0.22126831114292145,-100.0,-42.0,-5.446420669555664,4.495635986328125,0,0,0,40000
5347723,-0.6062667965888977,0.19412027299404144,-94.0,-53.0,-5.291746139526367,4.739192962646484,0,0,0,40000
5347733,-0.6734267473220825,0.15136873722076416,-100.0,-74.0,-5.04201602935791,5.161578178405762,0,0,0,40000
5347743,-0.7109180092811584,0.11416131258010864,-57.0,-60.0,-4.823901176452637,5.407432556152344,0,0,0,40000
5347753,-0.7638959288597107,0.07547467201948166,-98.0,-70.0,-4.595472812652588,5.747442245483398,0,0,0,40000
5347763,-0.8029881119728088,0.05489036813378334,-93.0,-33.0,-4.474478244781494,6.0055975914001465,0,0,0,40000
5347773,-0.8528764247894287,0.05608869716525078,-53.0,6.0,-4.483734130859375,6.329982757568359,0,0,0,40000
5347783,-0.8909360766410828,0.0668347105383873,-88.0,42.0,-4.550710201263428,6.584589004516602,0,0,0,40000
5347793,-0.931133508682251,0.12791723012924194,-51.0,100.0,-4.921173572540283,6.853382110595703,0,0,0,40000
5347803,-0.9623985290527344,0.18494755029678345,-74.0,135.0,-5.2698235511779785,7.069460868835449,0,0,0,40000
5347813,-1.0119225978851318,0.30077871680259705,-57.0,195.0,-5.974788665771484,7.396429061889648,0,0,0,40000
5347823,-1.0377862453460693,0.3899347186088562,-34.0,178.0,-6.523908615112305,7.582430839538574,0,0,0,40000
5347833,-1.0674694776535034,0.5083090662956238,-48.0,152.0,-7.252658843994141,7.792158603668213,0,0,0,40000
5347843,-1.0875307321548462,0.5731173157691956,-46.0,131.0,-7.663441181182861,7.944906711578369,0,0,0,40000
5347853,-1.1105338335037231,0.6555274724960327,-16.0,123.0,-8.182838439941406,8.116022109985352,0,0,0,40000
5347863,-1.1303991079330444,0.7009442448616028,-68.0,87.0,-8.482705116271973,8.268842697143555,0,0,0,40000
5347873,-1.1440740823745728,0.756266176700592,6.0,58.0,-8.844099044799805,8.38523006439209,0,0,0,40000
5347883,-1.1339069604873657,0.7683938145637512,41.0,-7.0,-8.947443008422852,8.358392715454102,0,0,0,40000
5347893,-1.109592080116272,0.7608093619346619,23.0,-53.0,-8.932680130004883,8.246026039123535,0,0,0,40000
5347903,-1.0904501676559448,0.7257344722747803,42.0,-104.0,-8.751871109008789,8.164140701293945,0,0,0,40000
5347913,-1.066042184829712,0.6514369249343872,59.0,-120.0,-8.333398818969727,8.049999237060547,0,0,0,40000
5347923,-1.0419044494628906,0.59452885389328,65.0,-125.0,-8.01667594909668,7.936736106872559,0,0,0,40000
5347933,-1.0032099485397339,0.5192305445671082,75.0,-104.0,-7.5867390632629395,7.73520565032959,0,0,0,40000
5347943,-0.980059802532196,0.4774273633956909,82.0,-75.0,-7.355628967285156,7.626011371612549,0,0,0,40000
5347953,-0.9301769733428955,0.41070568561553955,66.0,-91.0,-6.972896575927734,7.355136871337891,0,0,0,40000
5347963,-0.8982651829719543,0.37085261940956116,55.0,-73.0,-6.749205589294434,7.190976619720459,0,0,0,40000
5347973,-0.8589022755622864,0.33495765924453735,42.0,-32.0,-6.547693729400635,6.98099422454834,0,0,0,40000
5347983,-0.832171618938446,0.3343349099159241,61.0,-3.0,-6.5573344230651855,6.845905780792236,0,0,0,40000
5347993,-0.7925800681114197,0.33418652415275574,78.0,16.0,-6.569827079772949,6.632626056671143,0,0,0,40000
5348003,-0.7780903577804565,0.3399788439273834,60.0,40.0,-6.6180572509765625,6.569188117980957,0,0,0,40000
5348013,-0.7501189708709717,0.3619062006473541,36.0,30.0,-6.763800621032715,6.424144744873047,0,0,0,40000
5348023,-0.7229793667793274,0.3928814232349396,34.0,61.0,-6.964856147766113,6.2833170890808105,0,0,0,40000
5348033,-0.6912384033203125,0.4462650418281555,40.0,78.0,-7.302159786224365,6.114014625549316,0,0,0,40000
5348043,-0.6857033967971802,0.4932935833930969,23.0,70.0,-7.603337287902832,6.101407051086426,0,0,0,40000
5348053,-0.6714150309562683,0.5544659495353699,25.0,106.0,-7.991418838500977,6.0359625816345215,0,0,0,40000
5348063,-0.6587552428245544,0.6153542995452881,47.0,153.0,-8.380390167236328,5.979955673217773,0,0,0,40000
5348073,-0.6420642733573914,0.6946848034858704,12.0,117.0,-8.882972717285156,5.899183750152588,0,0,0,40000
5348083,-0.6246663928031921,0.7581329345703125,36.0,113.0,-9.292956352233887,5.813786029815674,0,0,0,40000
5348093,-0.6058125495910645,0.8056701421737671,39.0,56.0,-9.609899520874023,5.719074249267578,0,0,0,40000
5348103,-0.5950266122817993,0.8164328932762146,70.0,27.0,-9.706998825073242,5.672313690185547,0,0,0,40000
5348113,-0.5591099262237549,0.8370351195335388,6.0,33.0,-9.863744735717773,5.473857402801514,0,0,0,40000
5348123,-0.5590143203735352,0.8587074279785156,11.0,41.0,-10.027785301208496,5.490053176879883,0,0,0,40000
5348133,-0.5360177159309387,0.897372305393219,46.0,55.0,-10.294997215270996,5.3686017990112305,0,0,0,40000
5348143,-0.5481457710266113,0.9266943335533142,-4.0,53.0,-10.507524490356445,5.457664966583252,0,0,0,40000
5348153,-0.5482184290885925,0.9605113863945007,14.0,50.0,-10.748250961303711,5.474615097045898,0,0,0,40000
5348163,-0.5452633500099182,0.9859212636947632,35.0,53.0,-10.939756393432617,5.473287582397461,0,0,0,40000
5348173,-0.5313056707382202,1.0192538499832153,-14.0,41.0,-11.180006980895996,5.405488014221191,0,0,0,40000
5348183,-0.5218198895454407,1.0382930040359497,28.0,31.0,-11.335463523864746,5.364380836486816,0,0,0,40000
5348193,-0.5090574622154236,1.0552064180374146,15.0,9.0,-11.478897094726562,5.303177833557129,0,0,0,40000
5348203,-0.4875681698322296,1.0717010498046875,38.0,33.0,-11.620458602905273,5.18914794921875,0,0,0,40000
5348213,-0.46952545642852783,1.1054275035858154,29.0,54.0,-11.866353988647461,5.095194339752197,0,0,0,40000
5348223,-0.45511478185653687,1.1366808414459229,0.0,66.0,-12.098897933959961,5.022512912750244,0,0,0,40000
5348233,-0.4501805305480957,1.17039954662323,1.0,44.0,-12.347505569458008,5.006416320800781,0,0,0,40000
5348243,-0.43779829144477844,1.1929091215133667,33.0,65.0,-12.529923439025879,4.945436000823975,0,0,0,40000
5348253,-0.41682204604148865,1.2156165838241577,38.0,28.0,-12.714468002319336,4.832374572753906,0,0,0,40000
5348263,-0.4036175012588501,1.2237297296524048,27.0,14.0,-12.811967849731445,4.76542329788208,0,0,0,40000
5348273,-0.3772335350513458,1.2417457103729248,78.0,24.0,-12.969339370727539,4.6189775466918945,0,0,0,40000
5348283,-0.35764220356941223,1.2296264171600342,6.0,-50.0,-12.94607162475586,4.51234245300293,0,0,0,40000
5348293,-0.33703282475471497,1.191624402999878,38.0,-67.0,-12.766340255737305,4.399167060852051,0,0,0,40000
5348303,-0.3086162507534027,1.1628247499465942,48.0,-83.0,-12.64049243927002,4.238245010375977,0,0,0,40000
5348313,-0.2680470645427704,1.0994426012039185,49.0,-93.0,-12.30520248413086,4.003318786621094,0,0,0,40000
5348323,-0.24865929782390594,1.0490100383758545,47.0,-118.0,-12.045366287231445,3.8946783542633057,0,0,0,40000
5348333,-0.21586602926254272,0.9737253785133362,56.0,-108.0,-11.633810043334961,3.704827308654785,0,0,0,40000
5348343,-0.1940126121044159,0.9354760646820068,50.0,-90.0,-11.442323684692383,3.579791307449341,0,0,0,40000
5348353,-0.15675248205661774,0.8756159543991089,69.0,-95.0,-11.119211196899414,3.361436367034912,0,0,0,40000
5348363,-0.12338359653949738,0.834287703037262,46.0,-92.0,-10.905258178710938,3.1653127670288086,0,0,0,40000
5348373,-0.08679128438234329,0.7829621434211731,63.0,-64.0,-10.629426956176758,2.948861598968506,0,0,0,40000
5348383,-0.06181975454092026,0.758357048034668,65.0,-54.0,-10.512476921081543,2.801197052001953,0,0,0,40000
5348393,-0.024690361693501472,0.7323023080825806,82.0,-19.0,-10.385790824890137,2.579619884490967,0,0,0,40000
5348403,-0.0014774700393900275,0.7078624367713928,45.0,-29.0,-10.267847061157227,2.440613031387329,0,0,0,40000
5348413,0.04220170900225639,0.7053364515304565,62.0,1.0,-10.280860900878906,2.177809715270996,0,0,0,40000
5348423,0.06189113110303879,0.7200989127159119,41.0,49.0,-10.397930145263672,2.0580532550811768,0,0,0,40000
5348433,0.10801150649785995,0.7660198211669922,64.0,86.0,-10.703213691711426,1.778692603111267,0,0,0,40000
5348443,0.12412656843662262,0.8031023740768433,31.0,85.0,-10.957250595092773,1.678432822227478,0,0,0,40000
5348453,0.14504316449165344,0.8572313785552979,40.0,71.0,-11.315555572509766,1.548814058303833,0,0,0,40000
5348463,0.16065877676010132,0.8910596966743469,46.0,43.0,-11.553633689880371,1.4504891633987427,0,0,0,40000
5348473,0.1726502925157547,0.9177548289299011,6.0,34.0,-11.750106811523438,1.3734714984893799,0,0,0,40000
5348483,0.1813248246908188,0.9241302609443665,20.0,-18.0,-11.82524585723877,1.316120982170105,0,0,0,40000
5348493,0.21010944247245789,0.902529776096344,90.0,-61.0,-11.732267379760742,1.1377007961273193,0,0,0,40000
5348503,0.2190379947423935,0.8558494448661804,17.0,-132.0,-11.487241744995117,1.0776749849319458,0,0,0,40000
5348513,0.2244812548160553,0.7616798281669617,7.0,-143.0,-10.954214096069336,1.0383448600769043,0,0,0,40000
5348523,0.227094829082489,0.6824399828910828,-10.0,-183.0,-10.507364273071289,1.0158411264419556,0,0,0,40000
5348533,0.21797899901866913,0.5474446415901184,0.0,-196.0,-9.721487045288086,1.0639159679412842,0,0,0,40000
5348543,0.21604913473129272,0.44567909836769104,0.0,-217.0,-9.130376815795898,1.0690182447433472,0,0,0,40000
5348553,0.20557507872581482,0.2832370400428772,-16.0,-246.0,-8.16968059539795,1.1255722045898438,0,0,0,40000
5348563,0.1877945512533188,0.18978945910930634,-67.0,-188.0,-7.618049621582031,1.2263935804367065,0,0,0,40000
5348573,0.15710896253585815,0.07641655206680298,-20.0,-151.0,-6.942544460296631,1.4055474996566772,0,0,0,40000
5348583,0.12484866380691528,0.007446344941854477,-114.0,-132.0,-6.530123233795166,1.5948742628097534,0,0,0,40000
5348593,0.06726882606744766,-0.07152728736400604,-92.0,-105.0,-6.0545759201049805,1.9376379251480103,0,0,0,40000
5348603,0.02458111010491848,-0.12828026711940765,-78.0,-112.0,-5.709810733795166,2.1925323009490967,0,0,0,40000
5348613,-0.046535976231098175,-0.1754898726940155,-95.0,-61.0,-5.420135498046875,2.619802951812744,0,0,0,40000
5348623,-0.08983147889375687,-0.1950756013393402,-92.0,-63.0,-5.295133113861084,2.881744861602783,0,0,0,40000
5348633,-0.1594037264585495,-0.22324606776237488,-119.0,-44.0,-5.117551803588867,3.3030481338500977,0,0,0,40000
5348643,-0.1977800875902176,-0.24904991686344147,-86.0,-55.0,-4.953230381011963,3.5387802124023438,0,0,0,40000
5348653,-0.2595282793045044,-0.28981760144233704,-116.0,-69.0,-4.697698593139648,3.916182279586792,0,0,0,40000
5348663,-0.31611427664756775,-0.31962263584136963,-112.0,-44.0,-4.506568908691406,4.2645263671875,0,0,0,40000
5348673,-0.38944652676582336,-0.3584885001182556,-82.0,-54.0,-4.25967264175415,4.715387344360352,0,0,0,40000
5348683,-0.421996533870697,-0.3877260684967041,-125.0,-55.0,-4.069193363189697,4.922884941101074,0,0,0,40000
5348693,-0.5027680993080139,-0.4505470097064972,-117.0,-103.0,-3.6753499507904053,5.42162561416626,0,0,0,40000
5348703,-0.5513596534729004,-0.4920141398906708,-118.0,-93.0,-3.407517194747925,5.729120254516602,0,0,0,40000
5348713,-0.6216846108436584,-0.5579930543899536,-113.0,-114.0,-2.9904634952545166,6.1688690185546875,0,0,0,40000
5348723,-0.6818905472755432,-0.6183381676673889,-135.0,-133.0,-2.604644298553467,6.549838542938232,0,0,0,40000
5348733,-0.769970178604126,-0.7221930027008057,-124.0,-138.0,-1.9542851448059082,7.100340843200684,0,0,0,40000
5348743,-0.833630383014679,-0.8068975806236267,-101.0,-174.0,-1.4151520729064941,7.506579399108887,0,0,0,40000
5348753,-0.9090942144393921,-0.9381043910980225,-97.0,-193.0,-0.5925712585449219,7.985750198364258,0,0,0,40000
5348763,-0.9379784464836121,-1.0203278064727783,-75.0,-199.0,-0.05971860885620117,8.186874389648438,0,0,0,40000
5348773,-0.9877350926399231,-1.1501659154891968,-75.0,-194.0,0.7632546424865723,8.514541625976562,0,0,0,40000
5348783,-1.0111943483352661,-1.2296631336212158,-43.0,-205.0,1.2881464958190918,8.685356140136719,0,0,0,40000
5348793,-1.040571928024292,-1.364152193069458,-38.0,-202.0,2.1474556922912598,8.892489433288574,0,0,0,40000
5348803,-1.053781270980835,-1.4508713483810425,-23.0,-179.0,2.7244043350219727,9.003177642822266,0,0,0,40000
5348813,-1.0695310831069946,-1.5725631713867188,-22.0,-164.0,3.515561580657959,9.12956428527832,0,0,0,40000
5348823,-1.0601176023483276,-1.6355094909667969,4.0,-137.0,3.957651138305664,9.104982376098633,0,0,0,40000
5348833,-1.053429126739502,-1.703513741493225,30.0,-70.0,4.432975769042969,9.096644401550293,0,0,0,40000
5348843,-1.034828782081604,-1.7311722040176392,37.0,-33.0,4.667766571044922,9.016307830810547,0,0,0,40000
5348853,-1.017047643661499,-1.7271559238433838,38.0,19.0,4.713008403778076,8.940366744995117,0,0,0,40000
5348863,-0.9960181713104248,-1.6943995952606201,51.0,66.0,4.58477783203125,8.844344139099121,0,0,0,40000
5348873,-0.9806069135665894,-1.635657787322998,22.0,99.0,4.298760414123535,8.781452178955078,0,0,0,40000
5348883,-0.968768298625946,-1.5718822479248047,56.0,154.0,3.9800548553466797,8.739677429199219,0,0,0,40000
5348893,-0.940988302230835,-1.449440360069275,59.0,203.0,3.3054704666137695,8.601606369018555,0,0,0,40000
5348903,-0.9162076115608215,-1.3604336977005005,58.0,187.0,2.8272571563720703,8.480693817138672,0,0,0,40000
5348913,-0.8725102543830872,-1.21505606174469,52.0,201.0,2.0058388710021973,8.245134353637695,0,0,0,40000
5348923,-0.8408202528953552,-1.1296947002410889,72.0,148.0,1.5402092933654785,8.080583572387695,0,0,0,40000
5348933,-0.7730628848075867,-1.0399632453918457,80.0,106.0,1.0446586608886719,7.697984218597412,0,0,0,40000
5348943,-0.7510296106338501,-1.0045477151870728,72.0,52.0,0.8728885650634766,7.588592052459717,0,0,0,40000
5348953,-0.69099360704422,-0.9413805603981018,98.0,88.0,0.5325417518615723,7.249831199645996,0,0,0,40000
5348963,-0.6672135591506958,-0.9191416501998901,53.0,49.0,0.4361763000488281,7.127436637878418,0,0,0,40000
5348973,-0.6147505044937134,-0.8933190703392029,71.0,28.0,0.31726932525634766,6.831821441650391,0,0,0,40000
5348983,-0.5740010142326355,-0.8846523761749268,95.0,18.0,0.3007969856262207,6.605038166046143,0,0,0,40000
5348993,-0.5119946599006653,-0.8667397499084473,89.0,31.0,0.22835111618041992,6.249120712280273,0,0,0,40000
5349003,-0.4697757065296173,-0.8416233062744141,86.0,50.0,0.111724853515625,6.010409355163574,0,0,0,40000
5349013,-0.4355810284614563,-0.8140080571174622,76.0,81.0,-0.02768230438232422,5.815905570983887,0,0,0,40000
5349023,-0.3707224726676941,-0.7552003264427185,90.0,87.0,-0.3493647575378418,5.438733100891113,0,0,0,40000
5349033,-0.3396316468715668,-0.7101378440856934,61.0,108.0,-0.5906362533569336,5.262726783752441,0,0,0,40000
5349043,-0.2941020429134369,-0.6084206104278564,74.0,171.0,-1.1747469902038574,4.998936653137207,0,0,0,40000
5349053,-0.2547990083694458,-0.5223327875137329,52.0,216.0,-1.6690285205841064,4.771167755126953,0,0,0,40000
5349063,-0.19256366789340973,-0.39440611004829407,94.0,175.0,-2.4188506603240967,4.404355525970459,0,0,0,40000
5349073,-0.1696951687335968,-0.2965128719806671,70.0,221.0,-2.9927303791046143,4.272486686706543,0,0,0,40000
5349083,-0.12566368281841278,-0.15029801428318024,81.0,223.0,-3.8616890907287598,4.012563228607178,0,30,0,40000
5349093,-0.093934565782547,-0.05235816538333893,59.0,209.0,-185.16567993164062,3.825331926345825,0,30,0,40000
5349103,-0.04244319349527359,0.09146526455879211,85.0,195.0,-187.22994995117188,3.518314838409424,0,30,0,40000
5349113,0.004007183481007814,0.15614300966262817,55.0,64.0,-188.8233642578125,3.240037441253662,0,30,0,40000
5349123,0.050238627940416336,0.13370372354984283,82.0,-139.0,-189.89492797851562,2.9617600440979004,0,30,0,40000
5349133,0.07598565518856049,0.005780781619250774,83.0,-411.0,-190.32989501953125,2.8053393363952637,0,30,0,40000
5349143,0.11695929616689682,-0.405355840921402,66.0,-803.0,-189.0546417236328,2.5564448833465576,0,30,0,40000
5349153,0.14664094150066376,-0.8734275102615356,111.0,-1257.0,-187.41908264160156,2.3743624687194824,0,30,0,40000
5349163,0.20707020163536072,-1.9127840995788574,69.0,-1783.0,-182.3245849609375,2.0061964988708496,0,30,0,40000
5349173,0.24144558608531952,-2.847285747528076,68.0,-2333.0,-177.8190460205078,1.7931435108184814,0,30,0,40000
5349183,0.2961358428001404,-4.626353740692139,102.0,-2867.0,-168.18966674804688,1.4568785429000854,0,30,0,40000
5349193,0.32756614685058594,-6.059659481048584,99.0,-3376.0,-160.5707244873047,1.2588505744934082,0,30,0,40000
5349203,0.3795230984687805,-8.51357650756836,100.0,-3788.0,-146.74705505371094,0.9363737106323242,0,30,0,40000
5349213,0.42784854769706726,-10.307647705078125,66.0,-4089.0,-136.79925537109375,0.6341140270233154,0,30,0,40000
5349223,0.4889560043811798,-13.169379234313965,103.0,-4252.0,-120.3483657836914,0.25361156463623047,0,30,0,40000
5349233,0.5420498847961426,-15.114800453186035,101.0,-4239.0,-109.30235290527344,-0.08055877685546875,0,30,0,40000
5349243,0.5990552306175232,-17.988595962524414,77.0,-4126.0,-92.58567810058594,-0.4398627281188965,0,30,0,40000
5349253,0.6292347311973572,-19.821496963500977,20.0,-3886.0,-82.02459716796875,-0.639503002166748,0,30,0,40000
5349263,0.6578097939491272,-22.358901977539062,41.0,-3509.0,-67.14530181884766,-0.8303360939025879,0,30,0,40000
5349273,0.6761873364448547,-23.86153793334961,45.0,-3063.0,-58.39872360229492,-0.9606680870056152,0,30,0,40000
5349283,0.6913432478904724,-25.77600860595703,-37.0,-2544.0,-47.10999298095703,-1.072319507598877,0,30,0,40000
5349293,0.6815444231033325,-26.804492950439453,-42.0,-1975.0,-41.082950592041016,-1.0341086387634277,0,30,0,40000
5349303,0.6497408747673035,-27.960311889648438,-39.0,-1461.0,-34.24656677246094,-0.8631043434143066,0,30,0,40000
5349313,0.6248279809951782,-28.5072078704834,-32.0,-960.0,-31.03329086303711,-0.7327039241790771,0,30,0,40000
5349323,0.5769150853157043,-29.02670669555664,-34.0,-532.0,-27.962322235107422,-0.46319580078125,0,30,0,40000
5349333,0.5518276691436768,-29.183780670166016,-37.0,-141.0,-27.054779052734375,-0.32952117919921875,0,30,0,40000
5349343,0.5083641409873962,-29.168970108032227,-97.0,173.0,-27.175739288330078,-0.08473396301269531,0,30,0,40000
5349353,0.4882185459136963,-29.017675399780273,3.0,445.0,-28.120220184326172,0.021305561065673828,0,30,0,40000
5349363,0.4736281931400299,-28.67556381225586,-2.0,548.0,-30.220090866088867,0.09456539154052734,0,30,0,40000
5349373,0.48202767968177795,-28.404308319091797,26.0,621.0,-31.907039642333984,0.029797077178955078,0,30,0,40000
5349383,0.49420905113220215,-27.988983154296875,3.0,565.0,-34.47297668457031,-0.05806851387023926,0,30,0,40000
5349393,0.51027512550354,-27.757160186767578,32.0,420.0,-35.950042724609375,-0.16952800750732422,0,30,0,40000
5349403,0.5290540456771851,-27.541994094848633,36.0,218.0,-37.33649826049805,-0.29779505729675293,0,30,0,40000
5349413,0.5400237441062927,-27.515493392944336,67.0,-64.0,-37.594669342041016,-0.37963438034057617,0,30,0,40000
5349423,0.5894871354103088,-27.671382904052734,47.0,-384.0,-36.755882263183594,-0.6934957504272461,0,30,0,40000
5349433,0.6168220639228821,-27.903688430786133,25.0,-645.0,-35.44980239868164,-0.8756928443908691,0,30,0,40000
5349443,0.6588304042816162,-28.418701171875,56.0,-901.0,-32.43196487426758,-1.1469364166259766,0,30,0,40000
5349453,0.6917575001716614,-28.88477897644043,44.0,-1094.0,-29.687694549560547,-1.3648457527160645,0,30,0,40000
5349463,0.7498617768287659,-29.66241455078125,77.0,-1186.0,-25.04813003540039,-1.7352626323699951,0,30,0,40000
5349473,0.7857997417449951,-30.21820831298828,39.0,-1234.0,-21.713531494140625,-1.9740571975708008,0,30,0,40000
5349483,0.8215175271034241,-31.057369232177734,27.0,-1234.0,-16.64969825744629,-2.2127037048339844,0,30,0,40000
5349493,0.8386222124099731,-31.60321044921875,23.0,-1168.0,-13.319210052490234,-2.340242385864258,0,30,0,40000
5349503,0.841888964176178,-32.35843276977539,-1.0,-1023.0,-8.705177307128906,-2.3852062225341797,0,30,0,40000
5349513,0.8405255079269409,-32.79433059692383,23.0,-863.0,-5.984870910644531,-2.402242660522461,0,30,0,40000
5349523,0.8194528818130493,-33.331153869628906,-51.0,-686.0,-2.6387786865234375,-2.3007919788360596,0,30,0,40000
5349533,0.7635199427604675,-33.599266052246094,-114.0,-498.0,-0.8902740478515625,-1.9888544082641602,0,30,0,40000
5349543,0.6397284865379333,-33.881351470947266,-133.0,-316.0,0.9535140991210938,-1.2668540477752686,0,30,0,40000
5349553,0.5446313619613647,-33.97655487060547,-147.0,-122.0,1.6823997497558594,-0.7137715816497803,0,30,0,40000
5349563,0.37853363156318665,-34.005699157714844,-175.0,33.0,2.0174694061279297,0.26937198638916016,0,30,0,40000
5349573,0.2691178619861603,-33.94432830810547,-134.0,189.0,1.8080940246582031,0.9165019989013672,0,30,0,40000
5349583,0.13288578391075134,-33.781089782714844,-138.0,261.0,0.9827213287353516,1.7282793521881104,0,30,0,40000
5349593,0.04025453329086304,-33.65006637573242,-129.0,341.0,0.34474945068359375,2.281749725341797,0,30,0,40000
