timestamp,motor.m1,motor.m2,motor.m3,motor.m4,roll,pitch,yawdot,thrust
1311689,7431.0,39803.0,65535.0,39803.0,0,0,0,40000
1311699,7544.0,39690.0,65535.0,39690.0,0,0,0,40000
1311709,7590.0,39644.0,65535.0,39644.0,0,0,0,40000
1311719,7796.0,39438.0,65535.0,39438.0,0,0,0,40000
1311729,7889.0,39345.0,65535.0,39345.0,0,0,0,40000
1311739,7873.0,39361.0,65535.0,39361.0,0,0,0,40000
1311749,7619.0,39615.0,65535.0,39615.0,0,0,0,40000
1311759,7483.0,39751.0,65535.0,39751.0,0,0,0,40000
1311769,7070.0,40164.0,65535.0,40164.0,0,0,0,40000
1311779,6887.0,40347.0,65535.0,40347.0,0,0,0,40000
1311789,11522.0,35712.0,65535.0,46028.0,0,0,0,40000
1311799,16597.0,30637.0,60769.0,51997.0,0,0,0,40000
1311809,28547.0,18687.0,47605.0,65161.0,0,0,0,40000
1311819,30385.0,16849.0,44039.0,65535.0,0,0,0,40000
1311829,36239.0,10995.0,36239.0,65535.0,0,0,0,40000
1311839,35244.0,11990.0,35244.0,65535.0,0,0,0,40000
1311849,38912.0,16766.0,30468.0,65535.0,0,0,0,40000
1311859,37524.0,16032.0,31202.0,65535.0,0,0,0,40000
1311869,44418.0,23626.0,23608.0,65535.0,0,0,0,40000
1311879,47627.0,26971.0,20263.0,65139.0,0,0,0,40000
1311889,52018.0,31916.0,15318.0,60748.0,0,0,0,40000
1311899,52445.0,30805.0,16429.0,60321.0,0,0,0,40000
1311909,57432.0,34242.0,12992.0,55334.0,0,0,0,40000
1311919,48053.0,44367.0,23315.0,44265.0,0,0,0,40000
1311929,49912.0,55656.0,23162.0,31270.0,0,0,0,40000
1311939,37930.0,64584.0,35974.0,21512.0,0,0,0,40000
1311949,36249.0,65535.0,38881.0,11461.0,0,0,0,40000
1311959,34120.0,65535.0,41538.0,13114.0,0,0,0,40000
1311969,38063.0,65535.0,38307.0,9171.0,0,0,0,40000
1311979,34834.0,65535.0,40820.0,12400.0,0,0,0,40000
1311989,37848.0,65535.0,37848.0,9386.0,0,0,0,40000
1311999,35656.0,65535.0,39486.0,11578.0,0,0,0,40000
1312009,36906.0,65535.0,37850.0,10328.0,0,0,0,40000
1312019,34135.0,65535.0,41037.0,13099.0,0,0,0,40000
1312029,34888.0,65535.0,39794.0,12346.0,0,0,0,40000
1312039,31648.0,65535.0,43626.0,15586.0,0,0,0,40000
1312049,33240.0,65535.0,42302.0,13994.0,0,0,0,40000
1312059,30724.0,65535.0,45028.0,16510.0,0,0,0,40000
1312069,33389.0,62417.0,44159.0,20035.0,0,0,0,40000
1312079,36112.0,53628.0,41714.0,28546.0,0,0,0,40000
1312089,43637.0,44393.0,35387.0,36583.0,0,0,0,40000
1312099,44614.0,38464.0,35314.0,41608.0,0,0,0,40000
1312109,50419.0,28761.0,30189.0,50631.0,0,0,0,40000
1312119,45942.0,25384.0,35148.0,53526.0,0,0,0,40000
1312129,50519.0,20083.0,30689.0,58709.0,0,0,0,40000
1312139,45651.0,23463.0,35093.0,55793.0,0,0,0,40000
1312149,43937.0,19071.0,36229.0,60763.0,0,0,0,40000
1312159,35975.0,26129.0,43647.0,54249.0,0,0,0,40000
1312169,32347.0,22255.0,46637.0,58761.0,0,0,0,40000
1312179,27494.0,29678.0,50696.0,52132.0,0,0,0,40000
1312189,21772.0,30860.0,56300.0,51068.0,0,0,0,40000
1312199,18510.0,35542.0,58912.0,47036.0,0,0,0,40000
1312209,15054.0,35536.0,61866.0,47544.0,0,0,0,40000
1312219,14940.0,38834.0,62148.0,44078.0,0,0,0,40000
1312229,12550.0,37890.0,64772.0,44788.0,0,0,0,40000
1312239,13919.0,39283.0,63893.0,42905.0,0,0,0,40000
1312249,14280.0,37592.0,64062.0,44066.0,0,0,0,40000
1312259,18169.0,37087.0,60465.0,44279.0,0,0,0,40000
1312269,19200.0,36012.0,59798.0,44990.0,0,0,0,40000
1312279,24619.0,35475.0,54637.0,45269.0,0,0,0,40000
1312289,26370.0,31906.0,53774.0,47950.0,0,0,0,40000
1312299,27836.0,32930.0,51408.0,47826.0,0,0,0,40000
1312309,33210.0,33594.0,46874.0,46322.0,0,0,0,40000
1312319,35395.0,34545.0,43649.0,46411.0,0,0,0,40000
1312329,38478.0,34484.0,42064.0,44974.0,0,0,0,40000
1312339,38155.0,36707.0,41075.0,44063.0,0,0,0,40000
1312349,39262.0,36636.0,41538.0,42564.0,0,0,0,40000
1312359,38310.0,39260.0,41324.0,41106.0,0,0,0,40000
1312369,39947.0,41271.0,41643.0,37139.0,0,0,0,40000
1312379,38254.0,44010.0,42454.0,35282.0,0,0,0,40000
1312389,38511.0,45653.0,43531.0,32305.0,0,0,0,40000
1312399,37124.0,46576.0,44354.0,31946.0,0,0,0,40000
1312409,37993.0,48761.0,44049.0,29197.0,0,0,0,40000
1312419,37059.0,47991.0,44933.0,30017.0,0,0,0,40000
1312429,38189.0,49647.0,44037.0,28127.0,0,0,0,40000
1312439,37293.0,49875.0,43855.0,28977.0,0,0,0,40000
1312449,39006.0,48914.0,42962.0,29118.0,0,0,0,40000
1312459,38396.0,46760.0,42244.0,32600.0,0,0,0,40000
1312469,39571.0,45957.0,41375.0,33097.0,0,0,0,40000
1312479,40177.0,44667.0,40477.0,34679.0,0,0,0,40000
1312489,40060.0,43488.0,40478.0,35974.0,0,0,0,40000
1312499,41070.0,42976.0,38868.0,37086.0,0,0,0,40000
1312509,39723.0,41461.0,39931.0,38885.0,0,0,0,40000
1312519,39165.0,40235.0,40491.0,40109.0,0,0,0,40000
1312529,38042.0,37196.0,41992.0,42770.0,0,0,0,40000
1312539,36990.0,40298.0,41772.0,40940.0,0,0,0,40000
1312549,35416.0,39722.0,44260.0,40602.0,0,0,0,40000
1312559,34607.0,39643.0,44431.0,41319.0,0,0,0,40000
1312569,32609.0,38019.0,46631.0,42741.0,0,0,0,40000
1312579,32123.0,39017.0,46123.0,42737.0,0,0,0,40000
1312589,30651.0,37881.0,48187.0,43281.0,0,0,0,40000
1312599,30158.0,38658.0,47740.0,43444.0,0,0,0,40000
1312609,29239.0,36899.0,49383.0,44479.0,0,0,0,40000
1312619,28735.0,39481.0,49219.0,42565.0,0,0,0,40000
1312629,29132.0,36398.0,49708.0,44762.0,0,0,0,40000
1312639,28908.0,37138.0,49504.0,44450.0,0,0,0,40000
1312649,29108.0,36104.0,49446.0,45342.0,0,0,0,40000
1312659,31398.0,36976.0,47086.0,44540.0,0,0,0,40000
1312669,30860.0,35880.0,48642.0,44618.0,0,0,0,40000
1312679,31018.0,36254.0,47820.0,44908.0,0,0,0,40000
1312689,31746.0,36296.0,47156.0,44802.0,0,0,0,40000
1312699,31611.0,37459.0,47157.0,43773.0,0,0,0,40000
1312709,33348.0,36356.0,46206.0,44090.0,0,0,0,40000
1312719,32905.0,37741.0,46261.0,43093.0,0,0,0,40000
1312729,32493.0,39057.0,46619.0,41831.0,0,0,0,40000
1312739,34397.0,38587.0,45185.0,41831.0,0,0,0,40000
1312749,33349.0,39985.0,46149.0,40517.0,0,0,0,40000
1312759,34160.0,40496.0,46126.0,39218.0,0,0,0,40000
1312769,35033.0,41079.0,44835.0,39053.0,0,0,0,40000
1312779,35321.0,41369.0,45657.0,37653.0,0,0,0,40000
1312789,35598.0,42332.0,44440.0,37630.0,0,0,0,40000
1312799,35779.0,40523.0,45085.0,38613.0,0,0,0,40000
1312809,35517.0,43175.0,44897.0,36411.0,0,0,0,40000
1312819,35589.0,42007.0,44967.0,37437.0,0,0,0,40000
1312829,37105.0,42993.0,42987.0,36915.0,0,0,0,40000
1312839,36900.0,42540.0,43128.0,37432.0,0,0,0,40000
1312849,36716.0,41678.0,43638.0,37968.0,0,0,0,40000
1312859,36857.0,41817.0,43427.0,37899.0,0,0,0,40000
1312869,37284.0,41446.0,42712.0,38558.0,0,0,0,40000
1312879,36835.0,40439.0,43467.0,39259.0,0,0,0,40000
1312889,37584.0,40796.0,42732.0,38888.0,0,0,0,40000
1312899,37137.0,40433.0,42707.0,39723.0,0,0,0,40000
1312909,37271.0,39383.0,42495.0,40851.0,0,0,0,40000
1312919,36285.0,40049.0,43219.0,40447.0,0,0,0,40000
1312929,35074.0,40442.0,44934.0,39550.0,0,0,0,40000
1312939,34359.0,40283.0,45215.0,40143.0,0,0,0,40000
1312949,34497.0,40989.0,44657.0,39857.0,0,0,0,40000
1312959,34673.0,39897.0,44935.0,40495.0,0,0,0,40000
1312969,33044.0,39562.0,46524.0,40870.0,0,0,0,40000
1312979,32696.0,40886.0,46748.0,39670.0,0,0,0,40000
1312989,32782.0,39968.0,46530.0,40720.0,0,0,0,40000
1312999,32726.0,40108.0,46766.0,40400.0,0,0,0,40000
1313009,32516.0,39364.0,47286.0,40834.0,0,0,0,40000
1313019,32059.0,39905.0,47245.0,40791.0,0,0,0,40000
1313029,31716.0,39242.0,47514.0,41528.0,0,0,0,40000
1313039,33346.0,39152.0,45934.0,41568.0,0,0,0,40000
1313049,33200.0,39264.0,46316.0,41220.0,0,0,0,40000
1313059,33559.0,38811.0,46119.0,41511.0,0,0,0,40000
1313069,34639.0,38479.0,44235.0,42647.0,0,0,0,40000
1313079,33820.0,38532.0,46414.0,41234.0,0,0,0,40000
1313089,34528.0,39370.0,44528.0,41574.0,0,0,0,40000
1313099,35248.0,39558.0,44768.0,40426.0,0,0,0,40000
1313109,33663.0,39931.0,45755.0,40651.0,0,0,0,40000
1313119,34299.0,38961.0,45877.0,40863.0,0,0,0,40000
1313129,34648.0,40340.0,44622.0,40390.0,0,0,0,40000
1313139,35344.0,40036.0,45254.0,39366.0,0,0,0,40000
1313149,35624.0,40186.0,43650.0,40540.0,0,0,0,40000
1313159,36646.0,39570.0,43414.0,40370.0,0,0,0,40000
1313169,37027.0,40089.0,43071.0,39813.0,0,0,0,40000
1313179,36210.0,39372.0,43550.0,40868.0,0,0,0,40000
1313189,36037.0,40135.0,43845.0,39983.0,0,0,0,40000
1313199,36326.0,40170.0,43622.0,39882.0,0,0,0,40000
1313209,36033.0,42111.0,43853.0,38003.0,0,0,0,40000
1313219,36376.0,41184.0,43334.0,39106.0,0,0,0,40000
1313229,36464.0,41038.0,43230.0,39268.0,0,0,0,40000
1313239,36022.0,40356.0,44278.0,39344.0,0,0,0,40000
1313249,36055.0,41315.0,43395.0,39235.0,0,0,0,40000
1313259,36008.0,41570.0,43982.0,38440.0,0,0,0,40000
1313269,35398.0,40658.0,44516.0,39428.0,0,0,0,40000
1313279,33820.0,40174.0,46268.0,39738.0,0,0,0,40000
1313289,34108.0,40446.0,45466.0,39980.0,0,0,0,40000
1313299,35987.0,41933.0,44319.0,39193.0,0,0,0,40000
1313309,36220.0,40946.0,43202.0,39632.0,0,0,0,40000
1313319,35876.0,41550.0,44038.0,38536.0,0,0,0,40000
1313329,34817.0,39303.0,44483.0,41397.0,0,0,0,40000
1313339,34453.0,38859.0,45487.0,41201.0,0,0,0,40000
1313349,34783.0,40427.0,44861.0,39929.0,0,0,0,40000
1313359,35098.0,41240.0,44576.0,39086.0,0,0,0,40000
1313369,35600.0,41174.0,43720.0,39506.0,0,0,0,40000
1313379,34367.0,39949.0,45559.0,40125.0,0,0,0,40000
1313389,34070.0,39956.0,45222.0,40752.0,0,0,0,40000
1313399,32017.0,39845.0,47805.0,40333.0,0,0,0,40000
1313409,34542.0,40928.0,45278.0,39252.0,0,0,0,40000
1313419,34151.0,40981.0,44869.0,39999.0,0,0,0,40000
1313429,35308.0,39178.0,45070.0,40444.0,0,0,0,40000
1313439,33720.0,40560.0,45400.0,40320.0,0,0,0,40000
1313449,33629.0,39955.0,46135.0,40281.0,0,0,0,40000
1313459,35187.0,39967.0,44279.0,40567.0,0,0,0,40000
1313469,34818.0,40050.0,45540.0,39592.0,0,0,0,40000
1313479,34800.0,39980.0,44714.0,40506.0,0,0,0,40000
1313489,34104.0,39282.0,45330.0,41284.0,0,0,0,40000
1313499,34175.0,39897.0,45449.0,40479.0,0,0,0,40000
1313509,33710.0,39950.0,46418.0,39922.0,0,0,0,40000
1313519,34921.0,41149.0,44617.0,39313.0,0,0,0,40000
1313529,34748.0,41432.0,44714.0,39106.0,0,0,0,40000
1313539,34813.0,40813.0,44609.0,39765.0,0,0,0,40000
1313549,34555.0,39427.0,45541.0,40477.0,0,0,0,40000
1313559,35463.0,39849.0,44433.0,40255.0,0,0,0,40000
1313569,36129.0,40513.0,43501.0,39857.0,0,0,0,40000
1313579,35040.0,40210.0,44614.0,40136.0,0,0,0,40000
1313589,35348.0,41182.0,44568.0,38902.0,0,0,0,40000
1313599,35655.0,40501.0,44545.0,39299.0,0,0,0,40000
1313609,35066.0,39874.0,44544.0,40516.0,0,0,0,40000
1313619,34964.0,40558.0,44652.0,39826.0,0,0,0,40000
1313629,35858.0,40192.0,44244.0,39706.0,0,0,0,40000
1313639,35766.0,40668.0,43958.0,39608.0,0,0,0,40000
1313649,35831.0,40657.0,43627.0,39885.0,0,0,0,40000
1313659,34845.0,41245.0,44353.0,39557.0,0,0,0,40000
1313669,34620.0,41600.0,45436.0,38344.0,0,0,0,40000
1313679,34570.0,40664.0,45302.0,39464.0,0,0,0,40000
1313689,33203.0,42705.0,46037.0,38055.0,0,0,0,40000
1313699,34412.0,40674.0,45620.0,39294.0,0,0,0,40000
1313709,34503.0,41479.0,45403.0,38615.0,0,0,0,40000
1313719,35040.0,40538.0,44848.0,39574.0,0,0,0,40000
1313729,34830.0,40790.0,44820.0,39560.0,0,0,0,40000
1313739,35133.0,39955.0,44799.0,40113.0,0,0,0,40000
1313749,36005.0,40125.0,43635.0,40235.0,0,0,0,40000
1313759,36288.0,38888.0,43252.0,41572.0,0,0,0,40000
1313769,35504.0,39246.0,44020.0,41230.0,0,0,0,40000
1313779,35594.0,39220.0,43796.0,41390.0,0,0,0,40000
1313789,35619.0,40087.0,44397.0,39897.0,0,0,0,40000
1313799,34466.0,40312.0,44688.0,40534.0,0,0,0,40000
1313809,34141.0,40679.0,45671.0,39509.0,0,0,0,40000
1313819,32899.0,41167.0,47359.0,38575.0,0,0,0,40000
1313829,33175.0,42117.0,46117.0,38591.0,0,0,0,40000
1313839,32846.0,41198.0,47618.0,38338.0,0,0,0,40000
1313849,33074.0,41446.0,46248.0,39232.0,0,0,0,40000
1313859,32101.0,42571.0,48005.0,37323.0,0,0,0,40000
1313869,33591.0,41705.0,45999.0,38705.0,0,0,0,40000
1313879,34103.0,40671.0,45081.0,40145.0,0,0,0,40000
1313889,34514.0,39070.0,45534.0,40882.0,0,0,0,40000
1313899,34983.0,39317.0,44345.0,41355.0,0,0,0,40000
1313909,34774.0,39922.0,45090.0,40214.0,0,0,0,40000
1313919,35420.0,39236.0,43932.0,41412.0,0,0,0,40000
1313929,35124.0,38678.0,45090.0,41108.0,0,0,0,40000
1313939,34511.0,39349.0,44949.0,41191.0,0,0,0,40000
1313949,34761.0,38777.0,44917.0,41545.0,0,0,0,40000
1313959,35256.0,39478.0,44278.0,40988.0,0,0,0,40000
1313969,34705.0,39845.0,45557.0,39893.0,0,0,0,40000
1313979,33892.0,41508.0,45336.0,39264.0,0,0,0,40000
1313989,34728.0,41672.0,44620.0,38980.0,0,0,0,40000
1313999,35062.0,40628.0,44800.0,39510.0,0,0,0,40000
1314009,33721.0,40515.0,46597.0,39167.0,0,0,0,40000
1314019,33054.0,42354.0,46010.0,38582.0,0,0,0,40000
1314029,34688.0,41270.0,45164.0,38878.0,0,0,0,40000
1314039,34932.0,41102.0,44648.0,39318.0,0,0,0,40000
1314049,34381.0,41715.0,46127.0,37777.0,0,0,0,40000
1314059,34542.0,41884.0,45052.0,38522.0,0,0,0,40000
1314069,35111.0,40135.0,44715.0,40039.0,0,0,0,40000
1314079,35579.0,40387.0,43909.0,40125.0,0,0,0,40000
1314089,35410.0,39210.0,44868.0,40512.0,0,0,0,40000
1314099,36740.0,38160.0,42572.0,42528.0,0,0,0,40000
1314109,36572.0,38964.0,43078.0,41386.0,0,0,0,40000
1314119,36002.0,38960.0,43500.0,41538.0,0,0,0,40000
1314129,35461.0,39931.0,44565.0,40043.0,0,0,0,40000
1314139,34736.0,40504.0,44664.0,40096.0,0,0,0,40000
1314149,34618.0,39810.0,45012.0,40560.0,0,0,0,40000
1314159,33977.0,40859.0,46121.0,39043.0,0,0,0,40000
1314169,32697.0,42577.0,47001.0,37725.0,0,0,0,40000
1314179,32082.0,42144.0,47830.0,37944.0,0,0,0,40000
1314189,32784.0,42320.0,46722.0,38174.0,0,0,0,40000
1314199,32587.0,42599.0,47153.0,37661.0,0,0,0,40000
1314209,33381.0,42689.0,46323.0,37607.0,0,0,0,40000
1314219,32630.0,41964.0,47214.0,38192.0,0,0,0,40000
1314229,34928.0,41158.0,44484.0,39430.0,0,0,0,40000
1314239,35536.0,39612.0,44448.0,40404.0,0,0,0,40000
1314249,35330.0,39596.0,44666.0,40408.0,0,0,0,40000
1314259,36048.0,39730.0,43708.0,40514.0,0,0,0,40000
1314269,36336.0,39220.0,43198.0,41246.0,0,0,0,40000
1314279,36299.0,39335.0,43617.0,40749.0,0,0,0,40000
1314289,35340.0,39382.0,43966.0,41312.0,0,0,0,40000
1314299,36101.0,38439.0,44009.0,41451.0,0,0,0,40000
1314309,35655.0,39439.0,43547.0,41359.0,0,0,0,40000
1314319,34653.0,39771.0,45215.0,40361.0,0,0,0,40000
1314329,34294.0,40830.0,45346.0,39530.0,0,0,0,40000
1314339,33631.0,40863.0,46241.0,39265.0,0,0,0,40000
1314349,32882.0,41984.0,46876.0,38258.0,0,0,0,40000
1314359,32037.0,41967.0,47705.0,38291.0,0,0,0,40000
1314369,32130.0,41806.0,47436.0,38628.0,0,0,0,40000
1314379,32188.0,41244.0,47730.0,38838.0,0,0,0,40000
1314389,32847.0,41061.0,46657.0,39435.0,0,0,0,40000
1314399,34318.0,39402.0,45606.0,40674.0,0,0,0,40000
1314409,33113.0,40229.0,45991.0,40667.0,0,0,0,40000
1314419,33277.0,39265.0,46833.0,40625.0,0,0,0,40000
1314429,34056.0,39388.0,45520.0,41036.0,0,0,0,40000
1314439,34379.0,37853.0,45441.0,42327.0,0,0,0,40000
1314449,34077.0,39057.0,45265.0,41601.0,0,0,0,40000
1314459,33836.0,38368.0,45692.0,42104.0,0,0,0,40000
1314469,34748.0,37566.0,44882.0,42804.0,0,0,0,40000
1314479,33516.0,39020.0,45866.0,41598.0,0,0,0,40000
1314489,32933.0,40169.0,47087.0,39811.0,0,0,0,40000
1314499,33153.0,40639.0,46565.0,39643.0,0,0,0,40000
1314509,32987.0,39927.0,46995.0,40091.0,0,0,0,40000
1314519,32202.0,40408.0,47556.0,39834.0,0,0,0,40000
1314529,31502.0,41592.0,48140.0,38766.0,0,0,0,40000
1314539,32341.0,40649.0,47187.0,39823.0,0,0,0,40000
1314549,32777.0,40753.0,46851.0,39619.0,0,0,0,40000
1314559,32488.0,41276.0,47224.0,39012.0,0,0,0,40000
1314569,33548.0,40414.0,46536.0,39502.0,0,0,0,40000
1314579,34631.0,39967.0,44759.0,40643.0,0,0,0,40000
1314589,34393.0,39683.0,45697.0,40227.0,0,0,0,40000
1314599,35351.0,40241.0,44095.0,40313.0,0,0,0,40000
1314609,37212.0,38678.0,43272.0,40838.0,0,0,0,40000
1314619,36444.0,39604.0,42566.0,41386.0,0,0,0,40000
1314629,36412.0,38226.0,43544.0,41818.0,0,0,0,40000
1314639,36438.0,39354.0,43478.0,40730.0,0,0,0,40000
1314649,36137.0,39483.0,43981.0,40399.0,0,0,0,40000
1314659,35539.0,40753.0,44135.0,39573.0,0,0,0,40000
1314669,34417.0,41665.0,45433.0,38485.0,0,0,0,40000
1314679,34569.0,40715.0,45307.0,39409.0,0,0,0,40000
1314689,33565.0,41277.0,46473.0,38685.0,0,0,0,40000
1314699,34684.0,41234.0,44838.0,39244.0,0,0,0,40000
1314709,34148.0,40982.0,45388.0,39482.0,0,0,0,40000
1314719,34108.0,40974.0,45872.0,39046.0,0,0,0,40000
1314729,34488.0,40350.0,44968.0,40194.0,0,0,0,40000
1314739,35589.0,40545.0,44191.0,39675.0,0,0,0,40000
1314749,35086.0,39708.0,44458.0,40748.0,0,0,0,40000
1314759,34937.0,39395.0,45009.0,40659.0,0,0,0,40000
1314769,34765.0,39769.0,44791.0,40675.0,0,0,0,40000
1314779,34813.0,39705.0,45327.0,40155.0,0,0,0,40000
1314789,35165.0,39797.0,44459.0,40579.0,0,0,0,40000
1314799,34265.0,41109.0,45775.0,38851.0,0,0,0,40000
1314809,34133.0,40701.0,45417.0,39749.0,0,0,0,40000
1314819,33152.0,40590.0,46198.0,40060.0,0,0,0,40000
1314829,34109.0,38919.0,45981.0,40991.0,0,0,0,40000
1314839,33529.0,39615.0,45923.0,40933.0,0,0,0,40000
1314849,33911.0,40337.0,45409.0,40343.0,0,0,0,40000
1314859,34488.0,40202.0,45378.0,39932.0,0,0,0,40000
1314869,35951.0,39057.0,44075.0,40917.0,0,0,0,40000
1314879,34391.0,39431.0,45343.0,40835.0,0,0,0,40000
1314889,33055.0,40141.0,46671.0,40133.0,0,0,0,40000
1314899,33344.0,40192.0,46210.0,40254.0,0,0,0,40000
1314909,34381.0,39793.0,45699.0,40127.0,0,0,0,40000
1314919,34293.0,39947.0,45285.0,40475.0,0,0,0,40000
1314929,34190.0,39732.0,45554.0,40524.0,0,0,0,40000
1314939,34891.0,39333.0,44759.0,41017.0,0,0,0,40000
1314949,33443.0,40257.0,45861.0,40439.0,0,0,0,40000
1314959,33698.0,40582.0,46546.0,39174.0,0,0,0,40000
1314969,32070.0,40668.0,47216.0,40046.0,0,0,0,40000
1314979,32677.0,40501.0,46973.0,39849.0,0,0,0,40000
1314989,33395.0,39745.0,46183.0,40677.0,0,0,0,40000
1314999,34615.0,39905.0,45467.0,40013.0,0,0,0,40000
1315009,33408.0,39762.0,46364.0,40466.0,0,0,0,40000
1315019,33682.0,38908.0,45532.0,41878.0,0,0,0,40000
1315029,34496.0,39334.0,45614.0,40556.0,0,0,0,40000
1315039,33065.0,39835.0,46789.0,40311.0,0,0,0,40000
1315049,33357.0,40023.0,46179.0,40441.0,0,0,0,40000
1315059,34474.0,39314.0,45278.0,40934.0,0,0,0,40000
1315069,34095.0,41091.0,45435.0,39379.0,0,0,0,40000
1315079,34742.0,39446.0,45261.0,39917.0,0,0,0,40000
1315089,33522.0,39654.0,46128.0,40696.0,0,0,0,40000
1315099,33044.0,41384.0,46854.0,38718.0,0,0,0,40000
1315109,33998.0,40382.0,45912.0,39708.0,0,0,0,40000
1315119,33578.0,41482.0,45860.0,39080.0,0,0,0,40000
1315129,33665.0,41217.0,46437.0,38681.0,0,0,0,40000
1315139,34765.0,40257.0,45063.0,39915.0,0,0,0,40000
1315149,34697.0,39669.0,45113.0,40521.0,0,0,0,40000
1315159,34928.0,39138.0,44762.0,41172.0,0,0,0,40000
1315169,35925.0,39879.0,44149.0,40047.0,0,0,0,40000
1315179,36559.0,39175.0,43043.0,41223.0,0,0,0,40000
1315189,35446.0,40114.0,44160.0,40280.0,0,0,0,40000
1315199,34374.0,40634.0,45194.0,39798.0,0,0,0,40000
1315209,34686.0,40104.0,45486.0,39724.0,0,0,0,40000
1315219,33978.0,41242.0,45318.0,39462.0,0,0,0,40000
1315229,32992.0,41686.0,46648.0,38674.0,0,0,0,40000
1315239,32429.0,41963.0,47351.0,38257.0,0,0,0,40000
1315249,32697.0,41513.0,46757.0,39033.0,0,0,0,40000
1315259,33790.0,41122.0,45968.0,39120.0,0,0,0,40000
1315269,32330.0,40824.0,47344.0,39502.0,0,0,0,40000
1315279,33589.0,40235.0,46279.0,39897.0,0,0,0,40000
1315289,33705.0,41355.0,45423.0,39517.0,0,0,0,40000
1315299,34070.0,40042.0,46138.0,39750.0,0,0,0,40000
1315309,32274.0,39948.0,47170.0,40608.0,0,0,0,40000
1315319,34052.0,38412.0,45824.0,41712.0,0,0,0,40000
1315329,35102.0,38226.0,44702.0,41970.0,0,0,0,40000
1315339,34130.0,39196.0,45392.0,41282.0,0,0,0,40000
1315349,34594.0,38900.0,45292.0,41214.0,0,0,0,40000
1315359,35019.0,38887.0,44485.0,41609.0,0,0,0,40000
1315369,35238.0,38382.0,44640.0,41740.0,0,0,0,40000
1315379,33810.0,39414.0,45720.0,41056.0,0,0,0,40000
1315389,34901.0,38377.0,44759.0,41963.0,0,0,0,40000
1315399,35071.0,37969.0,44977.0,41983.0,0,0,0,40000
1315409,34395.0,38393.0,45043.0,42169.0,0,0,0,40000
1315419,34498.0,38568.0,44964.0,41970.0,0,0,0,40000
1315429,33995.0,39605.0,46179.0,40221.0,0,0,0,40000
1315439,34148.0,39552.0,45092.0,41208.0,0,0,0,40000
1315449,33458.0,40366.0,46104.0,40072.0,0,0,0,40000
1315459,33140.0,39626.0,46926.0,40308.0,0,0,0,40000
1315469,33063.0,40051.0,47033.0,39853.0,0,0,0,40000
1315479,31876.0,41216.0,47408.0,39500.0,0,0,0,40000
1315489,31644.0,41100.0,48296.0,38960.0,0,0,0,40000
1315499,31828.0,41766.0,47826.0,38580.0,0,0,0,40000
1315509,33300.0,41402.0,46542.0,38756.0,0,0,0,40000
1315519,33426.0,40540.0,46606.0,39428.0,0,0,0,40000
1315529,33238.0,40872.0,46128.0,39762.0,0,0,0,40000
1315539,34311.0,39491.0,45319.0,40879.0,0,0,0,40000
1315549,34470.0,39510.0,45526.0,40494.0,0,0,0,40000
1315559,33995.0,40383.0,45485.0,40137.0,0,0,0,40000
1315569,34951.0,40605.0,44695.0,39749.0,0,0,0,40000
1315579,34943.0,41697.0,45217.0,38143.0,0,0,0,40000
1315589,33866.0,41830.0,45438.0,38866.0,0,0,0,40000
1315599,34752.0,40688.0,45576.0,38984.0,0,0,0,40000
1315609,33923.0,40581.0,45471.0,40025.0,0,0,0,40000
1315619,35003.0,41349.0,44731.0,38917.0,0,0,0,40000
1315629,34957.0,41235.0,45335.0,38473.0,0,0,0,40000
1315639,34630.0,40604.0,44670.0,40096.0,0,0,0,40000
1315649,34359.0,40507.0,45281.0,39853.0,0,0,0,40000
1315659,33753.0,41727.0,45823.0,38697.0,0,0,0,40000
1315669,34972.0,39704.0,45278.0,40046.0,0,0,0,40000
1315679,34846.0,41738.0,44518.0,38898.0,0,0,0,40000
1315689,35571.0,39411.0,44403.0,40615.0,0,0,0,40000
1315699,35154.0,39862.0,44472.0,40512.0,0,0,0,40000
1315709,34556.0,39212.0,45354.0,40878.0,0,0,0,40000
1315719,35078.0,39746.0,44756.0,40420.0,0,0,0,40000
1315729,35374.0,39408.0,44224.0,40994.0,0,0,0,40000
1315739,34181.0,39429.0,45813.0,40577.0,0,0,0,40000
1315749,33686.0,40022.0,45866.0,40426.0,0,0,0,40000
1315759,33043.0,39791.0,46563.0,40603.0,0,0,0,40000
1315769,33281.0,39061.0,46615.0,41043.0,0,0,0,40000
1315779,32248.0,40584.0,47072.0,40096.0,0,0,0,40000
1315789,32389.0,41051.0,47663.0,38897.0,0,0,0,40000
1315799,33760.0,39996.0,45714.0,40530.0,0,0,0,40000
1315809,33138.0,39186.0,46416.0,41260.0,0,0,0,40000
1315819,32598.0,39700.0,47258.0,40444.0,0,0,0,40000
1315829,32927.0,39089.0,47253.0,40731.0,0,0,0,40000
1315839,34154.0,39106.0,45320.0,41420.0,0,0,0,40000
1315849,34071.0,39381.0,45447.0,41101.0,0,0,0,40000
1315859,34704.0,39616.0,45096.0,40584.0,0,0,0,40000
1315869,34662.0,39016.0,45192.0,41130.0,0,0,0,40000
1315879,34315.0,39015.0,45507.0,41163.0,0,0,0,40000
1315889,34410.0,38414.0,44580.0,42596.0,0,0,0,40000
1315899,34873.0,38619.0,45157.0,41351.0,0,0,0,40000
1315909,35591.0,38189.0,44287.0,41933.0,0,0,0,40000
1315919,34477.0,40355.0,44845.0,40323.0,0,0,0,40000
1315929,34345.0,39185.0,45089.0,41381.0,0,0,0,40000
1315939,34552.0,39570.0,45322.0,40556.0,0,0,0,40000
1315949,34119.0,39365.0,46007.0,40509.0,0,0,0,40000
1315959,33993.0,40581.0,45559.0,39867.0,0,0,0,40000
1315969,34514.0,40752.0,44954.0,39780.0,0,0,0,40000
1315979,34047.0,40397.0,46105.0,39451.0,0,0,0,40000
1315989,33447.0,40411.0,46385.0,39757.0,0,0,0,40000
1315999,33956.0,39760.0,45902.0,40382.0,0,0,0,40000
1316009,34944.0,39866.0,44612.0,40578.0,0,0,0,40000
1316019,35241.0,39279.0,44603.0,40877.0,0,0,0,40000
1316029,34330.0,40756.0,45534.0,39380.0,0,0,0,40000
1316039,34834.0,39108.0,45054.0,41004.0,0,0,0,40000
1316049,35475.0,39937.0,43813.0,40775.0,0,0,0,40000
1316059,34177.0,40875.0,45683.0,39265.0,0,0,0,40000
1316069,33334.0,40590.0,46352.0,39724.0,0,0,0,40000
1316079,34352.0,39608.0,45492.0,40548.0,0,0,0,40000
1316089,34590.0,38504.0,44394.0,42512.0,0,0,0,40000
1316099,34709.0,38597.0,45629.0,41065.0,0,0,0,40000
1316109,34101.0,38909.0,45185.0,41805.0,0,0,0,40000
1316119,34487.0,39463.0,45589.0,40461.0,0,0,0,40000
1316129,34333.0,40037.0,45215.0,40415.0,0,0,0,40000
1316139,33268.0,38996.0,47104.0,40632.0,0,0,0,40000
1316149,32596.0,41156.0,46582.0,39666.0,0,0,0,40000
1316159,33038.0,39486.0,46910.0,40566.0,0,0,0,40000
1316169,33792.0,39744.0,46262.0,40202.0,0,0,0,40000
1316179,31709.0,39415.0,47553.0,41323.0,0,0,0,40000
1316189,31829.0,39197.0,48069.0,40905.0,0,0,0,40000
1316199,32685.0,39669.0,46787.0,40859.0,0,0,0,40000
1316209,34044.0,39846.0,45690.0,40420.0,0,0,0,40000
1316219,32628.0,40926.0,46788.0,39658.0,0,0,0,40000
1316229,32991.0,40357.0,46485.0,40167.0,0,0,0,40000
1316239,33416.0,39234.0,46764.0,40586.0,0,0,0,40000
1316249,33400.0,39226.0,46498.0,40876.0,0,0,0,40000
1316259,34345.0,38641.0,45285.0,41729.0,0,0,0,40000
1316269,34574.0,38852.0,45036.0,41538.0,0,0,0,40000
1316279,34351.0,38995.0,45571.0,41083.0,0,0,0,40000
1316289,34385.0,38627.0,45551.0,41437.0,0,0,0,40000
1316299,34082.0,39390.0,44878.0,41650.0,0,0,0,40000
1316309,34107.0,38715.0,45907.0,41271.0,0,0,0,40000
1316319,34059.0,39179.0,45409.0,41353.0,0,0,0,40000
1316329,34302.0,40456.0,46176.0,39066.0,0,0,0,40000
1316339,32854.0,42372.0,46728.0,38046.0,0,0,0,40000
1316349,32276.0,41660.0,46808.0,39256.0,0,0,0,40000
1316359,34144.0,40058.0,46706.0,39092.0,0,0,0,40000
1316369,32453.0,40819.0,46585.0,40143.0,0,0,0,40000
1316379,33073.0,40439.0,47293.0,39195.0,0,0,0,40000
1316389,35396.0,40438.0,43808.0,40358.0,0,0,0,40000
1316399,34636.0,39372.0,45520.0,40472.0,0,0,0,40000
1316409,34338.0,40918.0,45320.0,39424.0,0,0,0,40000
1316419,33702.0,39804.0,45774.0,40720.0,0,0,0,40000
1316429,35593.0,39955.0,44347.0,40105.0,0,0,0,40000
1316439,34997.0,39833.0,44639.0,40531.0,0,0,0,40000
1316449,34542.0,39166.0,45032.0,41260.0,0,0,0,40000
1316459,33596.0,40630.0,45836.0,39938.0,0,0,0,40000
1316469,34414.0,40550.0,45992.0,39044.0,0,0,0,40000
1316479,33889.0,40903.0,45713.0,39495.0,0,0,0,40000
1316489,34327.0,41405.0,45497.0,38771.0,0,0,0,40000
1316499,35150.0,42196.0,44248.0,38406.0,0,0,0,40000
1316509,33167.0,41913.0,46533.0,38387.0,0,0,0,40000
1316519,32739.0,41381.0,47291.0,38589.0,0,0,0,40000
1316529,32751.0,41981.0,46765.0,38503.0,0,0,0,40000
1316539,32713.0,39359.0,47287.0,40641.0,0,0,0,40000
1316549,33279.0,41221.0,46125.0,39375.0,0,0,0,40000
1316559,32756.0,41218.0,47602.0,38424.0,0,0,0,40000
1316569,33629.0,40707.0,45261.0,40403.0,0,0,0,40000
1316579,33003.0,40079.0,47257.0,39661.0,0,0,0,40000
1316589,32644.0,39528.0,46768.0,41060.0,0,0,0,40000
1316599,34785.0,38597.0,45371.0,41247.0,0,0,0,40000
1316609,34830.0,39428.0,44400.0,41342.0,0,0,0,40000
1316619,35156.0,38888.0,44862.0,41094.0,0,0,0,40000
1316629,34229.0,39169.0,45261.0,41341.0,0,0,0,40000
1316639,34646.0,38742.0,45566.0,41046.0,0,0,0,40000
1316649,32296.0,39480.0,47014.0,41210.0,0,0,0,40000
1316659,33388.0,39558.0,45968.0,41086.0,0,0,0,40000
1316669,34045.0,39385.0,45531.0,41039.0,0,0,0,40000
1316679,33492.0,39836.0,46148.0,40524.0,19.999999974815722,0.0010036788354023307,0,40000
1316689,19768.0,27466.0,59514.0,53252.0,19.99740564594129,0.3221295262397303,0,40000
1316699,20250.0,26984.0,59728.0,53038.0,19.989631216497948,0.6439284342306029,0,40000
1316709,19682.0,27552.0,60060.0,52706.0,19.97675026771256,0.9640792194867056,0,40000
1316719,20147.0,27087.0,60193.0,52573.0,19.95858284573386,1.2864566801793254,0,40000
1316729,20305.0,27365.0,59361.0,52969.0,19.95858284573386,1.2864566801793254,0,40000
1316739,18884.0,29010.0,60826.0,51280.0,19.906608125165867,1.9305317793499963,0,40000
1316749,22209.0,29843.0,57799.0,50149.0,19.906608125165867,1.9305317793499963,0,40000
1316759,22882.0,30786.0,57354.0,48978.0,19.872789317827202,2.25216445430903,0,40000
1316769,25140.0,33834.0,54632.0,46394.0,19.834059337612388,2.5710095667015356,0,40000
1316779,27362.0,34852.0,52270.0,45516.0,19.789868737136548,2.8915558730388606,0,40000
1316789,29943.0,38945.0,49807.0,41305.0,19.740565348032355,3.2109312885928043,0,40000
1316799,30620.0,38066.0,49518.0,41796.0,19.686023516237256,3.5299402428587534,0,40000
1316809,34252.0,39808.0,46104.0,39836.0,19.625897250457733,3.8502152036575272,0,40000
1316819,33181.0,40111.0,46795.0,39913.0,19.561866750187935,4.163336312128978,0,40000
1316829,38218.0,45550.0,42598.0,33634.0,19.491869994923402,4.479620977382435,0,40000
1316839,42018.0,45886.0,38640.0,33456.0,19.4176375173939,4.7911745160343395,0,40000
1316849,38491.0,45283.0,42669.0,33557.0,19.33825934970336,5.10212948910654,0,40000
1316859,40045.0,45863.0,40663.0,33429.0,19.241968573305012,5.45404853516562,0,40000
1316869,40262.0,47552.0,41614.0,30572.0,19.15177380956351,5.762773633183692,0,40000
1316879,43691.0,51407.0,36825.0,28077.0,19.05668065384717,6.069837103027314,0,40000
1316889,41715.0,49683.0,39941.0,28661.0,18.95674821318374,6.375084092147731,0,40000
1316899,43699.0,51579.0,37165.0,27557.0,18.851941729328857,6.678644550654672,0,40000
1316909,43331.0,48451.0,38301.0,29917.0,18.742047136839698,6.981093690853809,0,40000
1316919,43380.0,50122.0,36978.0,29520.0,18.62659419248724,7.283542324199175,0,40000
1316929,42181.0,48403.0,39883.0,29533.0,18.50414697242475,7.589238751212397,0,40000
1316939,43452.0,49686.0,37346.0,29516.0,18.379749985536524,7.8857333501184375,0,40000
1316949,40913.0,48311.0,40353.0,30423.0,18.248773195530084,8.184270087069628,0,40000
1316959,41059.0,47361.0,39619.0,31961.0,18.114852923957194,8.47656201200696,0,40000
1316969,39055.0,46117.0,42011.0,32817.0,17.97628418900572,8.766596075792643,0,40000
1316979,39032.0,43850.0,41294.0,35824.0,17.8313051219067,9.057845088621463,0,40000
1316989,37674.0,43724.0,42708.0,35894.0,17.68231820314224,9.345353014350215,0,40000
1316999,37604.0,41286.0,41978.0,39132.0,17.52427595820661,9.638451750183837,0,40000
1317009,35540.0,40880.0,44346.0,39234.0,17.36651606548951,9.919885067232117,0,40000
1317019,33832.0,39734.0,44822.0,41612.0,17.36651606548951,9.919885067232117,0,40000
1317029,31635.0,38671.0,47753.0,41941.0,17.03746483648392,10.474960235990105,0,40000
1317039,30682.0,36706.0,47340.0,45272.0,17.03746483648392,10.474960235990105,0,40000
1317049,30428.0,39240.0,48282.0,42050.0,16.864321828546046,10.751495210584682,0,40000
1317059,30783.0,36511.0,46731.0,45975.0,16.689196672820945,11.021375341394663,0,40000
1317069,29508.0,37354.0,49000.0,44138.0,16.509829112358105,11.288292283633199,0,40000
1317079,28574.0,36394.0,48802.0,46230.0,16.32587720956304,11.552737049646293,0,40000
1317089,28349.0,37167.0,49137.0,45347.0,16.138070491360153,11.813665003541052,0,40000
1317099,27213.0,36861.0,49797.0,46129.0,15.944873188889307,12.073152818971478,0,40000
1317109,28481.0,37781.0,49881.0,43857.0,15.748085729906133,12.328738615265017,0,40000
1317119,27834.0,35394.0,48708.0,48064.0,15.54384652850883,12.585262615383284,0,40000
1317129,26802.0,35996.0,51502.0,45700.0,15.33568884334263,12.838093616272486,0,40000
1317139,27650.0,38414.0,49924.0,44012.0,15.127574741888825,13.082678717623821,0,40000
1317149,27764.0,36574.0,50202.0,45460.0,14.909715650612455,13.330430571361227,0,40000
1317159,28761.0,36795.0,49103.0,45341.0,14.691017104148987,13.571072781678017,0,40000
1317169,30144.0,37578.0,48352.0,43926.0,14.468217876869144,13.808355132579845,0,40000
1317179,29950.0,37800.0,48474.0,43776.0,14.239167386267223,14.044433493233676,0,40000
1317189,30350.0,37562.0,48340.0,43748.0,14.011108633859877,14.271959741050885,0,40000
1317199,31031.0,39835.0,47615.0,41519.0,13.779496166138456,14.495705757477818,0,40000
1317209,33310.0,37998.0,46534.0,42158.0,13.534244645369446,14.724952355756145,0,40000
1317219,33838.0,40982.0,45390.0,39790.0,13.297073224723297,14.939472669955482,0,40000
1317229,34286.0,40426.0,45612.0,39676.0,13.051235982002643,15.154710137184397,0,40000
1317239,35942.0,41400.0,43410.0,39248.0,12.805874029018058,15.362603631966842,0,40000
1317249,34886.0,40856.0,45864.0,38394.0,12.556478141694217,15.567108166809767,0,40000
1317259,35106.0,41764.0,44444.0,38686.0,12.303692922534568,15.767661223782454,0,40000
1317269,36838.0,42646.0,43948.0,36568.0,12.045731940248935,15.96559870545626,0,40000
1317279,38331.0,42373.0,41483.0,37813.0,11.78761891030388,16.15710495186085,0,40000
1317289,37089.0,39439.0,43765.0,39707.0,11.524796815857417,16.345612816691908,0,40000
1317299,38007.0,42761.0,41599.0,37633.0,11.258025889600862,16.530482541930734,0,40000
1317309,37116.0,42732.0,43132.0,37020.0,10.990743231616014,16.709385482916087,0,40000
1317319,37352.0,43018.0,42774.0,36856.0,10.72029571149685,16.8841718736236,0,40000
1317329,36667.0,42643.0,42869.0,37821.0,10.441939883292077,17.0577223413243,0,40000
1317339,37838.0,43118.0,42068.0,36976.0,10.441939883292077,17.0577223413243,0,40000
1317349,35924.0,43396.0,43174.0,37506.0,9.885811689233158,17.38593475327171,0,40000
1317359,36065.0,43251.0,43409.0,37275.0,9.885811689233158,17.38593475327171,0,40000
1317369,34617.0,43891.0,44017.0,37475.0,9.59565224561473,17.5477479461391,0,40000
1317379,35570.0,45374.0,43200.0,35856.0,9.312000510902335,17.699905267683064,0,40000
1317389,34590.0,45046.0,43790.0,36574.0,9.022367291979922,17.849282575179622,0,40000
1317399,34756.0,43770.0,43412.0,38062.0,8.725728952732265,17.9961566520035,0,40000
1317409,34675.0,43937.0,42725.0,38663.0,8.432473991319302,18.135417899395744,0,40000
1317419,35214.0,42342.0,42600.0,39844.0,8.137606189967071,18.2696295938645,0,40000
1317429,34062.0,44880.0,42892.0,38166.0,7.841740014335274,18.3985628120126,0,40000
1317439,34089.0,42091.0,43107.0,40713.0,7.543394812714158,18.522883001830927,0,40000
1317449,32941.0,43373.0,43533.0,40153.0,7.243372782664825,18.642251761290815,0,40000
1317459,33388.0,38982.0,43592.0,44038.0,6.9422073247814895,18.75648574386338,0,40000
1317469,32392.0,39994.0,43536.0,44078.0,6.636372604063893,18.86686403883884,0,40000
1317479,31211.0,38955.0,45453.0,44381.0,6.331149915951375,18.971466488960438,0,40000
1317489,32035.0,42449.0,43615.0,41901.0,6.022693900146937,19.071632289479915,0,40000
1317499,31543.0,40293.0,45073.0,43091.0,5.708756418852189,19.167944598996886,0,40000
1317509,29579.0,42041.0,46209.0,42171.0,5.400874475588832,19.25696120624781,0,40000
1317519,29643.0,40657.0,46823.0,42877.0,5.090504654066015,19.341322663327144,0,40000
1317529,30287.0,42727.0,45931.0,41055.0,4.777480071273372,19.421011409516904,0,40000
1317539,30669.0,41629.0,45717.0,41985.0,4.46477179989459,19.49527667859233,0,40000
1317549,31075.0,42897.0,45649.0,40379.0,4.1508152295430545,19.56452741392425,0,40000
1317559,30659.0,40491.0,45755.0,43095.0,3.8354331897993865,19.62879141074624,0,40000
1317569,31099.0,41501.0,45427.0,41973.0,3.519205279741724,19.68794540319121,0,40000
1317579,31164.0,40734.0,45616.0,42486.0,3.2035528699846076,19.741764080477036,0,40000
1317589,32706.0,40550.0,44584.0,42160.0,2.876969365369804,19.791994524825526,0,40000
1317599,32163.0,41689.0,44481.0,41667.0,2.5576831650719085,19.83578223380938,0,40000
1317609,34093.0,40981.0,43087.0,41839.0,2.234130353799503,19.8748248184036,0,40000
1317619,33864.0,40498.0,42706.0,42932.0,1.9136973293080752,19.90823353619801,0,40000
1317629,32997.0,40699.0,44691.0,41613.0,1.593029053753468,19.936455513302693,0,40000
1317639,33729.0,40839.0,42905.0,42527.0,1.2721947597813994,19.959497000004404,0,40000
1317649,34841.0,41821.0,42223.0,41115.0,0.9505675313217389,19.977397762681626,0,40000
1317659,33840.0,41252.0,43606.0,41302.0,0.6209601765832216,19.99035788721897,0,40000
1317669,34111.0,42695.0,42967.0,40227.0,0.2914984592713368,19.997875603379537,0,40000
1317679,32815.0,42419.0,44451.0,40315.0,0.2914984592713368,19.997875603379537,0,40000
1317689,31922.0,43062.0,45022.0,39994.0,-0.351089794685412,19.996918161458474,0,40000
1317699,32816.0,43376.0,44812.0,38996.0,-0.351089794685412,19.996918161458474,0,40000
1317709,33617.0,43145.0,43615.0,39623.0,-0.6720311988112164,19.98870616292671,0,40000
1317719,33377.0,43137.0,44061.0,39425.0,-0.9972729930967996,19.975120689929252,0,40000
1317729,33400.0,44338.0,43388.0,38874.0,-1.3430269070130034,19.954856018699786,0,40000
1317739,34727.0,40737.0,42937.0,41599.0,-1.6635161551121311,19.930697780099948,0,40000
1317749,34697.0,44235.0,41945.0,39123.0,-1.9834267484458177,19.901407446046363,0,40000
1317759,34953.0,42271.0,41937.0,40839.0,-2.302007176493026,19.867077363300687,0,40000
1317769,36173.0,42559.0,40999.0,40269.0,-2.6201897903921956,19.82762228463929,0,40000
1317779,32109.0,41705.0,44231.0,41955.0,-2.9391733987757296,19.782852669216567,0,40000
1317789,32221.0,41819.0,44751.0,41209.0,-3.2713389823484857,19.730644724959376,0,40000
1317799,32066.0,41810.0,43826.0,42298.0,-3.596110956081231,19.674043458108773,0,40000
1317809,32574.0,41616.0,44150.0,41660.0,-3.9212719975759964,19.611823625584293,0,40000
1317819,31040.0,41374.0,45262.0,42324.0,-4.236150259788477,19.546228049843634,0,40000
1317829,32411.0,41099.0,43925.0,42565.0,-4.551041577189301,19.47531824034448,0,40000
1317839,32170.0,41614.0,44228.0,41988.0,-4.86307651065113,19.399754814212297,0,40000
1317849,32389.0,41791.0,44091.0,41729.0,-5.173084114716293,19.319399595796707,0,40000
1317859,32035.0,41595.0,44145.0,42225.0,-5.4826945379277685,19.233825948151267,0,40000
1317869,32554.0,41060.0,43798.0,42588.0,-5.790166576888876,19.143509892699377,0,40000
1317879,30730.0,40242.0,45344.0,43684.0,-6.097992517676372,19.047689814105095,0,40000
1317889,33190.0,40976.0,43096.0,42738.0,-6.408618925970133,18.94543753682394,0,40000
1317899,31781.0,40951.0,44701.0,42567.0,-6.710462330041901,18.840639461469685,0,40000
1317909,32185.0,41621.0,44035.0,42159.0,-7.014647471396952,18.729514698785557,0,40000
1317919,32217.0,39963.0,44203.0,43617.0,-7.315027590687478,18.614251834212435,0,40000
1317929,31596.0,41572.0,44788.0,42044.0,-7.612454974550886,18.494608113188974,0,40000
1317939,31310.0,41264.0,45056.0,42370.0,-7.910065938430126,18.36929113628742,0,40000
1317949,33202.0,41474.0,43382.0,41942.0,-8.20438526954309,18.239738549357124,0,40000
1317959,31127.0,41645.0,45297.0,41931.0,-8.496949760346054,18.10529880366947,0,40000
1317969,32162.0,40784.0,45104.0,41950.0,-8.496949760346054,18.10529880366947,0,40000
1317979,33028.0,41348.0,44138.0,41486.0,-8.791510412490283,17.96411268799756,0,40000
1317989,32452.0,42732.0,44218.0,40598.0,-9.084406581358218,17.817787659094368,0,40000
1317999,33213.0,41805.0,43993.0,40989.0,-9.378037204075389,17.66500546841064,0,40000
1318009,32507.0,41801.0,44815.0,40877.0,-9.660475998968156,17.51214445672946,0,40000
1318019,33164.0,41166.0,44650.0,41020.0,-9.942770106884286,17.3534239446182,0,40000
1318029,34052.0,42516.0,42832.0,40600.0,-10.220622325987938,17.191244261818774,0,40000
1318039,35913.0,42101.0,41147.0,40839.0,-10.500910929762703,17.021482592453285,0,40000
1318049,36206.0,42096.0,41378.0,40320.0,-10.77346508192733,16.85029525345157,0,40000
1318059,35097.0,40581.0,42665.0,41657.0,-11.042866950997452,16.674983943097764,0,40000
1318069,35884.0,42986.0,41490.0,39640.0,-11.309459927706172,16.495336193712703,0,40000
1318079,36535.0,42475.0,40757.0,40233.0,-11.576936392851657,16.308726000392145,0,40000
1318089,37434.0,42120.0,40362.0,40084.0,-11.837875319774106,16.120319721192974,0,40000
1318099,35241.0,41787.0,42347.0,40625.0,-12.095838125406988,15.927670892002721,0,40000
1318109,36285.0,41363.0,41439.0,40913.0,-12.359124507780344,15.724250106163513,0,40000
1318119,33903.0,42025.0,43409.0,40663.0,-12.610463825671694,15.523408198634268,0,40000
1318129,35181.0,41277.0,43031.0,40511.0,-12.862589709664308,15.315148904298574,0,40000
1318139,34185.0,41477.0,43489.0,40849.0,-13.11092046161747,15.103104470576252,0,40000
1318149,35932.0,41468.0,41400.0,41200.0,-13.352360432708748,14.890079612783602,0,40000
1318159,34475.0,41015.0,42855.0,41655.0,-13.591037587573457,14.672549106858204,0,40000
1318169,34172.0,41538.0,43220.0,41070.0,-13.827021016330463,14.450380265375568,0,40000
1318179,33110.0,41358.0,44296.0,41236.0,-14.063000549168233,14.220830339825238,0,40000
1318189,34408.0,41338.0,42854.0,41400.0,-14.28900799663742,13.993721823447538,0,40000
1318199,34300.0,41376.0,43304.0,41020.0,-14.518109007496253,13.755890041958613,0,40000
1318209,33294.0,42344.0,43796.0,40566.0,-14.737612510831413,13.520457739314356,0,40000
1318219,31463.0,41917.0,46237.0,40383.0,-14.953174247046668,13.281663297097255,0,40000
1318229,32245.0,42887.0,44921.0,39947.0,-15.164769568814629,13.039546154861132,0,40000
1318239,31956.0,43104.0,45670.0,39270.0,-15.375223738938924,12.790719095405425,0,40000
1318249,33004.0,43300.0,44350.0,39346.0,-15.579421193065826,12.541197522128876,0,40000
1318259,32633.0,41259.0,45263.0,40845.0,-15.779947013111356,12.287931976675246,0,40000
1318269,34132.0,42064.0,42964.0,40840.0,-15.976315527172119,12.031514542078197,0,40000
1318279,32609.0,40791.0,45433.0,41167.0,-16.168098962832577,11.772534813201963,0,40000
1318289,33509.0,42331.0,43617.0,40543.0,-16.168098962832577,11.772534813201963,0,40000
1318299,33610.0,40854.0,43898.0,41638.0,-16.356288184056986,11.509641038715232,0,40000
1318309,33055.0,42493.0,44795.0,39657.0,-16.541112658513274,11.2424015236235,0,40000
1318319,32756.0,40134.0,44574.0,42536.0,-16.893969016651727,10.704849875846529,0,40000
1318329,34266.0,39802.0,43772.0,42160.0,-16.893969016651727,10.704849875846529,0,40000
1318339,32958.0,41242.0,44082.0,41718.0,-17.06308931222788,10.433167453987053,0,40000
1318349,34369.0,39941.0,43857.0,41833.0,-17.2295298826119,10.155948996730126,0,40000
1318359,33268.0,40292.0,44100.0,42340.0,-17.39027218099128,9.878179663836894,0,40000
1318369,34970.0,39554.0,43438.0,42038.0,-17.548071363699936,9.595060782219894,0,40000
1318379,35704.0,39742.0,41784.0,42770.0,-17.70376779360832,9.304655066685532,0,40000
1318389,34646.0,40342.0,43684.0,41328.0,-17.851839715394398,9.017306625365869,0,40000
1318399,35455.0,41235.0,42063.0,41247.0,-17.997904588815818,8.722123044986382,0,40000
1318409,33425.0,41025.0,44899.0,40651.0,-18.140243539640643,8.422087883804464,0,40000
1318419,33676.0,42626.0,43984.0,39714.0,-18.273360969742335,8.129223755654499,0,40000
1318429,31013.0,41691.0,47365.0,39931.0,-18.402076296952202,7.833491428548953,0,40000
1318439,31316.0,42448.0,46952.0,39284.0,-18.52566159753878,7.536568341989399,0,40000
1318449,32536.0,41646.0,45980.0,39838.0,-18.64616345635897,7.233297198286776,0,40000
1318459,32518.0,41768.0,45896.0,39818.0,-18.760478690953658,6.931409617550654,0,40000
1318469,32687.0,41799.0,46135.0,39379.0,-18.870043142238693,6.627327652232874,0,40000
1318479,32549.0,41501.0,45947.0,40003.0,-18.97726523506479,6.313747239001678,0,40000
1318489,33100.0,40472.0,45726.0,40702.0,-19.076403525527354,6.00756427608124,0,40000
1318499,33928.0,39812.0,44274.0,41986.0,-19.170747300899905,5.69933749878343,0,40000
1318509,33695.0,39451.0,45045.0,41809.0,-19.259834705663586,5.390618434884478,0,40000
1318519,34554.0,40250.0,43932.0,41264.0,-19.344359968007517,5.0789504258407785,0,40000
1318529,34414.0,40910.0,44380.0,40296.0,-19.424903608984884,4.761629950095449,0,40000
1318539,33710.0,41296.0,44464.0,40530.0,-19.498885342919532,4.448985320685817,0,40000
1318549,34225.0,39947.0,44701.0,41127.0,-19.569449149567976,4.127548907338731,0,40000
1318559,34028.0,40988.0,44756.0,40228.0,-19.6333909142792,3.811818622009574,0,40000
1318569,34987.0,40669.0,44065.0,40279.0,-19.692253480415108,3.4950182922381194,0,40000
1318579,33864.0,42134.0,44874.0,39128.0,-19.746056919235322,3.1769853859152244,0,40000
1318589,32718.0,41350.0,46798.0,39134.0,-19.794501720679058,2.8596680978802125,0,40000
1318599,33142.0,41240.0,46040.0,39578.0,-19.837903753464225,2.541175843638135,0,40000
1318609,33518.0,42214.0,45500.0,38768.0,-19.876357959804995,2.220449110809932,0,40000
1318619,33991.0,40583.0,44925.0,40501.0,-19.909582387547427,1.899612895687237,0,40000
1318629,32641.0,42025.0,46437.0,38897.0,-19.909582387547427,1.899612895687237,0,40000
1318639,33556.0,40576.0,45622.0,40246.0,-19.93874341754309,1.5641326444333747,0,40000
1318649,34621.0,39607.0,44357.0,41415.0,-19.961378061102106,1.2423308342593553,0,40000
1318659,34629.0,38857.0,44395.0,42119.0,-19.978925671294117,0.9178937960923939,0,40000
1318669,34815.0,39325.0,44117.0,41743.0,-19.991029702724646,0.5989419210415856,0,40000
1318679,35791.0,38549.0,43255.0,42405.0,-19.998084703910386,0.2767818188129674,0,40000
1318689,35365.0,38107.0,43683.0,42845.0,-19.99995082890395,-0.04434908594546373,0,40000
1318699,35741.0,38279.0,43225.0,42755.0,-19.996642173721362,-0.3664720673505378,0,40000
1318709,36078.0,37926.0,43006.0,42990.0,-19.988157797323677,-0.6881481448705556,0,40000
1318719,34852.0,38874.0,44312.0,41962.0,-19.974550888415,-1.0086212401687482,0,40000
1318729,33652.0,39856.0,45706.0,40786.0,-19.955468562018105,-1.3338944749518369,0,40000
1318739,34522.0,39344.0,44900.0,41234.0,-19.930988415572187,-1.6600303546403337,0,40000
1318749,33248.0,41212.0,45894.0,39646.0,-19.90163609828504,-1.981131144431831,0,40000
1318759,34031.0,40157.0,45691.0,40121.0,-19.866834998169452,-2.304097904931407,0,40000
1318769,33250.0,41936.0,45662.0,39152.0,-19.827228567976057,-2.6231674199780035,0,40000
1318779,35137.0,40065.0,44461.0,40337.0,-19.78260272950068,-2.9408551896943624,0,40000
1318789,32520.0,42056.0,46190.0,39234.0,-19.73303214448341,-3.2569068738274543,0,40000
1318799,33585.0,40327.0,45867.0,40221.0,-19.678400531453445,-3.572191557530573,0,40000
1318809,33794.0,41096.0,45828.0,39282.0,-19.618504688373644,-3.8877080384541967,0,40000
1318819,33902.0,39966.0,45172.0,40960.0,-19.55371238692741,-4.201467825572587,0,40000
1318829,32919.0,41353.0,46511.0,39217.0,-19.483684336538875,-4.515090771414199,0,40000
1318839,34829.0,39519.0,44855.0,40797.0,-19.40889757525262,-4.826457801882555,0,40000
1318849,33457.0,41043.0,46165.0,39335.0,-19.328798535446428,-5.137854335821915,0,40000
1318859,34048.0,40716.0,45152.0,40084.0,-19.243552802407798,-5.4484562530080884,0,40000
1318869,34098.0,41470.0,45664.0,38768.0,-19.15353616182027,-5.756913452349548,0,40000
1318879,35036.0,39218.0,44624.0,41122.0,-19.05418307281768,-6.077672862827363,0,40000
1318889,33932.0,40586.0,44916.0,40566.0,-18.954065358729512,-6.383056194097775,0,40000
1318899,35462.0,39080.0,44160.0,41298.0,-18.849384122828262,-6.685859570023121,0,40000
1318909,34179.0,40497.0,44545.0,40779.0,-18.738931440414884,-6.989452658930495,0,40000
1318919,35185.0,40471.0,44637.0,39707.0,-18.623796888950125,-7.290691972586121,0,40000
1318929,34964.0,41528.0,44308.0,39200.0,-18.503257229419106,-7.591407768125066,0,40000
1318939,34212.0,40270.0,45060.0,40458.0,-18.374468389699643,-7.898032121733147,0,40000
1318949,35234.0,39892.0,44294.0,40580.0,-18.374468389699643,-7.898032121733147,0,40000
1318959,35079.0,40797.0,44149.0,39975.0,-18.244056096087434,-8.19477987274917,0,40000
1318969,35639.0,41489.0,44105.0,38767.0,-18.109935704465922,-8.48706243526642,0,40000
1318979,34304.0,41810.0,44974.0,38912.0,-17.824695716919926,-9.07084464640512,0,40000
1318989,34668.0,42116.0,44048.0,39168.0,-17.824695716919926,-9.07084464640512,0,40000
1318999,35176.0,40282.0,44326.0,40216.0,-17.675355501075593,-9.358515262080667,0,40000
1319009,34265.0,39597.0,44669.0,41469.0,-17.519169430869027,-9.647730430132476,0,40000
1319019,34118.0,39098.0,45364.0,41420.0,-17.36039776651794,-9.930588572097768,0,40000
1319029,34581.0,40265.0,44613.0,40541.0,-17.19853929107877,-10.208341993351306,0,40000
1319039,34070.0,39434.0,45340.0,41156.0,-17.031848654035144,-10.484089441913458,0,40000
1319049,34543.0,38945.0,44365.0,42147.0,-16.857046093702813,-10.762899098048758,0,40000
1319059,35361.0,40155.0,44167.0,40317.0,-16.680482263965366,-11.034559866235574,0,40000
1319069,34788.0,40256.0,44104.0,40852.0,-16.495941842586166,-11.30857651192293,0,40000
1319079,34416.0,38816.0,44692.0,42076.0,-16.31166937537712,-11.572788868219453,0,40000
1319089,34462.0,40070.0,44384.0,41084.0,-16.12346241044696,-11.83359454683588,0,40000
1319099,35196.0,40620.0,43636.0,40548.0,-15.928173705619773,-12.095175997214875,0,40000
1319109,34549.0,42013.0,44385.0,39053.0,-15.731592883348833,-12.34977673290365,0,40000
1319119,32978.0,40950.0,45388.0,40684.0,-15.52782769886999,-12.605021497570164,0,40000
1319129,34412.0,42306.0,45196.0,38086.0,-15.318135112173541,-12.859033271797538,0,40000
1319139,33627.0,41789.0,44577.0,40007.0,-15.109157052735531,-13.103944946304228,0,40000
1319149,34208.0,41090.0,45494.0,39208.0,-14.897208277403383,-13.344406526318963,0,40000
1319159,33241.0,41461.0,45359.0,39939.0,-14.680079962519521,-13.58290294061004,0,40000
1319169,33998.0,42736.0,44744.0,38522.0,-14.459123550577253,-13.817877772984614,0,40000
1319179,34776.0,41686.0,43962.0,39576.0,-14.234206564475421,-14.049461323475887,0,40000
1319189,33098.0,42496.0,45520.0,38886.0,-13.997659873571848,-14.285150263955803,0,40000
1319199,32256.0,41672.0,46150.0,39922.0,-13.76636381586308,-14.508177945189935,0,40000
1319209,32535.0,42819.0,45819.0,38827.0,-13.525821641350596,-14.732689806222481,0,40000
1319219,33350.0,41596.0,45652.0,39402.0,-13.286797776917345,-14.94861213742949,0,40000
1319229,32398.0,43214.0,46020.0,38368.0,-13.0434417330604,-15.16141905483317,0,40000
1319239,34080.0,40944.0,44594.0,40382.0,-12.789348609812725,-15.376363748841316,0,40000
1319249,33183.0,40739.0,44997.0,41081.0,-12.789348609812725,-15.376363748841316,0,40000
1319259,33639.0,40433.0,45257.0,40671.0,-12.533161606901938,-15.585886568792908,0,40000
1319269,33694.0,41032.0,44440.0,40834.0,-12.277622837787192,-15.787969389793178,0,40000
1319279,34048.0,39340.0,44544.0,42068.0,-12.020981422548079,-15.98424241679142,0,40000
1319289,32332.0,41036.0,45470.0,41162.0,-11.763123246378184,-16.17494765031767,0,40000
1319299,34046.0,40466.0,44448.0,41040.0,-11.500867603713601,-16.362458383808068,0,40000
1319309,34498.0,41230.0,43458.0,40814.0,-11.237017679345856,-16.54477058390562,0,40000
1319319,33273.0,38879.0,44843.0,43005.0,-10.962266908917336,-16.728081307121148,0,40000
1319329,32249.0,39265.0,45969.0,42517.0,-10.67969488859006,-16.90988223160124,0,40000
1319339,32168.0,38092.0,45554.0,44186.0,-10.407607561771005,-17.078691543562904,0,40000
1319349,34305.0,38623.0,43877.0,43195.0,-10.130366245858175,-17.244584069347027,0,40000
1319359,33404.0,41484.0,44756.0,40356.0,-9.851054969713484,-17.405651840240953,0,40000
1319369,33397.0,42333.0,44031.0,40239.0,-9.56140831578182,-17.56643022981329,0,40000
1319379,32628.0,41612.0,45120.0,40640.0,-9.278442392121,-17.71751976931568,0,40000
1319389,31711.0,42275.0,45997.0,40017.0,-8.9841838508251,-17.86853213150351,0,40000
1319399,32648.0,41506.0,45194.0,40652.0,-8.69492930824155,-18.011057834693723,0,40000
1319409,33725.0,42215.0,44063.0,39997.0,-8.403489246117367,-18.14886686518995,0,40000
1319419,32108.0,41290.0,45370.0,41232.0,-8.10773639024527,-18.28290487385122,0,40000
1319429,32810.0,42212.0,44732.0,40246.0,-7.804309002101197,-18.41447151019334,0,40000
1319439,32604.0,41132.0,44290.0,41974.0,-7.50239288182955,-18.53952806968595,0,40000
1319449,33283.0,41773.0,44673.0,40271.0,-7.203973136233625,-18.657512456177653,0,40000
1319459,33296.0,40660.0,43512.0,42532.0,-6.903424662677958,-18.77079454702783,0,40000
1319469,33700.0,40768.0,43854.0,41678.0,-6.600431135346558,-18.879467916960685,0,40000
1319479,32540.0,40846.0,44250.0,42364.0,-6.293630549315898,-18.983946231190124,0,40000
1319489,34378.0,40828.0,43290.0,41504.0,-5.987457032115744,-19.082724079349042,0,40000
1319499,33514.0,40104.0,43080.0,43302.0,-5.680818707489768,-19.17624308389509,0,40000
1319509,33774.0,40358.0,43626.0,42242.0,-5.370505813747939,-19.265452688802817,0,40000
1319519,33801.0,39621.0,42903.0,43675.0,-5.05117665541949,-19.351630794218487,0,40000
1319529,34735.0,40039.0,42419.0,42807.0,-4.739584357453778,-19.430294390939615,0,40000
1319539,33123.0,39833.0,43869.0,43175.0,-4.739584357453778,-19.430294390939615,0,40000
1319549,32802.0,43136.0,43870.0,40192.0,-4.1064759421693005,-19.573881969001057,0,40000
1319559,33715.0,41089.0,43539.0,41657.0,-4.1064759421693005,-19.573881969001057,0,40000
1319569,32840.0,42434.0,43466.0,41260.0,-3.7919345837430702,-19.63724094959914,0,40000
1319579,32707.0,41893.0,44791.0,40609.0,-3.4746617397713866,-19.695855548672387,0,40000
1319589,33219.0,42269.0,43493.0,41019.0,-3.157283429204383,-19.749216727446974,0,40000
1319599,34024.0,40822.0,43228.0,41926.0,-2.839228439877473,-19.79744382151875,0,40000
1319609,32929.0,41117.0,43623.0,42331.0,-2.5208178590967956,-19.840500934231944,0,40000
1319619,34553.0,40433.0,42567.0,42447.0,-2.201101532918666,-19.878509804353623,0,40000
1319629,34950.0,39792.0,41542.0,43716.0,-1.8804717538148314,-19.911399397910348,0,40000
1319639,32641.0,38989.0,44167.0,44203.0,-1.5608843918896613,-19.938997966677142,0,40000
1319649,31943.0,39467.0,44583.0,44007.0,-1.2362829551422383,-19.96175354158108,0,40000
1319659,33350.0,38534.0,43122.0,44994.0,-0.9146838998324919,-19.979072885481628,0,40000
1319669,34133.0,39983.0,42813.0,43071.0,-0.5947193631568366,-19.991155766465486,0,40000
1319679,31685.0,39777.0,44787.0,43751.0,-0.27323931728028383,-19.998133419784264,0,40000
1319689,31021.0,40611.0,45739.0,42629.0,0.04879821736905789,-19.999940468260938,0,40000
1319699,30971.0,39741.0,45653.0,43635.0,0.3711226537632401,-19.996556402937575,0,40000
1319709,31508.0,43030.0,45000.0,40462.0,0.6999829240728874,-19.987746844154454,0,40000
1319719,31808.0,42242.0,45430.0,40520.0,1.025332567269198,-19.973700035959716,0,40000
1319729,32253.0,43749.0,44171.0,39827.0,1.3576142992774651,-19.953868883361878,0,40000
1319739,30928.0,42316.0,46018.0,40738.0,1.679518832779584,-19.929355646641934,0,40000
1319749,31016.0,43698.0,45336.0,39950.0,1.9996293829367136,-19.89978598706268,0,40000
1319759,31512.0,41870.0,45534.0,41084.0,2.3198631084754875,-19.86500025567416,0,40000
1319769,31853.0,42337.0,44487.0,41323.0,2.6389679140443123,-19.82513173597201,0,40000
1319779,31911.0,42357.0,44657.0,41075.0,2.95802009331896,-19.78004340560256,0,40000
1319789,33332.0,41990.0,43484.0,41194.0,3.275026168499285,-19.730033035847782,0,40000
1319799,32726.0,41626.0,43730.0,41918.0,3.592191072795541,-19.674759548633066,0,40000
1319809,33101.0,39591.0,43885.0,43423.0,3.917555475703481,-19.612566356670044,0,40000
1319819,31980.0,39232.0,44260.0,44528.0,4.233807765443927,-19.54673557925381,0,40000
1319829,32709.0,40525.0,44157.0,42609.0,4.547701021508456,-19.47609856770526,0,40000
1319839,32835.0,39603.0,43851.0,43711.0,4.859610863735369,-19.40062324393382,0,40000
1319849,32884.0,40448.0,44420.0,42248.0,5.1711884540729525,-19.31990709016124,0,40000
1319859,31785.0,40425.0,44981.0,42809.0,5.481390745589787,-19.23419755264468,0,40000
1319869,32350.0,39644.0,44828.0,43178.0,5.799299706337351,-19.140745098247233,0,40000
1319879,30759.0,41213.0,45969.0,42059.0,6.1069015838763665,-19.044835337824487,0,40000
1319889,31375.0,41301.0,45603.0,41721.0,6.41272689579046,-18.94404744926505,0,40000
1319899,30517.0,40423.0,46259.0,42801.0,6.721616613069856,-18.8366629238542,0,40000
1319909,31353.0,41301.0,45851.0,41495.0,6.721616613069856,-18.8366629238542,0,40000
1319919,30890.0,41314.0,45480.0,42316.0,7.022110166621328,-18.726718046893144,0,40000
1319929,31781.0,41217.0,45041.0,41961.0,7.321370928766449,-18.61175778166623,0,40000
1319939,30565.0,41445.0,45693.0,42297.0,7.618771371386397,-18.492006997363564,0,40000
1319949,33417.0,42533.0,43455.0,40595.0,7.9141796383512695,-18.36751917521542,0,40000
1319959,30458.0,40636.0,45534.0,43372.0,8.207056067492518,-18.23853696723052,0,40000
1319969,32441.0,41409.0,44717.0,41433.0,8.499261862574262,-18.104213536947434,0,40000
1319979,30421.0,41153.0,45693.0,42733.0,8.78873850102822,-17.965468976916362,0,40000
1319989,32596.0,40612.0,43956.0,42836.0,9.076224664979733,-17.821956846284124,0,40000
1319999,31488.0,39774.0,45086.0,43652.0,9.365941565002988,-17.671421521794713,0,40000
1320009,32681.0,40737.0,43275.0,43307.0,9.656206179711175,-17.514499199660484,0,40000
1320019,30429.0,39913.0,46099.0,43559.0,9.94201621591119,-17.353855870167845,0,40000
1320029,31016.0,40384.0,45166.0,43434.0,10.219856165063979,-17.191699740438807,0,40000
1320039,30284.0,41386.0,45794.0,42536.0,10.495032862869584,-17.025107494735167,0,40000
1320049,32143.0,40479.0,44051.0,43327.0,10.767324197748348,-16.854219935095866,0,40000
1320059,32463.0,41997.0,44157.0,41383.0,11.043872359611335,-16.674318076149703,0,40000
1320069,32498.0,41628.0,43716.0,42158.0,11.320743790022172,-16.487594125301438,0,40000
1320079,32447.0,40071.0,44399.0,43083.0,11.584948340083665,-16.3030356669423,0,40000
1320089,32393.0,41385.0,43767.0,42455.0,11.851382353448159,-16.11039218369241,0,40000
1320099,32256.0,41040.0,44664.0,42040.0,12.109451853947723,-15.917323135405717,0,40000
1320109,33282.0,40648.0,43606.0,42464.0,12.364706351126479,-15.719861222364926,0,40000
1320119,32431.0,40849.0,44401.0,42319.0,12.616753132939616,-15.518296954964432,0,40000
1320129,32202.0,41578.0,44454.0,41766.0,12.866248674982558,-15.312075138057207,0,40000
1320139,32367.0,41025.0,44451.0,42157.0,13.112357081865154,-15.101857228753712,0,40000
1320149,32173.0,41389.0,44827.0,41611.0,13.354540677379136,-14.88812423699594,0,40000
1320159,31340.0,40412.0,45790.0,42458.0,13.595097851881004,-14.66878707997974,0,40000
1320169,33011.0,40695.0,43913.0,42381.0,13.834460365077001,-14.443258164524844,0,40000
1320179,32319.0,41153.0,44775.0,41753.0,14.065860219846414,-14.218001838364708,0,40000
1320189,32480.0,42400.0,44388.0,40732.0,14.292885600771257,-13.989761299009562,0,40000
1320199,32566.0,40516.0,44610.0,42308.0,14.515594746429954,-13.758543133537618,0,40000
1320209,32345.0,40269.0,44481.0,42905.0,14.738022648072828,-13.520010666596843,0,40000
1320219,32797.0,40195.0,44641.0,42367.0,14.738022648072828,-13.520010666596843,0,40000
1320229,33788.0,40130.0,43486.0,42596.0,15.171052745033567,-13.032235364948315,0,40000
1320239,33532.0,39846.0,43310.0,43312.0,15.171052745033567,-13.032235364948315,0,40000
1320249,34363.0,38227.0,42723.0,44687.0,15.379361679039558,-12.785743402136989,0,40000
1320259,33210.0,39436.0,43840.0,43514.0,15.58506982196484,-12.534177222477778,0,40000
1320269,33861.0,40531.0,43165.0,42443.0,15.78358183676346,-12.283262775101353,0,40000
1320279,33417.0,40581.0,44063.0,41939.0,15.979275411129326,-12.027583187626584,0,40000
1320289,34411.0,40549.0,42449.0,42591.0,16.171863333908412,-11.76736318422223,0,40000
1320299,31500.0,41196.0,45896.0,41408.0,16.35908086845462,-11.50567134674731,0,40000
1320309,33588.0,42880.0,43664.0,39868.0,16.541975733232825,-11.241131564088038,0,40000
1320319,32094.0,42194.0,45192.0,40520.0,16.721628756556118,-10.972106986714792,0,40000
1320329,32661.0,41729.0,44595.0,41015.0,16.89542013442326,-10.702559436009922,0,40000
1320339,31154.0,41210.0,46754.0,40882.0,17.065585584819036,-10.429083787524998,0,40000
1320349,31707.0,42207.0,45121.0,40965.0,17.231933195721957,-10.151870681710623,0,40000
1320359,31402.0,41574.0,46198.0,40826.0,17.392794637064956,-9.873737626293526,0,40000
1320369,32785.0,41733.0,44579.0,40903.0,17.548678616143437,-9.593950115948592,0,40000
1320379,31854.0,41976.0,45196.0,40974.0,17.701055977688302,-9.309812955948427,0,40000
1320389,34219.0,39459.0,43483.0,42839.0,17.847880099521525,-9.02514132593521,0,40000
1320399,34639.0,39941.0,42717.0,42703.0,17.99439818513932,-8.729354727278228,0,40000
1320409,33908.0,40776.0,43818.0,41498.0,18.136156806617823,-8.4308846680387,0,40000
1320419,34294.0,40246.0,43076.0,42384.0,18.269428447296608,-8.138057766390542,0,40000
1320429,33698.0,40606.0,44142.0,41554.0,18.39848939153746,-7.841912273768656,0,40000
1320439,34229.0,39815.0,43639.0,42317.0,18.5220268911003,-7.545496659952706,0,40000
1320449,33544.0,39596.0,44922.0,41938.0,18.64066710212239,-7.247449895504773,0,40000
1320459,33968.0,40168.0,43282.0,42582.0,18.754550686151045,-6.947433235418055,0,40000
1320469,34989.0,39623.0,43681.0,41707.0,18.863936927666558,-6.644688374108902,0,40000
1320479,34386.0,41008.0,43324.0,41282.0,18.970809603220353,-6.333117952348779,0,40000
1320489,33550.0,39656.0,45074.0,41720.0,19.070483872510597,-6.0263293030096925,0,40000
1320499,33766.0,38284.0,43848.0,44102.0,19.16538780608892,-5.717334190181488,0,40000
1320509,33551.0,39277.0,45059.0,42113.0,19.259856912569557,-5.390539092460665,0,40000
1320519,33829.0,40601.0,44029.0,41541.0,19.34373593240024,-5.081326615911227,0,40000
1320529,33462.0,40340.0,45254.0,40944.0,19.422986812333054,-4.7694426600952315,0,40000
1320539,32780.0,40636.0,45064.0,41520.0,19.49720611683017,-4.45633859102292,0,40000
1320549,31710.0,39628.0,46968.0,41694.0,19.566378439710103,-4.14208096903569,0,40000
1320559,33420.0,40134.0,44762.0,41684.0,19.566378439710103,-4.14208096903569,0,40000
1320569,33036.0,40302.0,45704.0,40958.0,19.63213646149845,-3.8182742118793813,0,40000
1320579,32102.0,40418.0,46088.0,41392.0,19.692622482907755,-3.4929385545233975,0,40000
1320589,32652.0,39174.0,46062.0,42112.0,19.746268660358183,-3.1756690622538453,0,40000
1320599,32547.0,40109.0,45821.0,41523.0,19.795858540816738,-2.8502604498489346,0,40000
1320609,32647.0,39845.0,45957.0,41551.0,19.83913006423402,-2.5315841472101663,0,40000
1320619,33337.0,40153.0,45111.0,41399.0,19.877360466873373,-2.2114567302978303,0,40000
