timestamp,motor.m1,motor.m2,motor.m3,motor.m4,roll,pitch,yawdot,thrust
974885,7273.0,39961.0,65535.0,39961.0,0,0,0,40000
974895,7443.0,39791.0,65535.0,39791.0,0,0,0,40000
974905,7557.0,39677.0,65535.0,39677.0,0,0,0,40000
974915,7642.0,39592.0,65535.0,39592.0,0,0,0,40000
974925,7922.0,39312.0,65535.0,39312.0,0,0,0,40000
974935,7937.0,39297.0,65535.0,39297.0,0,0,0,40000
974945,8043.0,39191.0,65535.0,39191.0,0,0,0,40000
974955,7853.0,39381.0,65535.0,39381.0,0,0,0,40000
974965,7745.0,39489.0,65535.0,39489.0,0,0,0,40000
974975,7715.0,39519.0,65535.0,39519.0,0,0,0,40000
974985,7321.0,39913.0,65535.0,39913.0,0,0,0,40000
974995,6978.0,40256.0,65535.0,40256.0,0,0,0,40000
975005,6868.0,40366.0,65535.0,41654.0,0,0,0,40000
975015,20239.0,26995.0,57331.0,55435.0,0,0,0,40000
975025,22102.0,25132.0,53590.0,59176.0,0,0,0,40000
975035,36775.0,13513.0,37411.0,65535.0,0,0,0,40000
975045,35552.0,11682.0,36698.0,65535.0,0,0,0,40000
975055,38252.0,14250.0,32984.0,65535.0,0,0,0,40000
975065,40526.0,18266.0,28968.0,65535.0,0,0,0,40000
975075,46433.0,25241.0,21993.0,65535.0,0,0,0,40000
975085,44660.0,23836.0,23398.0,65535.0,0,0,0,40000
975095,51345.0,29659.0,17575.0,61421.0,0,0,0,40000
975105,52609.0,30419.0,16849.0,60123.0,0,0,0,40000
975115,57630.0,34910.0,12324.0,55136.0,0,0,0,40000
975125,44664.0,47246.0,26948.0,41142.0,0,0,0,40000
975135,44904.0,56408.0,28526.0,30162.0,0,0,0,40000
975145,35649.0,64999.0,38379.0,20973.0,0,0,0,40000
975155,33734.0,65535.0,40956.0,13500.0,0,0,0,40000
975165,32315.0,65535.0,42177.0,14919.0,0,0,0,40000
975175,35445.0,65535.0,39525.0,11789.0,0,0,0,40000
975185,34233.0,65535.0,40967.0,13001.0,0,0,0,40000
975195,35261.0,65535.0,39009.0,11973.0,0,0,0,40000
975205,33448.0,65535.0,41714.0,13786.0,0,0,0,40000
975215,34291.0,65535.0,40095.0,12943.0,0,0,0,40000
975225,33099.0,65535.0,42959.0,14135.0,0,0,0,40000
975235,32815.0,65535.0,41933.0,14419.0,0,0,0,40000
975245,32627.0,65535.0,44339.0,14607.0,0,0,0,40000
975255,29958.0,65535.0,46498.0,17276.0,0,0,0,40000
975265,35664.0,59354.0,43218.0,21764.0,0,0,0,40000
975275,38774.0,53406.0,39102.0,28718.0,0,0,0,40000
975285,42619.0,46415.0,37105.0,33861.0,0,0,0,40000
975295,48125.0,36897.0,31535.0,43443.0,0,0,0,40000
975305,46993.0,34015.0,33371.0,45621.0,0,0,0,40000
975315,49363.0,27283.0,30615.0,52739.0,0,0,0,40000
975325,47031.0,27699.0,33363.0,51907.0,0,0,0,40000
975335,44563.0,22689.0,35629.0,57119.0,0,0,0,40000
975345,38525.0,30421.0,40331.0,50723.0,0,0,0,40000
975355,37054.0,27250.0,41602.0,54094.0,0,0,0,40000
975365,31841.0,33877.0,46847.0,47435.0,0,0,0,40000
975375,25273.0,33273.0,52621.0,48833.0,0,0,0,40000
975385,22017.0,37815.0,55265.0,44903.0,0,0,0,40000
975395,18768.0,38294.0,59676.0,43262.0,0,0,0,40000
975405,18415.0,39993.0,60161.0,41431.0,0,0,0,40000
975415,16597.0,39663.0,60955.0,42785.0,0,0,0,40000
975425,18230.0,41034.0,60158.0,40578.0,0,0,0,40000
975435,16664.0,40194.0,61590.0,41552.0,0,0,0,40000
975445,20092.0,38876.0,58706.0,42326.0,0,0,0,40000
975455,20603.0,38753.0,57801.0,42843.0,0,0,0,40000
975465,25393.0,38065.0,54019.0,42523.0,0,0,0,40000
975475,28196.0,35434.0,50850.0,45520.0,0,0,0,40000
975485,30444.0,36472.0,48334.0,44750.0,0,0,0,40000
975495,34836.0,34222.0,44268.0,46674.0,0,0,0,40000
975505,35829.0,34859.0,43565.0,45747.0,0,0,0,40000
975515,38589.0,33233.0,40955.0,47223.0,0,0,0,40000
975525,38190.0,36158.0,41858.0,43794.0,0,0,0,40000
975535,40532.0,36980.0,39618.0,42870.0,0,0,0,40000
975545,39232.0,39050.0,42172.0,39546.0,0,0,0,40000
975555,39193.0,42889.0,40597.0,37321.0,0,0,0,40000
975565,37521.0,44075.0,43687.0,34717.0,0,0,0,40000
975575,37182.0,46692.0,43792.0,32334.0,0,0,0,40000
975585,35590.0,47290.0,46548.0,30572.0,0,0,0,40000
975595,36074.0,50258.0,44286.0,29382.0,0,0,0,40000
975605,35740.0,49748.0,45844.0,28668.0,0,0,0,40000
975615,35787.0,51013.0,45143.0,28057.0,0,0,0,40000
975625,36365.0,48715.0,45209.0,29711.0,0,0,0,40000
975635,37365.0,48731.0,43107.0,30797.0,0,0,0,40000
975645,38908.0,47168.0,41926.0,31998.0,0,0,0,40000
975655,40060.0,45374.0,40342.0,34224.0,0,0,0,40000
975665,41084.0,43356.0,40112.0,35448.0,0,0,0,40000
975675,41811.0,43281.0,37885.0,37023.0,0,0,0,40000
975685,41875.0,41563.0,38831.0,37731.0,0,0,0,40000
975695,41466.0,41240.0,38018.0,39276.0,0,0,0,40000
975705,39876.0,41088.0,40516.0,38520.0,0,0,0,40000
975715,38907.0,40221.0,40489.0,40383.0,0,0,0,40000
975725,38231.0,40845.0,41413.0,39511.0,0,0,0,40000
975735,37021.0,40779.0,42167.0,40033.0,0,0,0,40000
975745,35655.0,39949.0,43823.0,40573.0,0,0,0,40000
975755,33766.0,40834.0,44944.0,40456.0,0,0,0,40000
975765,33329.0,41173.0,45699.0,39799.0,0,0,0,40000
975775,31631.0,41393.0,47141.0,39835.0,0,0,0,40000
975785,32612.0,41232.0,46406.0,39750.0,0,0,0,40000
975795,31679.0,41363.0,46669.0,40289.0,0,0,0,40000
975805,32516.0,40616.0,46174.0,40694.0,0,0,0,40000
975815,32257.0,40047.0,46369.0,41327.0,0,0,0,40000
975825,33086.0,39002.0,46360.0,41552.0,0,0,0,40000
975835,32012.0,39794.0,46228.0,41966.0,0,0,0,40000
975845,34565.0,39397.0,44413.0,41625.0,0,0,0,40000
975855,34387.0,38563.0,43999.0,43051.0,0,0,0,40000
975865,33531.0,37993.0,45621.0,42855.0,0,0,0,40000
975875,33213.0,37809.0,45135.0,43843.0,0,0,0,40000
975885,35010.0,38510.0,44816.0,41664.0,0,0,0,40000
975895,34147.0,41155.0,44729.0,39969.0,0,0,0,40000
975905,33900.0,41254.0,46136.0,38710.0,0,0,0,40000
975915,33407.0,42919.0,45593.0,38081.0,0,0,0,40000
975925,34744.0,40978.0,44826.0,39452.0,0,0,0,40000
975935,34910.0,41818.0,44540.0,38732.0,0,0,0,40000
975945,34681.0,41645.0,45779.0,37895.0,0,0,0,40000
975955,35198.0,42008.0,44604.0,38190.0,0,0,0,40000
975965,36478.0,42148.0,43374.0,38000.0,0,0,0,40000
975975,36394.0,41974.0,43590.0,38042.0,0,0,0,40000
975985,36393.0,41909.0,43915.0,37783.0,0,0,0,40000
975995,36280.0,43164.0,43240.0,37316.0,0,0,0,40000
976005,36783.0,42209.0,43423.0,37585.0,0,0,0,40000
976015,36222.0,42870.0,43888.0,37020.0,0,0,0,40000
976025,36868.0,43928.0,43816.0,35388.0,0,0,0,40000
976035,35574.0,44560.0,43498.0,36368.0,0,0,0,40000
976045,36187.0,42675.0,44433.0,36705.0,0,0,0,40000
976055,35369.0,43671.0,44175.0,36785.0,0,0,0,40000
976065,36097.0,43055.0,44003.0,36845.0,0,0,0,40000
976075,35604.0,43552.0,43930.0,36914.0,0,0,0,40000
976085,36608.0,41460.0,43842.0,38090.0,0,0,0,40000
976095,35781.0,42637.0,44155.0,37427.0,0,0,0,40000
976105,35274.0,43018.0,44240.0,37468.0,0,0,0,40000
976115,35490.0,42276.0,43718.0,38516.0,0,0,0,40000
976125,36966.0,40462.0,43116.0,39456.0,0,0,0,40000
976135,36988.0,40558.0,42584.0,39870.0,0,0,0,40000
976145,36376.0,40652.0,43548.0,39424.0,0,0,0,40000
976155,34362.0,42258.0,44706.0,38674.0,0,0,0,40000
976165,34447.0,41501.0,45515.0,38537.0,0,0,0,40000
976175,34534.0,41674.0,44796.0,38996.0,0,0,0,40000
976185,34319.0,41335.0,45069.0,39277.0,0,0,0,40000
976195,33344.0,41530.0,46164.0,38962.0,0,0,0,40000
976205,33441.0,42813.0,46117.0,37629.0,0,0,0,40000
976215,33382.0,41674.0,46018.0,38926.0,0,0,0,40000
976225,34274.0,40340.0,45530.0,39856.0,0,0,0,40000
976235,34116.0,42608.0,44648.0,38628.0,0,0,0,40000
976245,34198.0,41894.0,45906.0,38002.0,0,0,0,40000
976255,33608.0,42418.0,45840.0,38134.0,0,0,0,40000
976265,34495.0,41443.0,45289.0,38773.0,0,0,0,40000
976275,36319.0,40879.0,42879.0,39923.0,0,0,0,40000
976285,36437.0,40265.0,43923.0,39375.0,0,0,0,40000
976295,35436.0,42662.0,44114.0,37788.0,0,0,0,40000
976305,35406.0,42286.0,43982.0,38326.0,0,0,0,40000
976315,36164.0,41346.0,43600.0,38890.0,0,0,0,40000
976325,36197.0,41231.0,43605.0,38967.0,0,0,0,40000
976335,35402.0,39702.0,44704.0,40192.0,0,0,0,40000
976345,35476.0,42286.0,44154.0,38084.0,0,0,0,40000
976355,35670.0,43092.0,44154.0,37084.0,0,0,0,40000
976365,35658.0,42692.0,43834.0,37816.0,0,0,0,40000
976375,36212.0,42084.0,44294.0,37410.0,0,0,0,40000
976385,34923.0,42895.0,44473.0,37709.0,0,0,0,40000
976395,34944.0,43772.0,45020.0,36264.0,0,0,0,40000
976405,34776.0,43678.0,45040.0,36506.0,0,0,0,40000
976415,35945.0,42267.0,44367.0,37421.0,0,0,0,40000
976425,35635.0,41373.0,43769.0,39223.0,0,0,0,40000
976435,36363.0,40993.0,43467.0,39177.0,0,0,0,40000
976445,35297.0,42279.0,44339.0,38085.0,0,0,0,40000
976455,35613.0,41479.0,44187.0,38721.0,0,0,0,40000
976465,36526.0,41760.0,42918.0,38796.0,0,0,0,40000
976475,35891.0,40539.0,43933.0,39637.0,0,0,0,40000
976485,36296.0,40362.0,42940.0,40402.0,0,0,0,40000
976495,35615.0,40127.0,44651.0,39607.0,0,0,0,40000
976505,34990.0,42144.0,44006.0,38860.0,0,0,0,40000
976515,35008.0,42388.0,44940.0,37664.0,0,0,0,40000
976525,34355.0,41001.0,44541.0,40103.0,0,0,0,40000
976535,34436.0,40946.0,45484.0,39134.0,0,0,0,40000
976545,34565.0,41217.0,44481.0,39737.0,0,0,0,40000
976555,35424.0,40214.0,44828.0,39534.0,0,0,0,40000
976565,33821.0,40491.0,45367.0,40321.0,0,0,0,40000
976575,34699.0,41207.0,45119.0,38975.0,0,0,0,40000
976585,33573.0,41793.0,45531.0,39103.0,0,0,0,40000
976595,35081.0,40485.0,45247.0,39187.0,0,0,0,40000
976605,34263.0,42333.0,44859.0,38545.0,0,0,0,40000
976615,34895.0,40795.0,44939.0,39371.0,0,0,0,40000
976625,35009.0,41743.0,44597.0,38651.0,0,0,0,40000
976635,35050.0,40654.0,44846.0,39450.0,0,0,0,40000
976645,35903.0,41321.0,43597.0,39179.0,0,0,0,40000
976655,35669.0,42249.0,44503.0,37579.0,0,0,0,40000
976665,35308.0,42992.0,44024.0,37676.0,0,0,0,40000
976675,35728.0,40950.0,44370.0,38952.0,0,0,0,40000
976685,35519.0,40767.0,44359.0,39355.0,0,0,0,40000
976695,35009.0,41611.0,44551.0,38829.0,0,0,0,40000
976705,34937.0,42073.0,44723.0,38267.0,0,0,0,40000
976715,36065.0,42237.0,44179.0,37519.0,0,0,0,40000
976725,35744.0,41750.0,43910.0,38596.0,0,0,0,40000
976735,36214.0,40820.0,43278.0,39688.0,0,0,0,40000
976745,35979.0,41225.0,44157.0,38639.0,0,0,0,40000
976755,36629.0,40399.0,43539.0,39433.0,0,0,0,40000
976765,35852.0,42464.0,43686.0,37998.0,0,0,0,40000
976775,35899.0,43047.0,43741.0,37313.0,0,0,0,40000
976785,35493.0,41935.0,44661.0,37911.0,0,0,0,40000
976795,35744.0,40888.0,44476.0,38892.0,0,0,0,40000
976805,34991.0,41945.0,44781.0,38283.0,0,0,0,40000
976815,35950.0,41924.0,43566.0,38560.0,0,0,0,40000
976825,35363.0,43011.0,44575.0,37051.0,0,0,0,40000
976835,34751.0,43213.0,45083.0,36953.0,0,0,0,40000
976845,34918.0,42256.0,44674.0,38152.0,0,0,0,40000
976855,35058.0,40904.0,44620.0,39418.0,0,0,0,40000
976865,35076.0,42192.0,44838.0,37894.0,0,0,0,40000
976875,35798.0,42418.0,43964.0,37820.0,0,0,0,40000
976885,35271.0,41301.0,44709.0,38719.0,0,0,0,40000
976895,35537.0,40469.0,43661.0,40333.0,0,0,0,40000
976905,36561.0,39341.0,43125.0,40973.0,0,0,0,40000
976915,35882.0,40748.0,43664.0,39706.0,0,0,0,40000
976925,36591.0,40229.0,43127.0,40053.0,0,0,0,40000
976935,34998.0,39846.0,44722.0,40434.0,0,0,0,40000
976945,35549.0,40287.0,43995.0,40169.0,0,0,0,40000
976955,34801.0,40463.0,44775.0,39961.0,0,0,0,40000
976965,35095.0,41481.0,44623.0,38801.0,0,0,0,40000
976975,33586.0,42652.0,45624.0,38138.0,0,0,0,40000
976985,33172.0,43990.0,46686.0,36152.0,0,0,0,40000
976995,32694.0,42188.0,46970.0,38148.0,0,0,0,40000
977005,32713.0,43111.0,47199.0,36977.0,0,0,0,40000
977015,34096.0,42398.0,45660.0,37846.0,0,0,0,40000
977025,33198.0,42576.0,45970.0,38256.0,0,0,0,40000
977035,34008.0,41836.0,45816.0,38340.0,0,0,0,40000
977045,32743.0,40647.0,47167.0,39443.0,0,0,0,40000
977055,34302.0,40316.0,45542.0,39840.0,0,0,0,40000
977065,34420.0,41474.0,44972.0,39134.0,0,0,0,40000
977075,35610.0,39936.0,43478.0,40976.0,0,0,0,40000
977085,36422.0,39758.0,43532.0,40288.0,0,0,0,40000
977095,35853.0,39799.0,43907.0,40441.0,0,0,0,40000
977105,35737.0,39817.0,44159.0,40287.0,0,0,0,40000
977115,34321.0,40419.0,44863.0,40397.0,0,0,0,40000
977125,35372.0,40226.0,45106.0,39296.0,0,0,0,40000
977135,34604.0,41174.0,44426.0,39796.0,0,0,0,40000
977145,34277.0,41063.0,45833.0,38827.0,0,0,0,40000
977155,32671.0,43051.0,46457.0,37821.0,0,0,0,40000
977165,34999.0,41435.0,45939.0,37627.0,0,0,0,40000
977175,33305.0,42457.0,45621.0,38617.0,0,0,0,40000
977185,34519.0,42019.0,45919.0,37543.0,0,0,0,40000
977195,33923.0,42813.0,45301.0,37963.0,0,0,0,40000
977205,35119.0,41497.0,45199.0,38185.0,0,0,0,40000
977215,34940.0,41462.0,44658.0,38940.0,0,0,0,40000
977225,36226.0,40314.0,44012.0,39448.0,0,0,0,40000
977235,35853.0,40433.0,43861.0,39853.0,0,0,0,40000
977245,36265.0,39655.0,43757.0,40323.0,0,0,0,40000
977255,36096.0,40532.0,42980.0,40392.0,0,0,0,40000
977265,36617.0,40873.0,43335.0,39175.0,0,0,0,40000
977275,35822.0,41000.0,43812.0,39366.0,0,0,0,40000
977285,34854.0,40600.0,45694.0,38852.0,0,0,0,40000
977295,35029.0,40017.0,44113.0,40841.0,0,0,0,40000
977305,34865.0,40995.0,45053.0,39087.0,0,0,0,40000
977315,34671.0,42251.0,44415.0,38663.0,0,0,0,40000
977325,34308.0,42754.0,45902.0,37036.0,0,0,0,40000
977335,33560.0,42714.0,45476.0,38250.0,0,0,0,40000
977345,34439.0,41165.0,46177.0,38219.0,0,0,0,40000
977355,34944.0,41360.0,44976.0,38720.0,0,0,0,40000
977365,34085.0,41173.0,45891.0,38851.0,0,0,0,40000
977375,33981.0,42269.0,45033.0,38717.0,0,0,0,40000
977385,33706.0,41936.0,46226.0,38132.0,0,0,0,40000
977395,35203.0,41829.0,44289.0,38679.0,0,0,0,40000
977405,35701.0,40977.0,44489.0,38833.0,0,0,0,40000
977415,35371.0,40933.0,44165.0,39531.0,0,0,0,40000
977425,34478.0,42166.0,45470.0,37886.0,0,0,0,40000
977435,34267.0,42139.0,45193.0,38401.0,0,0,0,40000
977445,34773.0,41543.0,44891.0,38793.0,0,0,0,40000
977455,35173.0,42381.0,44519.0,37927.0,0,0,0,40000
977465,35184.0,41012.0,44610.0,39194.0,0,0,0,40000
977475,35324.0,40804.0,44632.0,39240.0,0,0,0,40000
977485,34592.0,41216.0,45248.0,38944.0,0,0,0,40000
977495,36276.0,41076.0,43410.0,39238.0,0,0,0,40000
977505,36016.0,41886.0,43390.0,38708.0,0,0,0,40000
977515,36589.0,40761.0,43379.0,39271.0,0,0,0,40000
977525,35946.0,40714.0,43884.0,39456.0,0,0,0,40000
977535,35681.0,39705.0,44647.0,39967.0,0,0,0,40000
977545,35639.0,43141.0,43261.0,37959.0,0,0,0,40000
977555,36336.0,41294.0,44480.0,37890.0,0,0,0,40000
977565,33664.0,42596.0,45154.0,38586.0,0,0,0,40000
977575,34151.0,40803.0,46229.0,38817.0,0,0,0,40000
977585,33855.0,41525.0,45267.0,39353.0,0,0,0,40000
977595,36613.0,40547.0,43863.0,38977.0,0,0,0,40000
977605,35542.0,42052.0,43774.0,38632.0,0,0,0,40000
977615,35387.0,41489.0,44217.0,38907.0,0,0,0,40000
977625,34036.0,43268.0,45838.0,36858.0,0,0,0,40000
977635,33069.0,40525.0,46961.0,39445.0,0,0,0,40000
977645,34104.0,41944.0,45254.0,38698.0,0,0,0,40000
977655,35193.0,41479.0,44703.0,38625.0,0,0,0,40000
977665,35418.0,41530.0,44120.0,38932.0,0,0,0,40000
977675,36211.0,40063.0,43645.0,40081.0,0,0,0,40000
977685,35620.0,40832.0,43742.0,39806.0,0,0,0,40000
977695,36263.0,39695.0,43313.0,40729.0,0,0,0,40000
977705,37338.0,38410.0,43200.0,41052.0,0,0,0,40000
977715,37072.0,40124.0,42936.0,39868.0,0,0,0,40000
977725,35612.0,40522.0,43342.0,40524.0,0,0,0,40000
977735,35466.0,40688.0,44084.0,39762.0,0,0,0,40000
977745,34739.0,41691.0,44843.0,38727.0,0,0,0,40000
977755,34936.0,41118.0,45364.0,38582.0,0,0,0,40000
977765,34858.0,42334.0,44706.0,38102.0,0,0,0,40000
977775,36554.0,41340.0,43816.0,38290.0,0,0,0,40000
977785,35576.0,42430.0,44334.0,37660.0,0,0,0,40000
977795,34622.0,42118.0,44668.0,38592.0,0,0,0,40000
977805,34083.0,41963.0,45135.0,38819.0,0,0,0,40000
977815,35054.0,42186.0,44900.0,37860.0,0,0,0,40000
977825,35938.0,42362.0,44156.0,37544.0,0,0,0,40000
977835,36518.0,42132.0,43350.0,38000.0,0,0,0,40000
977845,36903.0,41019.0,43277.0,38801.0,0,0,0,40000
977855,36295.0,41055.0,42763.0,39887.0,0,0,0,40000
977865,37582.0,39394.0,42578.0,40446.0,0,0,0,40000
977875,37000.0,40592.0,42128.0,40280.0,0,0,0,40000
977885,38225.0,40135.0,42269.0,39371.0,0,0,0,40000
977895,36904.0,41318.0,42554.0,39224.0,0,0,0,40000
977905,35645.0,42833.0,44813.0,36709.0,0,0,0,40000
977915,34948.0,42192.0,44362.0,38498.0,0,0,0,40000
977925,34489.0,42147.0,45469.0,37895.0,0,0,0,40000
977935,34526.0,43122.0,44496.0,37856.0,0,0,0,40000
977945,34828.0,42474.0,45234.0,37464.0,0,0,0,40000
977955,34803.0,42839.0,44979.0,37379.0,0,0,0,40000
977965,34567.0,41765.0,45761.0,37907.0,0,0,0,40000
977975,35595.0,41169.0,43877.0,39359.0,0,0,0,40000
977985,36460.0,39336.0,43204.0,41000.0,0,0,0,40000
977995,36042.0,39300.0,43502.0,41156.0,0,0,0,40000
978005,36099.0,40465.0,43877.0,39559.0,0,0,0,40000
978015,34863.0,40243.0,44269.0,40625.0,0,0,0,40000
978025,35764.0,40388.0,44644.0,39204.0,0,0,0,40000
978035,35803.0,40665.0,43333.0,40199.0,0,0,0,40000
978045,35810.0,40146.0,44266.0,39778.0,0,0,0,40000
978055,34942.0,41026.0,44028.0,40004.0,0,0,0,40000
978065,35009.0,40377.0,45479.0,39135.0,0,0,0,40000
978075,34865.0,40773.0,44119.0,40243.0,0,0,0,40000
978085,35602.0,40660.0,45002.0,38736.0,0,0,0,40000
978095,35311.0,41189.0,43745.0,39755.0,0,0,0,40000
978105,34901.0,40039.0,45645.0,39415.0,0,0,0,40000
978115,32642.0,42742.0,46040.0,38576.0,0,0,0,40000
978125,34695.0,41963.0,45617.0,37725.0,0,0,0,40000
978135,34836.0,42678.0,44920.0,37566.0,0,0,0,40000
978145,35298.0,41918.0,44834.0,37950.0,0,0,0,40000
978155,34349.0,42083.0,45057.0,38511.0,0,0,0,40000
978165,34997.0,42939.0,44643.0,37421.0,0,0,0,40000
978175,35516.0,41218.0,44302.0,38964.0,0,0,0,40000
978185,35408.0,42648.0,44556.0,37388.0,0,0,0,40000
978195,35568.0,42300.0,43636.0,38496.0,0,0,0,40000
978205,37433.0,40941.0,43143.0,38483.0,0,0,0,40000
978215,36937.0,40629.0,42561.0,39873.0,0,0,0,40000
978225,37397.0,40255.0,42817.0,39531.0,0,0,0,40000
978235,36588.0,40802.0,42334.0,40276.0,0,0,0,40000
978245,37424.0,40728.0,42688.0,39160.0,0,0,0,40000
978255,36496.0,41488.0,43308.0,38708.0,0,0,0,40000
978265,36499.0,41971.0,43467.0,38063.0,0,0,0,40000
978275,35360.0,41794.0,44328.0,38518.0,0,0,0,40000
978285,35529.0,42565.0,44505.0,37401.0,0,0,0,40000
978295,34894.0,42708.0,44492.0,37906.0,0,0,0,40000
978305,35345.0,41907.0,44551.0,38197.0,0,0,0,40000
978315,34620.0,42356.0,44904.0,38120.0,0,0,0,40000
978325,35172.0,41462.0,45146.0,38220.0,0,0,0,40000
978335,33266.0,40916.0,46328.0,39490.0,0,0,0,40000
978345,34866.0,41676.0,44696.0,38762.0,0,0,0,40000
978355,35761.0,41463.0,44001.0,38775.0,0,0,0,40000
978365,35332.0,42170.0,44142.0,38356.0,0,0,0,40000
978375,34618.0,42774.0,45280.0,37328.0,0,0,0,40000
978385,34682.0,40248.0,44850.0,40220.0,0,0,0,40000
978395,34726.0,39992.0,45034.0,40248.0,0,0,0,40000
978405,35056.0,40738.0,44684.0,39522.0,0,0,0,40000
978415,34625.0,41043.0,44841.0,39491.0,0,0,0,40000
978425,35629.0,40109.0,44131.0,40131.0,0,0,0,40000
978435,34510.0,41222.0,44882.0,39386.0,0,0,0,40000
978445,35943.0,42135.0,44511.0,37411.0,0,0,0,40000
978455,34348.0,41206.0,44796.0,39650.0,0,0,0,40000
978465,35478.0,40994.0,44726.0,38802.0,0,0,0,40000
978475,34549.0,40705.0,44727.0,40019.0,0,0,0,40000
978485,34830.0,41432.0,45256.0,38482.0,0,0,0,40000
978495,35144.0,42104.0,44098.0,38654.0,0,0,0,40000
978505,35279.0,41585.0,45185.0,37951.0,0,0,0,40000
978515,35019.0,41761.0,44679.0,38541.0,0,0,0,40000
978525,35539.0,41205.0,44137.0,39119.0,0,0,0,40000
978535,35775.0,40549.0,43817.0,39859.0,0,0,0,40000
978545,35752.0,40208.0,43306.0,40734.0,0,0,0,40000
978555,37583.0,40655.0,42729.0,39033.0,0,0,0,40000
978565,36703.0,42273.0,42545.0,38479.0,0,0,0,40000
978575,36898.0,40674.0,43612.0,38816.0,0,0,0,40000
978585,36891.0,41563.0,42467.0,39079.0,0,0,0,40000
978595,36908.0,41042.0,43114.0,38936.0,0,0,0,40000
978605,35744.0,42106.0,43302.0,38848.0,0,0,0,40000
978615,36948.0,43268.0,43634.0,36150.0,0,0,0,40000
978625,35518.0,42426.0,43712.0,38344.0,0,0,0,40000
978635,34858.0,42974.0,45796.0,36372.0,0,0,0,40000
978645,33982.0,43866.0,44790.0,37362.0,0,0,0,40000
978655,35953.0,42787.0,44473.0,36787.0,0,0,0,40000
978665,36879.0,43303.0,42289.0,37529.0,0,0,0,40000
978675,36317.0,41543.0,44131.0,38009.0,0,0,0,40000
978685,36066.0,41414.0,43212.0,39308.0,0,0,0,40000
978695,36262.0,40808.0,43718.0,39212.0,0,0,0,40000
978705,35851.0,41041.0,43375.0,39733.0,0,0,0,40000
978715,37306.0,40238.0,43014.0,39442.0,0,0,0,40000
978725,36555.0,41387.0,42975.0,39083.0,0,0,0,40000
978735,35792.0,41312.0,44050.0,38846.0,0,0,0,40000
978745,35303.0,40701.0,44157.0,39839.0,0,0,0,40000
978755,34559.0,41341.0,45031.0,39069.0,0,0,0,40000
978765,34194.0,41554.0,45406.0,38846.0,0,0,0,40000
978775,34808.0,42172.0,45268.0,37752.0,0,0,0,40000
978785,35352.0,40638.0,44042.0,39968.0,0,0,0,40000
978795,34564.0,40308.0,45604.0,39524.0,0,0,0,40000
978805,34583.0,39725.0,44963.0,40729.0,0,0,0,40000
978815,34786.0,41800.0,44770.0,38644.0,0,0,0,40000
978825,33834.0,42156.0,46266.0,37744.0,0,0,0,40000
978835,34040.0,42772.0,45594.0,37594.0,0,0,0,40000
978845,33678.0,42410.0,46158.0,37754.0,0,0,0,40000
978855,33381.0,41683.0,46121.0,38815.0,0,0,0,40000
978865,33616.0,41878.0,46070.0,38436.0,0,0,0,40000
978875,33668.0,41962.0,46042.0,38328.0,0,0,0,40000
978885,34235.0,41723.0,45619.0,38423.0,0,0,0,40000
978895,33204.0,42754.0,46362.0,37680.0,0,0,0,40000
978905,33810.0,41704.0,46514.0,37972.0,0,0,0,40000
978915,33938.0,41196.0,45302.0,39564.0,0,0,0,40000
978925,35324.0,41130.0,44654.0,38892.0,0,0,0,40000
978935,34697.0,41751.0,44443.0,39109.0,0,0,0,40000
978945,35292.0,41284.0,44862.0,38562.0,0,0,0,40000
978955,36631.0,40959.0,43171.0,39239.0,0,0,0,40000
978965,35633.0,40427.0,44229.0,39711.0,0,0,0,40000
978975,35764.0,41088.0,43762.0,39386.0,0,0,0,40000
978985,35079.0,41837.0,44623.0,38461.0,0,0,0,40000
978995,36208.0,41440.0,43126.0,39226.0,0,0,0,40000
979005,34892.0,41536.0,45112.0,38460.0,0,0,0,40000
979015,34703.0,41629.0,44673.0,38995.0,0,0,0,40000
979025,35263.0,42247.0,45693.0,36797.0,0,0,0,40000
979035,34275.0,43649.0,44485.0,37591.0,0,0,0,40000
979045,35713.0,41489.0,44561.0,38237.0,0,0,0,40000
979055,34476.0,42420.0,44332.0,38772.0,0,0,0,40000
979065,36328.0,40768.0,44574.0,38330.0,0,0,0,40000
979075,35841.0,41735.0,43237.0,39187.0,0,0,0,40000
979085,36030.0,41262.0,44358.0,38350.0,0,0,0,40000
979095,35002.0,42074.0,44218.0,38706.0,0,0,0,40000
979105,35129.0,40587.0,44581.0,39703.0,0,0,0,40000
979115,34482.0,41412.0,45038.0,39068.0,0,0,0,40000
979125,34892.0,41096.0,44820.0,39192.0,0,0,0,40000
979135,35422.0,41780.0,44666.0,38132.0,0,0,0,40000
979145,34517.0,41407.0,45271.0,38805.0,0,0,0,40000
979155,33361.0,41389.0,46253.0,38997.0,0,0,0,40000
979165,33250.0,41866.0,46550.0,38334.0,0,0,0,40000
979175,33247.0,42549.0,46115.0,38089.0,0,0,0,40000
979185,33836.0,41588.0,45910.0,38666.0,0,0,0,40000
979195,34569.0,40579.0,45075.0,39777.0,0,0,0,40000
979205,33757.0,41045.0,46559.0,38639.0,0,0,0,40000
979215,34265.0,41315.0,45615.0,38805.0,0,0,0,40000
979225,35788.0,41660.0,43446.0,39106.0,0,0,0,40000
979235,35140.0,41524.0,44346.0,38990.0,0,0,0,40000
979245,34204.0,42860.0,45832.0,37104.0,0,0,0,40000
979255,34139.0,41591.0,45661.0,38609.0,0,0,0,40000
979265,34634.0,41692.0,45390.0,38284.0,0,0,0,40000
979275,35373.0,41979.0,44073.0,38575.0,0,0,0,40000
979285,35370.0,40958.0,44758.0,38914.0,0,0,0,40000
979295,34202.0,43804.0,44572.0,37422.0,0,0,0,40000
979305,35655.0,41049.0,44857.0,38439.0,0,0,0,40000
979315,34506.0,41206.0,44460.0,39828.0,0,0,0,40000
979325,35528.0,41102.0,45030.0,38340.0,0,0,0,40000
979335,34356.0,42490.0,45080.0,38074.0,0,0,0,40000
979345,34930.0,41336.0,45046.0,38688.0,0,0,0,40000
979355,34852.0,41992.0,44392.0,38764.0,0,0,0,40000
979365,34140.0,41740.0,46036.0,38084.0,0,0,0,40000
979375,34246.0,42384.0,44782.0,38588.0,0,0,0,40000
979385,35752.0,40550.0,44882.0,38816.0,0,0,0,40000
979395,35725.0,39803.0,43307.0,41165.0,0,0,0,40000
979405,36672.0,38292.0,44190.0,40846.0,0,0,0,40000
979415,35678.0,41818.0,42796.0,39708.0,0,0,0,40000
979425,36043.0,41093.0,44171.0,38693.0,0,0,0,40000
979435,34939.0,40571.0,44421.0,40069.0,0,0,0,40000
979445,35265.0,40709.0,45177.0,38849.0,0,0,0,40000
979455,35012.0,41502.0,44124.0,39362.0,0,0,0,40000
979465,35320.0,41968.0,45154.0,37558.0,0,0,0,40000
979475,35361.0,42349.0,44045.0,38245.0,0,0,0,40000
979485,34272.0,43494.0,45364.0,36870.0,0,0,0,40000
979495,33627.0,42409.0,45813.0,38151.0,0,0,0,40000
979505,34738.0,42100.0,45704.0,37458.0,0,0,0,40000
979515,35222.0,42628.0,44168.0,37982.0,0,0,0,40000
979525,35350.0,41174.0,44804.0,38672.0,0,0,0,40000
979535,35847.0,40991.0,43123.0,40039.0,0,0,0,40000
979545,35846.0,40164.0,44950.0,39040.0,0,0,0,40000
979555,35586.0,40290.0,42986.0,41138.0,0,0,0,40000
979565,35603.0,40939.0,44667.0,38791.0,0,0,0,40000
979575,34535.0,42407.0,44455.0,38603.0,0,0,0,40000
979585,35980.0,40154.0,45422.0,38444.0,0,0,0,40000
979595,34405.0,42457.0,43871.0,39267.0,0,0,0,40000
979605,34686.0,40748.0,45852.0,38714.0,0,0,0,40000
979615,35055.0,41821.0,44195.0,38929.0,0,0,0,40000
979625,35723.0,40087.0,44959.0,39231.0,0,0,0,40000
979635,34763.0,41885.0,43939.0,39413.0,0,0,0,40000
979645,35693.0,41471.0,44759.0,38077.0,0,0,0,40000
979655,35080.0,41130.0,44008.0,39782.0,0,0,0,40000
979665,34760.0,41070.0,45950.0,38220.0,0,0,0,40000
979675,35577.0,41677.0,44005.0,38741.0,0,0,0,40000
979685,34064.0,42226.0,45684.0,38026.0,0,0,0,40000
979695,35044.0,42142.0,44512.0,38302.0,0,0,0,40000
979705,34746.0,40160.0,45478.0,39616.0,0,0,0,40000
979715,36572.0,41422.0,43062.0,38944.0,0,0,0,40000
979725,35906.0,40522.0,43638.0,39934.0,0,0,0,40000
979735,35516.0,40636.0,43656.0,40192.0,0,0,0,40000
979745,36143.0,38925.0,44303.0,40629.0,0,0,0,40000
979755,35083.0,40531.0,44123.0,40263.0,0,0,0,40000
979765,35435.0,40647.0,44915.0,39003.0,0,0,0,40000
979775,34618.0,42242.0,44634.0,38506.0,0,0,0,40000
979785,34920.0,41758.0,45538.0,37784.0,0,0,0,40000
979795,35558.0,41774.0,43412.0,39256.0,0,0,0,40000
979805,33751.0,41807.0,45997.0,38445.0,0,0,0,40000
979815,34716.0,40970.0,45166.0,39148.0,0,0,0,40000
979825,35770.0,40486.0,44100.0,39644.0,0,0,0,40000
979835,34789.0,41841.0,45139.0,38231.0,0,0,0,40000
979845,35487.0,41291.0,44111.0,39111.0,0,0,0,40000
979855,36667.0,39677.0,43479.0,40177.0,0,0,0,40000
979865,36062.0,40036.0,43642.0,40260.0,0,0,0,40000
979875,36256.0,40844.0,43352.0,39548.0,0,0,0,40000
979885,35561.0,41879.0,43767.0,38793.0,19.999964823837576,0.03751060196243348,0,40000
979895,20718.0,26516.0,59732.0,53034.0,19.784505045580243,2.928030071807648,0,40000
979905,18786.0,28448.0,61140.0,51626.0,19.24686502704595,5.436744120397393,0,40000
979915,17574.0,30776.0,61690.0,49960.0,18.386571037951438,7.869816101178309,0,40000
979925,17403.0,32839.0,61945.0,47813.0,17.222854871951032,10.167264630160492,0,40000
979935,21005.0,35845.0,59549.0,43601.0,15.780743111612699,12.28690957260158,0,40000
979945,20992.0,38924.0,58470.0,41614.0,14.073116009838124,14.210820024672675,0,40000
979955,26744.0,39460.0,53222.0,40574.0,12.130239960717681,15.901486675635327,0,40000
979965,29533.0,41675.0,50575.0,38217.0,9.994827530378686,17.323493372815552,0,40000
979975,37456.0,42490.0,43490.0,36564.0,7.675696441147832,18.46845104883868,0,40000
979985,38556.0,44130.0,41566.0,35748.0,5.233812837418759,19.303036113079997,0,40000
979995,46737.0,44375.0,34073.0,34815.0,2.708179131918901,19.81579586565826,0,40000
980005,48294.0,46248.0,33234.0,32224.0,0.15531399366773607,19.99939692999194,0,40000
980015,51860.0,47824.0,30240.0,30076.0,-2.404258847159203,19.85496258862899,0,40000
980025,56334.0,49346.0,25394.0,28926.0,-2.404258847159203,19.85496258862899,0,40000
980035,54372.0,50452.0,28748.0,26428.0,-4.985283866339752,19.368710457126788,0,40000
980045,58011.0,53101.0,24305.0,24583.0,-7.44753678205777,18.561632360325873,0,40000
980055,56791.0,55975.0,25565.0,21669.0,-11.896171006719552,16.077347896306936,0,40000
980065,57255.0,55511.0,23713.0,23521.0,-11.896171006719552,16.077347896306936,0,40000
980075,52760.0,59966.0,28906.0,18368.0,-13.867214659383219,14.411813126410816,0,40000
980085,59987.0,52779.0,20273.0,26961.0,-15.652974624681427,12.44927248473096,0,40000
980095,58714.0,54052.0,20316.0,26918.0,-17.133125123953462,10.317752831259074,0,40000
980105,59249.0,53517.0,18977.0,28257.0,-18.334371324549526,7.990671319328313,0,40000
980115,59055.0,52135.0,18431.0,30379.0,-19.20867714378389,5.570163586994042,0,40000
980125,51701.0,47779.0,23929.0,36591.0,-19.772563395256658,3.007613136784146,0,40000
980135,50473.0,44539.0,24179.0,40809.0,-19.99499266422468,0.44751352784160936,0,40000
980145,33665.0,49749.0,40953.0,35633.0,-19.885917305308983,-2.1331415626752865,0,40000
980155,34361.0,47625.0,39619.0,38395.0,-19.44462810570388,-4.680431372306483,0,40000
980165,30234.0,41498.0,43298.0,44970.0,-18.68341230110793,-7.136533106965105,0,40000
980175,29483.0,39665.0,43081.0,47771.0,-17.60464290276021,-9.49086657088248,0,40000
980185,22290.0,31230.0,50978.0,55502.0,-16.237423604193616,-11.67673219261177,0,40000
980195,24113.0,30089.0,49445.0,56353.0,-14.570355090338069,-13.700538403342385,0,40000
980205,19506.0,27728.0,54608.0,58158.0,-12.645342727775246,-15.495009109293925,0,40000
980215,20764.0,26470.0,54214.0,58552.0,-10.549277601862808,-16.991549137110354,0,40000
980225,19045.0,28189.0,56259.0,56507.0,-8.284275625489649,-18.20359243009242,0,40000
980235,20744.0,26490.0,56040.0,56726.0,-5.881166172972523,-19.115749643837766,0,40000
980245,17196.0,30038.0,59946.0,52820.0,-3.3676851398624237,-19.714428644998815,0,40000
980255,18152.0,29082.0,60452.0,52314.0,-0.7327911393029696,-19.986570920149337,0,40000
980265,14980.0,32254.0,64562.0,48204.0,1.8456374387661711,-19.914658481747175,0,40000
980275,17280.0,29954.0,63596.0,49170.0,4.3862926556212765,-19.513083732184487,0,40000
980285,13766.0,33468.0,65535.0,45168.0,6.916898998453678,-18.765833534516673,0,40000
980295,15255.0,31979.0,65535.0,46033.0,9.254945156688803,-17.72980513560943,0,40000
980305,14846.0,32388.0,65535.0,45734.0,11.44280760356649,-16.403114160053907,0,40000
980315,15246.0,31988.0,65535.0,45480.0,13.459170610670965,-14.793604242132847,0,40000
980325,12682.0,34552.0,65535.0,43566.0,15.240861149553524,-12.950527071128421,0,40000
980335,15131.0,32103.0,65535.0,45687.0,15.240861149553524,-12.950527071128421,0,40000
980345,14628.0,32606.0,65535.0,46328.0,16.850073339265442,-10.77381216011194,0,40000
980355,15918.0,31316.0,64420.0,48346.0,18.098572403331318,-8.511267647147163,0,40000
980365,15745.0,31489.0,62765.0,50001.0,19.059213606595897,-6.061878974224896,0,40000
980375,16350.0,30884.0,61522.0,51244.0,19.97445296089255,-1.0105587133318474,0,40000
980385,7640.0,39594.0,65535.0,42802.0,19.97445296089255,-1.0105587133318474,0,40000
980395,17290.0,29944.0,59438.0,53328.0,19.938564624976504,1.5664101300858635,0,40000
980405,18017.0,29217.0,57675.0,55091.0,19.575507534978158,4.098719891382362,0,40000
980415,7865.0,39369.0,65535.0,46137.0,18.88441383612146,6.586267081291527,0,40000
980425,15007.0,40987.0,59065.0,44941.0,17.884190840452337,8.952972577992224,0,40000
980435,17396.0,45694.0,56880.0,40030.0,16.58967107074354,11.17062280110356,0,40000
980445,31173.0,52479.0,43377.0,32971.0,15.02326308333261,13.202331851948564,0,40000
980455,33646.0,56790.0,41420.0,28144.0,13.205662307470867,15.02033564941354,0,40000
980465,46406.0,64226.0,29556.0,19812.0,11.16281810238904,16.59492368204734,0,40000
980475,47440.0,65326.0,29716.0,17518.0,8.941825775662407,17.889766678123543,0,40000
980485,51424.0,61342.0,27190.0,20044.0,6.569969946953287,18.89008985939799,0,40000
980495,53583.0,59183.0,26515.0,20719.0,4.09091920646178,19.577139220177248,0,40000
980505,55137.0,57629.0,26043.0,21191.0,1.4941779055639859,19.944107710963767,0,40000
980515,53105.0,59661.0,30305.0,16929.0,-1.0747666196084213,19.971101039085838,0,40000
980525,55162.0,57604.0,29320.0,17914.0,-3.7077375805212536,19.65331224079011,0,40000
980535,53068.0,59698.0,32256.0,14978.0,-6.251668454175123,18.997806229643246,0,40000
980545,55041.0,57725.0,30401.0,16833.0,-8.639617731101517,18.03765520960073,0,40000
980555,53076.0,59690.0,33488.0,13746.0,-10.876546885715898,16.783942559566384,0,40000
980565,54549.0,58217.0,32045.0,15189.0,-12.946279958111127,15.244469005059184,0,40000
980575,53439.0,59327.0,32925.0,14309.0,-14.797918196101932,13.4544274148503,0,40000
980585,54909.0,57857.0,30617.0,16617.0,-16.3919643148308,11.45877418842494,0,40000
980595,54445.0,58321.0,31095.0,16139.0,-17.72778054304062,9.258822658296815,0,40000
980605,53746.0,59020.0,30696.0,16538.0,-18.771153889561113,6.902447511891326,0,40000
980615,54995.0,57771.0,28141.0,19093.0,-19.506120565758472,4.4171552467730155,0,40000
980625,55003.0,57763.0,27837.0,19397.0,-19.91329278306932,1.860314633539024,0,40000
980635,55403.0,57363.0,26101.0,21133.0,-19.986410171829704,-0.7371624267297295,0,40000
980645,53072.0,59694.0,26858.0,20376.0,-19.726260753834797,-3.2976714014160096,0,40000
980655,54159.0,58607.0,25331.0,21903.0,-19.138945862621025,-5.80523481589346,0,40000
980665,52723.0,60043.0,25911.0,21323.0,-18.233726728201212,-8.217737498927592,0,40000
980675,53334.0,59432.0,23848.0,23386.0,-17.02606645676278,-10.493477069584575,0,40000
980685,50285.0,62481.0,26599.0,20635.0,-17.02606645676278,-10.493477069584575,0,40000
980695,47689.0,58561.0,28431.0,25319.0,-15.50220496833935,-12.636520134894527,0,40000
980705,38215.0,51219.0,37725.0,32841.0,-13.725618882432805,-14.546731120571524,0,40000
980715,36997.0,48141.0,38919.0,35943.0,-11.667973812905863,-16.243718389006347,0,40000
980725,27196.0,40154.0,49766.0,42884.0,-9.48342874974168,-17.60865069074212,0,40000
980735,24544.0,35638.0,52604.0,47214.0,-7.142298352103782,-18.681209121722702,0,40000
980745,17642.0,29592.0,61044.0,51722.0,-4.680023570883463,-19.44472626127648,0,40000
980755,21750.0,25484.0,58092.0,54674.0,-2.139993058455999,-19.885181158585407,0,40000
980765,17965.0,29269.0,63023.0,49743.0,0.4371497090404233,-19.995221932548933,0,40000
980775,17679.0,29555.0,64759.0,48007.0,2.988062565109495,-19.77552735344854,0,40000
980785,15266.0,31968.0,65535.0,44170.0,5.502738070341503,-19.228101147258776,0,40000
980795,14800.0,32434.0,65535.0,41794.0,7.927068493842913,-18.36196027372685,0,40000
980805,12358.0,34876.0,65535.0,39188.0,10.337560004346827,-17.121181418247073,0,40000
980815,20400.0,26834.0,65535.0,45486.0,12.453445892194889,-15.649654482133917,0,40000
980825,18310.0,28924.0,65535.0,42936.0,14.360904566592698,-13.919928880178123,0,40000
980835,21114.0,26120.0,65535.0,45566.0,16.028813669872964,-11.961485373334435,0,40000
980845,19475.0,27759.0,65535.0,43335.0,17.431813607648422,-9.804686346242967,0,40000
980855,21678.0,25556.0,65535.0,46060.0,18.547810969265676,-7.481892023304525,0,40000
980865,22561.0,24673.0,65535.0,46489.0,19.362316855516116,-5.010058481354927,0,40000
980875,21140.0,26094.0,65535.0,46746.0,19.847596368427403,-2.464329197974044,0,40000
980885,23772.0,23462.0,62666.0,50100.0,19.999813090272394,0.08646591333578682,0,40000
980895,24189.0,23045.0,61535.0,51231.0,19.821575761424143,2.6655457854111053,0,40000
980905,23506.0,23728.0,60412.0,52354.0,19.315012307557804,5.189441160557711,0,40000
980915,23135.0,24099.0,61155.0,51611.0,18.45967723069437,7.6967731250559694,0,40000
980925,23153.0,24081.0,58583.0,54183.0,17.318520349684768,10.003442052491462,0,40000
980935,22797.0,24437.0,58853.0,53913.0,15.867297828207718,12.17492750002868,0,40000
980945,24929.0,22305.0,54961.0,57805.0,14.173286001975267,14.110916480023965,0,40000
980955,22747.0,24487.0,57609.0,55157.0,12.194266945436159,15.852439990848195,0,40000
980965,22849.0,24385.0,56861.0,55905.0,9.990052152019688,17.32624766070042,0,40000
980975,21603.0,25631.0,57979.0,54787.0,7.685931777361402,18.464193800806637,0,40000
980985,23300.0,23934.0,55794.0,56972.0,5.260584463695361,19.29575733419984,0,40000
980995,22191.0,25043.0,57539.0,55227.0,2.7552512503016158,19.809305655365897,0,40000
981005,24740.0,22494.0,55592.0,57174.0,0.15741116892929863,19.99938053350394,0,40000
981015,25126.0,26286.0,56798.0,51790.0,0.15741116892929863,19.99938053350394,0,40000
981025,35127.0,33197.0,47495.0,44181.0,-2.390278905088143,19.856650441499205,0,40000
981035,37138.0,37128.0,46456.0,39278.0,-4.923340759806702,19.384548376550484,0,40000
981045,48373.0,40297.0,37063.0,34267.0,-7.369837942539267,18.59261919958317,0,40000
981055,47346.0,45118.0,39906.0,27630.0,-9.688789170376683,17.496495775211432,0,40000
981065,65263.0,47503.0,23275.0,23959.0,-11.862957492174615,16.10187068445335,0,40000
981075,56995.0,53327.0,32365.0,17313.0,-13.863241701221378,14.415634898731188,0,40000
981085,65535.0,46459.0,24149.0,23085.0,-15.660692449013041,12.439562372423957,0,40000
981095,65535.0,46747.0,24363.0,22871.0,-17.157374873318222,10.277377460054126,0,40000
981105,65535.0,46565.0,24979.0,22255.0,-18.35803928964608,7.936144746651927,0,40000
981115,64364.0,48402.0,25086.0,22148.0,-19.227227119677394,5.505791249978708,0,40000
981125,63559.0,49207.0,26417.0,20817.0,-19.77759953367658,2.974316171074627,0,40000
981135,51501.0,61265.0,36401.0,10833.0,-19.996097133654807,0.3950941931262089,0,40000
981145,61843.0,50923.0,26503.0,20731.0,-19.882284385681963,-2.166741241326979,0,40000
981155,49213.0,63553.0,36191.0,11043.0,-19.43656437131019,-4.7138058339218,0,40000
981165,48378.0,64388.0,36900.0,10334.0,-18.64677831396316,-7.231712004077131,0,40000
981175,49838.0,62928.0,33752.0,13482.0,-17.52657120988291,-9.634277431385476,0,40000
981185,47245.0,65521.0,35883.0,11351.0,-16.148377385382,-11.79957235747479,0,40000
981195,48789.0,63643.0,31913.0,15655.0,-14.501210872876078,-13.77370259662886,0,40000
981205,45052.0,62436.0,35916.0,16596.0,-12.617932873866557,-15.517337722386454,0,40000
981215,43271.0,56509.0,37149.0,23071.0,-10.522487096320445,-17.008152906996386,0,40000
981225,38362.0,52462.0,42238.0,26938.0,-8.254704585307145,-18.217020947710118,0,40000
981235,36225.0,43765.0,43435.0,36575.0,-5.811198035210392,-19.13713608133586,0,40000
981245,30111.0,38699.0,50691.0,40499.0,-3.3047042090528356,-19.72508377905322,0,40000
981255,28522.0,35372.0,52382.0,43724.0,-0.7533298941078199,-19.985807315959082,0,40000
981265,24748.0,29648.0,56498.0,49106.0,1.8385371346650734,-19.915315242407225,0,40000
981275,23650.0,27806.0,57322.0,51222.0,4.40546616767907,-19.5087638728197,0,40000
981285,20684.0,26550.0,62290.0,50476.0,6.916111863475605,-18.766123645864962,0,40000
981295,21167.0,26067.0,61427.0,51339.0,6.916111863475605,-18.766123645864962,0,40000
981305,20096.0,27138.0,63028.0,49738.0,9.303620741873798,-17.704311370154322,0,40000
981315,20345.0,26889.0,62073.0,50693.0,13.528607734852132,-14.730131457543042,0,40000
981325,17879.0,29355.0,65437.0,47329.0,15.342047886848587,-12.8304936240834,0,40000
981335,18585.0,28649.0,64359.0,48407.0,15.342047886848587,-12.8304936240834,0,40000
981345,16818.0,30416.0,65535.0,46892.0,18.12051858560441,-8.464443643191505,0,40000
981355,16425.0,30809.0,65535.0,46321.0,18.12051858560441,-8.464443643191505,0,40000
981365,14823.0,32411.0,65535.0,45345.0,19.057432935520698,-6.0674747554588935,0,40000
981375,15184.0,32050.0,65535.0,45910.0,19.677088151501074,-3.579413622097346,0,40000
981385,7770.0,39464.0,65535.0,39464.0,19.976003118383325,-0.9794383157400911,0,40000
981395,7307.0,39927.0,65535.0,39927.0,19.930826680897773,1.661971063530695,0,40000
981405,7077.0,40157.0,65535.0,40157.0,19.554855581563743,4.196143846936766,0,40000
981415,6796.0,40438.0,65535.0,40438.0,18.849181298142213,6.686431364320264,0,40000
981425,8715.0,38519.0,65535.0,42459.0,17.835323154410883,9.049930827234817,0,40000
981435,10139.0,41191.0,65535.0,41263.0,16.494226420584386,11.311078409528243,0,40000
981445,22331.0,28233.0,55203.0,54233.0,14.890919676186146,13.351423564450808,0,40000
981455,25081.0,49039.0,52275.0,33605.0,13.058646682985431,15.148324884585541,0,40000
981465,33936.0,35666.0,44158.0,46240.0,11.005857532647628,16.699434121282778,0,40000
981475,34433.0,37801.0,43521.0,44245.0,8.77157086887,17.97385725136347,0,40000
981485,45188.0,41294.0,34422.0,39096.0,6.3954344948627275,18.94989228523265,0,40000
981495,46285.0,46409.0,33639.0,33667.0,3.91496998620283,19.613082623777707,0,40000
981505,55838.0,50584.0,25690.0,27888.0,1.3714163534523935,19.9529250283131,0,40000
981515,53057.0,54843.0,29203.0,22897.0,-1.2027297579728264,19.963803273156312,0,40000
981525,57687.0,55079.0,26351.0,20883.0,-3.7867276169036383,19.63824569444479,0,40000
981535,55192.0,57574.0,29548.0,17686.0,-6.275910634774894,18.989811628984615,0,40000
981545,56750.0,56016.0,28560.0,18674.0,-8.655718750588216,18.029934356805505,0,40000
981555,54165.0,58601.0,31197.0,16037.0,-10.926733442441241,16.751313270243507,0,40000
981565,52858.0,59908.0,32964.0,14270.0,-13.07008003869907,15.138461209185039,0,40000
981575,50989.0,61777.0,34437.0,12797.0,-14.940498474055415,13.295920628025268,0,40000
981585,52316.0,60450.0,32454.0,14780.0,-16.557507004299875,11.218242366902249,0,40000
981595,51823.0,60943.0,32139.0,15095.0,-17.857233035633847,9.006621359370401,0,40000
981605,51571.0,61195.0,32107.0,15127.0,-18.867102621990703,6.635694285549293,0,40000
981615,49225.0,63541.0,32777.0,14457.0,-19.568479395922466,4.132144011449498,0,40000
981625,49772.0,62994.0,31830.0,15404.0,-19.93697290340511,1.5865407176906747,0,40000
981635,51215.0,61551.0,29199.0,18035.0,-19.93697290340511,1.5865407176906747,0,40000
981645,61623.0,51143.0,17749.0,29485.0,-19.97157564479188,-1.065911002080322,0,40000
981655,51500.0,61266.0,26618.0,20616.0,-19.65557472221824,-3.6957248733225927,0,40000
981665,49579.0,60303.0,28513.0,21605.0,-19.021993016208107,-6.1776841689527995,0,40000
981675,45412.0,52412.0,31872.0,30304.0,-18.0716563019909,-8.568269282808087,0,40000
981685,47084.0,35660.0,29014.0,48242.0,-16.823359358407053,-10.815478717925425,0,40000
981695,37346.0,43946.0,39272.0,39436.0,-15.293194256743243,-12.888685325723312,0,40000
981705,32808.0,23610.0,43246.0,60336.0,-13.527857468169596,-14.730820490416956,0,40000
981715,27003.0,31653.0,49241.0,52103.0,-11.507931948867373,-16.357490707936762,0,40000
981725,26113.0,21121.0,50367.0,62399.0,-9.297626337110822,-17.707460136774646,0,40000
981735,24337.0,22897.0,53473.0,59293.0,-6.948486781111967,-18.754160377172642,0,40000
981745,20386.0,26848.0,57592.0,55174.0,-4.4794895801191075,-19.491900192172245,0,40000
981755,21758.0,25476.0,58220.0,54546.0,-1.9212797118474456,-19.907503215341784,0,40000
981765,18609.0,28625.0,61511.0,51255.0,0.6491912507932966,-19.989460991229688,0,40000
981775,16500.0,30734.0,65140.0,47626.0,3.2078631629311873,-19.74106415388768,0,40000
981785,18662.0,28572.0,64060.0,48706.0,5.740118935523402,-19.158576006740315,0,40000
981795,14653.0,32581.0,65535.0,44953.0,8.154701043236882,-18.262005664642405,0,40000
981805,17899.0,29335.0,65535.0,45991.0,10.424577640939878,-17.068338554411685,0,40000
981815,14427.0,32807.0,65535.0,42239.0,12.511827235954435,-15.603018272681373,0,40000
981825,16467.0,30767.0,65535.0,43529.0,14.412020859567829,-13.866998764815037,0,40000
981835,14753.0,32481.0,65535.0,42171.0,16.067433956770415,-11.90955776025378,0,40000
981845,15683.0,31551.0,65535.0,43093.0,17.465258205522296,-9.744986188519517,0,40000
981855,15246.0,31988.0,65535.0,43006.0,18.574834808934778,-7.414547310577015,0,40000
981865,17052.0,30182.0,65535.0,44962.0,19.371917719571876,-4.972806437630279,0,40000
981875,17521.0,29713.0,65535.0,46151.0,19.850176920627362,-2.4434557945239854,0,40000
981885,17477.0,29757.0,65535.0,46933.0,19.999092852952185,0.19048637483247888,0,40000
981895,17741.0,29493.0,64421.0,48345.0,19.805581288052533,2.78189680655905,0,40000
981905,18468.0,28766.0,63062.0,49704.0,19.277358070512683,5.327613520258345,0,40000
981915,20302.0,26932.0,60190.0,52576.0,18.408263581066745,7.81894058872247,0,40000
981925,19963.0,27271.0,60145.0,52621.0,17.227939819256616,10.158646050732953,0,40000
981935,21590.0,25644.0,57164.0,55602.0,15.786851996798607,12.27905957438011,0,40000
981945,20980.0,26254.0,57346.0,55420.0,14.051300335788742,14.232391186074924,0,40000
981955,23585.0,23649.0,54559.0,58207.0,12.094955283172695,15.92834130404208,0,40000
981965,22445.0,24789.0,55989.0,56777.0,9.959877082514334,17.343611172452114,0,40000
981975,27373.0,24267.0,51181.0,57179.0,7.646083696409981,18.48073061617136,0,40000
981985,32487.0,42167.0,47139.0,38207.0,7.646083696409981,18.48073061617136,0,40000
981995,39159.0,34639.0,41315.0,44887.0,5.197831655716324,19.312756045651106,0,40000
982005,48655.0,50849.0,33305.0,27191.0,2.614761590441375,19.828338856927793,0,40000
982015,57607.0,55159.0,25401.0,21833.0,0.025945839642440155,19.99998317032805,0,40000
982025,56963.0,55803.0,28099.0,19135.0,-2.5798263419909495,19.832914461701527,0,40000
982035,60254.0,52512.0,26436.0,20798.0,-5.092909443854311,19.340689579141163,0,40000
982045,58739.0,54027.0,28699.0,18535.0,-7.534708922585388,18.52641793364039,0,40000
982055,56363.0,56403.0,32481.0,14753.0,-9.930087945463548,17.360684128091254,0,40000
982065,54395.0,58371.0,33935.0,13299.0,-12.184385659516206,15.860036131742445,0,40000
982075,53076.0,59690.0,36442.0,10792.0,-14.180259991213351,14.103908202395319,0,40000
982085,52035.0,60731.0,36183.0,11051.0,-15.889849647357249,12.14547974286651,0,40000
982095,53202.0,59564.0,36080.0,11154.0,-17.316362043767622,10.00717770248755,0,40000
982105,51749.0,61017.0,35369.0,11865.0,-18.468106077916914,7.67652642116266,0,40000
982115,51555.0,61211.0,35691.0,11543.0,-19.296371881742267,5.258329792006801,0,40000
982125,51266.0,61500.0,34090.0,13144.0,-19.812405110997982,2.7328746253169074,0,40000
982135,50035.0,62731.0,34825.0,12409.0,-19.999214064321155,0.17730428494220324,0,40000
982145,51194.0,61572.0,32450.0,14784.0,-19.85480407301547,-2.405567546789807,0,40000
982155,50161.0,62605.0,32537.0,14697.0,-19.359867848771707,-5.0195136097131545,0,40000
982165,50672.0,62094.0,30648.0,16586.0,-18.55506506812428,-7.4638837288421245,0,40000
982175,49991.0,62775.0,30815.0,16419.0,-17.424435456045565,-9.817792472755887,0,40000
982185,49357.0,59839.0,30167.0,20637.0,-16.02659148181867,-11.96446260702491,0,40000
982195,42770.0,56716.0,36670.0,23844.0,-14.312189135131268,-13.97001224624483,0,40000
982205,42802.0,51574.0,36350.0,29274.0,-12.400392036800593,-15.691726397488978,0,40000
982215,34946.0,46050.0,43988.0,35016.0,-10.282517444692068,-17.154294943238074,0,40000
982225,33038.0,40354.0,45550.0,41058.0,-7.996713274079986,-18.331736873852215,0,40000
982235,24155.0,34231.0,54951.0,46663.0,-5.583916673945486,-19.20468366254528,0,40000
982245,23105.0,28541.0,56705.0,51649.0,-3.0774378478739752,-19.761816118273966,0,40000
982255,19014.0,28220.0,61072.0,51694.0,-3.0774378478739752,-19.761816118273966,0,40000
982265,21735.0,25499.0,60127.0,52639.0,2.065864428192217,-19.8930189806457,0,40000
982275,18613.0,28621.0,63251.0,49515.0,2.065864428192217,-19.8930189806457,0,40000
982285,20238.0,26996.0,62752.0,50014.0,4.616614666298441,-19.459878443169117,0,40000
982295,16850.0,30384.0,65535.0,46762.0,7.078675240394071,-18.70540982820296,0,40000
982305,18664.0,28570.0,65535.0,46784.0,9.426402175232408,-17.639244372443333,0,40000
982315,15172.0,32062.0,65535.0,43344.0,11.608814911968055,-16.286049746321794,0,40000
982325,10149.0,37085.0,65535.0,37283.0,13.64964239928668,-14.618045778133112,0,40000
982335,9807.0,37427.0,65535.0,37427.0,15.422736593962856,-12.733389020729673,0,40000
982345,10387.0,36847.0,65535.0,36847.0,16.94208985476587,-10.628527242898674,0,40000
982355,9819.0,37415.0,65535.0,37415.0,18.168709229207735,-8.360502672955834,0,40000
982365,9944.0,37290.0,65535.0,37290.0,19.093090822475038,-5.954316320512331,0,40000
982375,18739.0,28495.0,65377.0,47389.0,19.710195660658005,-3.392371886833503,0,40000
982385,18684.0,28550.0,65535.0,46878.0,19.983294510388355,-0.8172762758594356,0,40000
982395,19549.0,27685.0,63769.0,48997.0,19.917466222451765,1.8150865757569319,0,40000
982405,20247.0,26987.0,62125.0,50641.0,19.49926849112533,4.4473057361740755,0,40000
982415,21773.0,25461.0,59447.0,53319.0,18.768940152110382,6.908464776381128,0,40000
982425,21440.0,25794.0,58802.0,53964.0,17.702638633855983,9.30680317827285,0,40000
982435,25273.0,21961.0,54983.0,57783.0,16.352006784756153,11.515722908757782,0,40000
982445,23280.0,23954.0,56370.0,56396.0,14.734467674788828,13.523884883442447,0,40000
982455,26471.0,20763.0,52983.0,59783.0,12.801374318733163,15.36635335893585,0,40000
982465,23232.0,24002.0,55558.0,57208.0,10.71705801503022,16.88622715417735,0,40000
982475,26064.0,21170.0,53668.0,59098.0,8.457222389072118,18.12389002013026,0,40000
982485,25998.0,26034.0,53964.0,54004.0,6.061479255562611,19.059340734516084,0,40000
982495,35961.0,28257.0,45315.0,50467.0,3.5610185182495355,19.68042548098704,0,40000
982505,37369.0,33827.0,44703.0,44101.0,1.0067884865504784,19.974643349590735,0,40000
982515,47762.0,38060.0,35684.0,38494.0,-1.5567325421302805,19.939322550986343,0,40000
982525,45837.0,44279.0,39213.0,30671.0,-4.108865672934261,19.57338046638297,0,40000
982535,55461.0,50111.0,30909.0,23519.0,-6.59939176281127,18.879831258804693,0,40000
982545,52938.0,54540.0,34456.0,18066.0,-8.973435049714643,17.87393251102154,0,40000
982555,57120.0,55646.0,31110.0,16124.0,-11.191688103253464,16.575467335779553,0,40000
982565,54399.0,58367.0,34191.0,13043.0,-13.254778348330639,14.977010747696795,0,40000
982575,54642.0,58124.0,34744.0,12490.0,-13.254778348330639,14.977010747696795,0,40000
982585,53586.0,59180.0,35158.0,12076.0,-15.076893553124728,13.141053260212667,0,40000
982595,52037.0,60729.0,36005.0,11229.0,-16.639738337978013,11.095905012373922,0,40000
982605,51958.0,60808.0,35736.0,11498.0,-17.96691367816949,8.78578470491999,0,40000
982615,50254.0,62512.0,36664.0,10570.0,-18.94557673657863,6.408207402886607,0,40000
982625,50964.0,61802.0,34500.0,12734.0,-19.613563384081484,3.9125607188410556,0,40000
982635,59139.0,53627.0,25279.0,21955.0,-19.95799104145991,1.295605491268851,0,40000
982645,61133.0,51633.0,22707.0,24527.0,-19.956202357803324,-1.3228709137345822,0,40000
982655,59674.0,53092.0,23134.0,24100.0,-19.62253731759017,-3.8673025767039855,0,40000
982665,59380.0,51660.0,21654.0,27306.0,-18.965394990448946,-6.349314361114441,0,40000
982675,55930.0,48418.0,24862.0,30790.0,-17.99882890620567,-8.72021547928348,0,40000
982685,51070.0,40872.0,29402.0,38656.0,-16.733974308247312,-10.953269094243915,0,40000
982695,42421.0,38043.0,36801.0,42735.0,-15.177317763007654,-13.024938599497977,0,40000
982705,39897.0,32373.0,38763.0,48967.0,-13.385607245000653,-14.86019914680103,0,40000
982715,30933.0,25871.0,48375.0,54821.0,-11.346435379759347,-16.46992423094124,0,40000
982725,30369.0,37385.0,48441.0,43805.0,-9.147155225810682,-17.78565577297965,0,40000
982735,23529.0,30359.0,56367.0,49745.0,-6.786689016203207,-18.813315821442714,0,40000
982745,23790.0,29180.0,55844.0,51186.0,-4.30902981058345,-19.53029088599305,0,40000
982755,21543.0,25691.0,59343.0,53423.0,-1.717916344178051,-19.92608249090638,0,40000
982765,21201.0,26033.0,59803.0,52963.0,0.846612210846472,-19.982073159821173,0,40000
982775,18841.0,28393.0,63409.0,49357.0,3.4016428093423112,-19.70859777350103,0,40000
982785,19573.0,27661.0,62863.0,49903.0,5.8799634522572,-19.116119632397147,0,40000
982795,15929.0,31305.0,65535.0,45343.0,8.279366815600822,-18.20582558228898,0,40000
982805,16459.0,30775.0,65535.0,45001.0,10.5515683496245,-16.99012670238814,0,40000
982815,14965.0,32269.0,65535.0,43051.0,12.64780303602292,-15.493000947588218,0,40000
982825,14010.0,33224.0,65535.0,41700.0,14.524011492614793,-13.749657819829315,0,40000
982835,13292.0,33942.0,65535.0,40506.0,16.162824300310824,-11.779775491802969,0,40000
982845,14600.0,32634.0,65535.0,42220.0,17.543084926171083,-9.60417467943753,0,40000
982855,12996.0,34238.0,65535.0,40096.0,18.633965884819666,-7.2646620983619625,0,40000
982865,15967.0,31267.0,65535.0,43881.0,19.409300589514075,-4.824836849665349,0,40000
982875,16648.0,30586.0,65535.0,45138.0,19.868017993677686,-2.2938746702685533,0,40000
982885,17031.0,30203.0,65535.0,46811.0,19.997940491959074,0.2870123343406588,0,40000
982895,19635.0,27599.0,63159.0,49607.0,19.79531485288504,2.854033965311031,0,40000
982905,19770.0,27464.0,61724.0,51042.0,19.266045902418075,5.368377341983308,0,40000
982915,22545.0,24689.0,58813.0,53953.0,18.417760910216742,7.796543019447283,0,40000
982925,21701.0,25533.0,57931.0,54835.0,18.417760910216742,7.796543019447283,0,40000
982935,25285.0,21949.0,54547.0,58219.0,15.835289567871506,12.216529961558635,0,40000
982945,23353.0,23881.0,55029.0,57737.0,15.835289567871506,12.216529961558635,0,40000
982955,27763.0,19471.0,51761.0,61005.0,14.089966361636353,14.194113143411112,0,40000
982965,24005.0,23229.0,54307.0,58459.0,12.111985189037643,15.915395526989984,0,40000
982975,32388.0,21564.0,47584.0,58464.0,9.969956111796826,17.337819214908347,0,40000
982985,32246.0,27726.0,47782.0,52246.0,7.5777058696392805,18.508872838539748,0,40000
982995,42730.0,34094.0,39322.0,43854.0,5.158069408564815,19.323413776463717,0,40000
983005,41316.0,41688.0,41586.0,35410.0,2.6391758041320585,19.825104062145144,0,40000
983015,58039.0,54727.0,26639.0,20595.0,0.055067443861656254,19.999924189271983,0,40000
983025,55791.0,56975.0,30143.0,17091.0,-2.5637225306288287,19.835002565816474,0,40000
983035,59596.0,53170.0,27576.0,19658.0,-5.086013570891234,19.342504128388086,0,40000
983045,57458.0,55308.0,30860.0,16374.0,-7.521329967874369,18.531853536933507,0,40000
983055,58503.0,54263.0,29791.0,17443.0,-9.822855903155393,17.421581498412976,0,40000
983065,58039.0,54727.0,30791.0,16443.0,-11.976367412410116,16.01769720037687,0,40000
983075,59647.0,53119.0,28577.0,18657.0,-13.93162734981704,14.349556069294614,0,40000
983085,60037.0,52729.0,28195.0,19039.0,-15.650363370035405,12.452555014367697,0,40000
983095,59569.0,53197.0,28323.0,18911.0,-17.120376096615686,10.33889366955818,0,40000
983105,50434.0,62332.0,36812.0,10422.0,-18.302578252514945,8.063226978732956,0,40000
983115,50599.0,62167.0,35609.0,11625.0,-19.188256466696828,5.640107602543358,0,40000
983125,50856.0,61910.0,33902.0,13332.0,-19.75176430310341,3.141306561711194,0,40000
983135,49334.0,63432.0,34936.0,12298.0,-19.993841811858896,0.49627573219221377,0,40000
983145,50881.0,61885.0,31835.0,15399.0,-19.853257648010285,-2.4182970788803413,0,40000
983155,51179.0,61587.0,30709.0,16525.0,-19.374314173826395,-4.96346152335945,0,40000
983165,52139.0,60627.0,29331.0,17903.0,-18.567116375150306,-7.4338542837229,0,40000
983175,50372.0,62394.0,30090.0,17144.0,-17.457106273830092,-9.759581986140699,0,40000
983185,49247.0,56539.0,30235.0,23979.0,-16.01450314452829,-11.980638089596628,0,40000
983195,42034.0,51834.0,37392.0,28740.0,-14.316959763639927,-13.965123097427941,0,40000
983205,38920.0,46656.0,39658.0,34766.0,-12.401426302343433,-15.69090901342381,0,40000
983215,31669.0,40887.0,46955.0,40489.0,-10.29484964112507,-17.146896829065806,0,40000
983225,29582.0,37626.0,49368.0,43424.0,-10.29484964112507,-17.146896829065806,0,40000
983235,21379.0,30955.0,58109.0,49557.0,-7.948848241820873,-18.352542375063493,0,40000
983245,22146.0,28204.0,57074.0,52576.0,-5.47853816182246,-19.235010257586424,0,40000
983255,19072.0,28162.0,62278.0,50488.0,-2.967442434759329,-19.77863204057322,0,40000
983265,19503.0,27731.0,61579.0,51187.0,-0.33368525952114436,-19.99721615994532,0,40000
983275,17147.0,30087.0,65535.0,46613.0,2.2233819579132232,-19.876030103348757,0,40000
983285,17823.0,29411.0,64493.0,48273.0,4.747573862942972,-19.428343789831924,0,40000
983295,15681.0,31553.0,65535.0,43061.0,7.195049441822566,-18.660955589940425,0,40000
983305,14953.0,32281.0,65535.0,43353.0,9.542620518165123,-17.576643412389465,0,40000
983315,14504.0,32730.0,65535.0,41044.0,11.716151402314207,-16.209003557222474,0,40000
983325,10212.0,37022.0,65535.0,37022.0,13.707041424837364,-14.564237548797138,0,40000
983335,11155.0,36079.0,65535.0,36079.0,15.463439718403698,-12.683928101156006,0,40000
983345,10255.0,36979.0,65535.0,36979.0,16.96710369984192,-10.588550044213354,0,40000
983355,10852.0,36382.0,65535.0,36382.0,18.18023927078422,-8.335400413719501,0,40000
983365,10183.0,37051.0,65535.0,37051.0,19.103621748737275,-5.920442220068715,0,40000
983375,10301.0,36933.0,65535.0,36933.0,19.706463883566634,-3.4139831876685944,0,40000
983385,9811.0,37423.0,65535.0,37423.0,19.981072891475602,-0.8699000549136827,0,40000
983395,9672.0,37562.0,65535.0,37562.0,19.928583034675377,1.688661668318666,0,40000
983405,20365.0,26869.0,63117.0,49649.0,19.53333278624474,4.295219466082766,0,40000
983415,22146.0,25088.0,60250.0,52516.0,18.8030668110282,6.815033272113194,0,40000
983425,23001.0,24233.0,58217.0,54549.0,17.77176821214828,9.174107837478033,0,40000
983435,26004.0,21230.0,54558.0,58208.0,16.447762460147498,11.378537254610663,0,40000
983445,25265.0,21969.0,54807.0,57959.0,14.855185100814667,13.391171555190155,0,40000
983455,27977.0,19257.0,52233.0,60533.0,12.955184038979304,15.236902786202185,0,40000
983465,26473.0,20761.0,52745.0,60021.0,10.838603796129076,16.808470119274283,0,40000
983475,28706.0,18528.0,51214.0,61552.0,8.59430349552145,18.05928978190637,0,40000
983485,26918.0,20316.0,53024.0,59742.0,6.227814684771731,19.00563927501892,0,40000
983495,33587.0,23939.0,47557.0,54917.0,3.73929376774984,19.64733269730187,0,40000
983505,33601.0,29939.0,48661.0,47799.0,1.1659429406902204,19.965985501824214,0,40000
983515,44480.0,34896.0,39440.0,41184.0,-1.4059073962394273,19.950524413989704,0,40000
983525,46700.0,40836.0,38584.0,33880.0,-3.9529228161242678,19.60546865570329,0,40000
983535,47210.0,45658.0,39322.0,27810.0,-6.41513194025467,18.943233150365973,0,40000
983545,57464.0,52586.0,31022.0,18928.0,-8.79810967943444,17.960881550431814,0,40000
983555,54109.0,56343.0,34775.0,14773.0,-8.79810967943444,17.960881550431814,0,40000
983565,54333.0,58433.0,35175.0,12059.0,-11.023912803891289,16.68752068140147,0,40000
983575,52979.0,59787.0,36633.0,10601.0,-13.114517444813611,15.099981198322052,0,40000
983585,52420.0,60346.0,37878.0,9356.0,-14.945875020801193,13.289876593203974,0,40000
983595,50924.0,61842.0,38698.0,8536.0,-16.529289261710982,11.25977781764303,0,40000
983605,50742.0,62024.0,38496.0,8738.0,-17.849698165857415,9.021545066549658,0,40000
983615,58954.0,53812.0,28984.0,18250.0,-18.880523180209096,6.59741195027164,0,40000
983625,58395.0,54371.0,28689.0,18545.0,-19.571063007772416,4.119889894863958,0,40000
983635,61036.0,51730.0,24988.0,22246.0,-19.937971879626577,1.573936887940506,0,40000
983645,60006.0,52760.0,25042.0,22192.0,-19.975147573641095,-0.9967343734718117,0,40000
983655,62198.0,50568.0,22004.0,25230.0,-19.665926815968668,-3.6402365951905407,0,40000
983665,60598.0,52168.0,22220.0,25014.0,-19.035661066323215,-6.135438677720334,0,40000
983675,50736.0,62030.0,31448.0,15786.0,-18.087566715198015,-8.534631235341156,0,40000
983685,50019.0,62747.0,31779.0,15455.0,-16.831941057405594,-10.802118321885937,0,40000
983695,50025.0,59211.0,31151.0,19613.0,-15.306469769696537,-12.872916654331528,0,40000
983705,43350.0,56596.0,36596.0,23458.0,-13.524900193085916,-14.733535718457556,0,40000
983715,39830.0,49136.0,40428.0,30606.0,-11.486064130436107,-16.37285347126484,0,40000
983725,33567.0,41815.0,46831.0,37787.0,-9.2770356717149,-17.71825637995255,0,40000
983735,32313.0,38473.0,47729.0,41485.0,-6.934493907621554,-18.759338854159,0,40000
983745,26124.0,32760.0,54560.0,46556.0,-4.48042395623493,-19.491685436934286,0,40000
983755,25750.0,28552.0,55872.0,49826.0,-1.946447937076684,-19.905058161890658,0,40000
983765,20892.0,26342.0,61072.0,51694.0,0.632721406316685,-19.98998908508928,0,40000
983775,22348.0,24886.0,59778.0,52988.0,3.2154335301437946,-19.739832502157334,0,40000
983785,21079.0,26155.0,61647.0,51119.0,5.70618645382102,-19.168709819761723,0,40000
983795,21792.0,25442.0,61754.0,51012.0,8.137955135821718,-18.269474163405825,0,40000
983805,19015.0,28219.0,65109.0,47657.0,10.422327491478143,-17.06971264141195,0,40000
983815,18494.0,28740.0,65535.0,47128.0,12.527668189103917,-15.590302426306994,0,40000
983825,16816.0,30418.0,65535.0,44344.0,14.42481098445931,-13.853693661353352,0,40000
983835,14954.0,32280.0,65535.0,43068.0,16.08657422863017,-11.883691749063996,0,40000
983845,14118.0,33116.0,65535.0,41876.0,17.51148233694557,-9.661676167355406,0,40000
983855,14427.0,32807.0,65535.0,42855.0,18.603638558146326,-7.341977417416321,0,40000
983865,13238.0,33996.0,65535.0,40936.0,19.403112217068475,-4.849663523570279,0,40000
983875,14185.0,33049.0,65535.0,42511.0,19.86540741881025,-2.3163739086509247,0,40000
983885,14478.0,32756.0,65535.0,43316.0,19.86540741881025,-2.3163739086509247,0,40000
983895,14621.0,32613.0,65535.0,44493.0,19.793995915567237,2.8631670741519137,0,40000
983905,15542.0,31692.0,65535.0,45806.0,19.793995915567237,2.8631670741519137,0,40000
983915,15825.0,31409.0,65535.0,47141.0,19.259291544142204,5.392558689317404,0,40000
983925,19548.0,27686.0,61138.0,51628.0,18.4052402541235,7.826054637426959,0,40000
