timestamp,motor.m1,motor.m2,motor.m3,motor.m4,roll,pitch,yawdot,thrust
1514082,7259.0,39975.0,65535.0,39975.0,0,0,0,40000
1514092,7459.0,39775.0,65535.0,39775.0,0,0,0,40000
1514102,7614.0,39620.0,65535.0,39620.0,0,0,0,40000
1514112,7796.0,39438.0,65535.0,39438.0,0,0,0,40000
1514122,7777.0,39457.0,65535.0,39457.0,0,0,0,40000
1514132,7861.0,39373.0,65535.0,39373.0,0,0,0,40000
1514142,7695.0,39539.0,65535.0,39539.0,0,0,0,40000
1514152,7623.0,39611.0,65535.0,39611.0,0,0,0,40000
1514162,7623.0,39611.0,65535.0,39611.0,0,0,0,40000
1514172,7279.0,39955.0,65535.0,39955.0,0,0,0,40000
1514182,6959.0,40275.0,65535.0,40275.0,0,0,0,40000
1514192,8420.0,38814.0,65535.0,42622.0,0,0,0,40000
1514202,18519.0,28715.0,59241.0,53525.0,0,0,0,40000
1514212,22697.0,24537.0,53487.0,59279.0,0,0,0,40000
1514222,35670.0,11564.0,38902.0,65535.0,0,0,0,40000
1514232,35525.0,11709.0,37533.0,65535.0,0,0,0,40000
1514242,35767.0,11467.0,35767.0,65535.0,0,0,0,40000
1514252,34945.0,12289.0,34945.0,65535.0,0,0,0,40000
1514262,39451.0,18177.0,29057.0,65535.0,0,0,0,40000
1514272,39971.0,19559.0,27675.0,65535.0,0,0,0,40000
1514282,46217.0,25653.0,21581.0,65535.0,0,0,0,40000
1514292,47136.0,26268.0,20966.0,65535.0,0,0,0,40000
1514302,52707.0,30991.0,16243.0,60059.0,0,0,0,40000
1514312,47754.0,36344.0,21654.0,54248.0,0,0,0,40000
1514322,49533.0,45637.0,21919.0,42911.0,0,0,0,40000
1514332,38775.0,56081.0,33885.0,31259.0,0,0,0,40000
1514342,38433.0,65535.0,35653.0,19993.0,0,0,0,40000
1514352,30332.0,65535.0,43654.0,16902.0,0,0,0,40000
1514362,35505.0,65535.0,39489.0,11729.0,0,0,0,40000
1514372,33444.0,65535.0,41134.0,13790.0,0,0,0,40000
1514382,37514.0,65535.0,37514.0,9720.0,0,0,0,40000
1514392,34592.0,65535.0,39538.0,12642.0,0,0,0,40000
1514402,35994.0,65535.0,38042.0,11240.0,0,0,0,40000
1514412,33255.0,65535.0,40025.0,13979.0,0,0,0,40000
1514422,34420.0,65535.0,38936.0,12814.0,0,0,0,40000
1514432,32252.0,65535.0,41134.0,14982.0,0,0,0,40000
1514442,33216.0,65535.0,40678.0,14018.0,0,0,0,40000
1514452,30910.0,65535.0,43742.0,16324.0,0,0,0,40000
1514462,30589.0,65535.0,44965.0,16645.0,0,0,0,40000
1514472,30187.0,62885.0,46337.0,20591.0,0,0,0,40000
1514482,37601.0,55713.0,39829.0,26857.0,0,0,0,40000
1514492,37276.0,47326.0,41408.0,33990.0,0,0,0,40000
1514502,46256.0,38238.0,33174.0,42332.0,0,0,0,40000
1514512,47897.0,35037.0,32521.0,44545.0,0,0,0,40000
1514522,49900.0,21560.0,31124.0,57416.0,0,0,0,40000
1514532,47746.0,27326.0,33586.0,51342.0,0,0,0,40000
1514542,46625.0,18851.0,33749.0,60775.0,0,0,0,40000
1514552,43405.0,24467.0,37111.0,55017.0,0,0,0,40000
1514562,39873.0,24453.0,39461.0,56213.0,0,0,0,40000
1514572,35946.0,28684.0,43802.0,51568.0,0,0,0,40000
1514582,29452.0,27068.0,48516.0,54964.0,0,0,0,40000
1514592,23009.0,31209.0,55151.0,50631.0,0,0,0,40000
1514602,18972.0,30578.0,58802.0,51648.0,0,0,0,40000
1514612,17651.0,37159.0,59363.0,45827.0,0,0,0,40000
1514622,14280.0,37238.0,63578.0,44904.0,0,0,0,40000
1514632,13829.0,40283.0,63053.0,42835.0,0,0,0,40000
1514642,11412.0,37804.0,65535.0,43944.0,0,0,0,40000
1514652,14125.0,39835.0,64221.0,41819.0,0,0,0,40000
1514662,13632.0,38940.0,65152.0,42276.0,0,0,0,40000
1514672,18674.0,38918.0,60040.0,42368.0,0,0,0,40000
1514682,20262.0,36560.0,59342.0,43836.0,0,0,0,40000
1514692,23750.0,37212.0,55638.0,43400.0,0,0,0,40000
1514702,28167.0,33771.0,51531.0,46531.0,0,0,0,40000
1514712,30350.0,33934.0,48860.0,46856.0,0,0,0,40000
1514722,32935.0,31681.0,47023.0,48361.0,0,0,0,40000
1514732,35092.0,34384.0,44330.0,46194.0,0,0,0,40000
1514742,38709.0,33995.0,41401.0,45895.0,0,0,0,40000
1514752,37192.0,37450.0,42666.0,42692.0,0,0,0,40000
1514762,40159.0,36413.0,40489.0,42939.0,0,0,0,40000
1514772,37123.0,40483.0,43123.0,39271.0,0,0,0,40000
1514782,39677.0,41783.0,41723.0,36817.0,0,0,0,40000
1514792,38418.0,44830.0,42436.0,34316.0,0,0,0,40000
1514802,39829.0,46417.0,42633.0,31121.0,0,0,0,40000
1514812,38681.0,46355.0,43029.0,31935.0,0,0,0,40000
1514822,38423.0,48163.0,43843.0,29571.0,0,0,0,40000
1514832,37511.0,48687.0,44179.0,29623.0,0,0,0,40000
1514842,38514.0,49746.0,43478.0,28262.0,0,0,0,40000
1514852,37982.0,48780.0,43422.0,29816.0,0,0,0,40000
1514862,38911.0,48847.0,42435.0,29807.0,0,0,0,40000
1514872,39288.0,45336.0,41878.0,33498.0,0,0,0,40000
1514882,39740.0,45728.0,41118.0,33414.0,0,0,0,40000
1514892,39501.0,45573.0,41211.0,33715.0,0,0,0,40000
1514902,40362.0,44046.0,39766.0,35826.0,0,0,0,40000
1514912,39603.0,41599.0,40355.0,38443.0,0,0,0,40000
1514922,39515.0,40823.0,40327.0,39335.0,0,0,0,40000
1514932,38382.0,39976.0,41550.0,40092.0,0,0,0,40000
1514942,38751.0,38579.0,40671.0,41999.0,0,0,0,40000
1514952,37040.0,39324.0,42392.0,41244.0,0,0,0,40000
1514962,34981.0,38271.0,44235.0,42513.0,0,0,0,40000
1514972,34341.0,38791.0,44357.0,42511.0,0,0,0,40000
1514982,32284.0,38054.0,46306.0,43356.0,0,0,0,40000
1514992,31640.0,39594.0,46588.0,42178.0,0,0,0,40000
1515002,30351.0,38275.0,48155.0,43219.0,0,0,0,40000
1515012,29128.0,39812.0,48902.0,42158.0,0,0,0,40000
1515022,27730.0,39418.0,50548.0,42304.0,0,0,0,40000
1515032,29522.0,39556.0,49198.0,41724.0,0,0,0,40000
1515042,28358.0,38424.0,49970.0,43248.0,0,0,0,40000
1515052,29112.0,38858.0,49368.0,42662.0,0,0,0,40000
1515062,28804.0,39124.0,50034.0,42038.0,0,0,0,40000
1515072,31166.0,38158.0,47930.0,42746.0,0,0,0,40000
1515082,30315.0,38045.0,48241.0,43399.0,0,0,0,40000
1515092,32600.0,37308.0,46306.0,43786.0,0,0,0,40000
1515102,32559.0,36505.0,46681.0,44255.0,0,0,0,40000
1515112,33178.0,36936.0,46216.0,43670.0,0,0,0,40000
1515122,33530.0,37582.0,45650.0,43238.0,0,0,0,40000
1515132,34196.0,39726.0,44940.0,41138.0,0,0,0,40000
1515142,34485.0,38631.0,45451.0,41433.0,0,0,0,40000
1515152,34688.0,39278.0,45302.0,40732.0,0,0,0,40000
1515162,34650.0,40058.0,44798.0,40494.0,0,0,0,40000
1515172,35510.0,40902.0,44794.0,38794.0,0,0,0,40000
1515182,34741.0,41463.0,45207.0,38589.0,0,0,0,40000
1515192,35341.0,41457.0,45085.0,38117.0,0,0,0,40000
1515202,35333.0,42993.0,44719.0,36955.0,0,0,0,40000
1515212,36074.0,42708.0,44272.0,36946.0,0,0,0,40000
1515222,36549.0,43115.0,43529.0,36807.0,0,0,0,40000
1515232,36114.0,41986.0,44430.0,37470.0,0,0,0,40000
1515242,36377.0,42643.0,43367.0,37613.0,0,0,0,40000
1515252,37131.0,41173.0,43535.0,38161.0,0,0,0,40000
1515262,37541.0,41057.0,42559.0,38843.0,0,0,0,40000
1515272,36406.0,41678.0,44106.0,37810.0,0,0,0,40000
1515282,36586.0,41406.0,42890.0,39118.0,0,0,0,40000
1515292,36473.0,41735.0,43693.0,38099.0,0,0,0,40000
1515302,35174.0,41574.0,44398.0,38854.0,0,0,0,40000
1515312,35723.0,40891.0,44025.0,39361.0,0,0,0,40000
1515322,35609.0,40073.0,44095.0,40223.0,0,0,0,40000
1515332,36107.0,40055.0,43559.0,40279.0,0,0,0,40000
1515342,35712.0,40112.0,43858.0,40318.0,0,0,0,40000
1515352,35308.0,38366.0,44394.0,41932.0,0,0,0,40000
1515362,34463.0,38921.0,44837.0,41779.0,0,0,0,40000
1515372,33912.0,38536.0,45910.0,41642.0,0,0,0,40000
1515382,33688.0,39754.0,45536.0,41022.0,0,0,0,40000
1515392,33921.0,38919.0,45527.0,41633.0,0,0,0,40000
1515402,32535.0,39307.0,46791.0,41367.0,0,0,0,40000
1515412,32034.0,40272.0,47090.0,40604.0,0,0,0,40000
1515422,31717.0,40173.0,47807.0,40303.0,0,0,0,40000
1515432,32575.0,40985.0,46899.0,39541.0,0,0,0,40000
1515442,32814.0,41102.0,46526.0,39558.0,0,0,0,40000
1515452,32847.0,39991.0,46643.0,40519.0,0,0,0,40000
1515462,32499.0,40039.0,46835.0,40627.0,0,0,0,40000
1515472,33828.0,38676.0,46222.0,41274.0,0,0,0,40000
1515482,34564.0,39246.0,44412.0,41778.0,0,0,0,40000
1515492,35399.0,39139.0,44821.0,40641.0,0,0,0,40000
1515502,34772.0,40074.0,44518.0,40636.0,0,0,0,40000
1515512,35415.0,39029.0,44729.0,40827.0,0,0,0,40000
1515522,34136.0,41046.0,44858.0,39960.0,0,0,0,40000
1515532,34875.0,39931.0,45719.0,39475.0,0,0,0,40000
1515542,34662.0,42150.0,44096.0,39092.0,0,0,0,40000
1515552,34930.0,41142.0,45622.0,38306.0,0,0,0,40000
1515562,34534.0,41304.0,44662.0,39500.0,0,0,0,40000
1515572,36199.0,40911.0,44037.0,38853.0,0,0,0,40000
1515582,36355.0,40741.0,43115.0,39789.0,0,0,0,40000
1515592,36665.0,40051.0,43115.0,40169.0,0,0,0,40000
1515602,36882.0,40668.0,43162.0,39288.0,0,0,0,40000
1515612,36582.0,40754.0,43448.0,39216.0,0,0,0,40000
1515622,36037.0,41583.0,44273.0,38107.0,0,0,0,40000
1515632,35609.0,41525.0,44253.0,38613.0,0,0,0,40000
1515642,35579.0,40883.0,44569.0,38969.0,0,0,0,40000
1515652,36486.0,41576.0,43488.0,38450.0,0,0,0,40000
1515662,35810.0,41220.0,43780.0,39190.0,0,0,0,40000
1515672,35602.0,41108.0,44036.0,39254.0,0,0,0,40000
1515682,36102.0,40168.0,43478.0,40252.0,0,0,0,40000
1515692,35878.0,40314.0,43792.0,40016.0,0,0,0,40000
1515702,35530.0,39518.0,43976.0,40976.0,0,0,0,40000
1515712,35866.0,39572.0,43452.0,41110.0,0,0,0,40000
1515722,35642.0,39310.0,44634.0,40414.0,0,0,0,40000
1515732,34988.0,40006.0,44206.0,40800.0,0,0,0,40000
1515742,35392.0,39708.0,44922.0,39978.0,0,0,0,40000
1515752,34190.0,40350.0,45160.0,40300.0,0,0,0,40000
1515762,35064.0,39656.0,44838.0,40442.0,0,0,0,40000
1515772,32596.0,41084.0,46544.0,39776.0,0,0,0,40000
1515782,33872.0,41124.0,45848.0,39156.0,0,0,0,40000
1515792,31617.0,41903.0,47633.0,38847.0,0,0,0,40000
1515802,33096.0,41100.0,46778.0,39026.0,0,0,0,40000
1515812,33452.0,41722.0,45610.0,39216.0,0,0,0,40000
1515822,34456.0,39658.0,44930.0,40956.0,0,0,0,40000
1515832,33596.0,39306.0,46308.0,40790.0,0,0,0,40000
1515842,35013.0,39963.0,44643.0,40381.0,0,0,0,40000
1515852,35057.0,38809.0,44629.0,41505.0,0,0,0,40000
1515862,34870.0,39890.0,44432.0,40808.0,0,0,0,40000
1515872,34603.0,39765.0,45567.0,40065.0,0,0,0,40000
1515882,34042.0,39590.0,45290.0,41078.0,0,0,0,40000
1515892,35131.0,39399.0,44853.0,40617.0,0,0,0,40000
1515902,35688.0,40076.0,43672.0,40564.0,0,0,0,40000
1515912,35700.0,39602.0,44718.0,39980.0,0,0,0,40000
1515922,34037.0,40325.0,45063.0,40575.0,0,0,0,40000
1515932,35067.0,39597.0,44451.0,40885.0,0,0,0,40000
1515942,34682.0,40332.0,44962.0,40024.0,0,0,0,40000
1515952,34047.0,39735.0,45583.0,40635.0,0,0,0,40000
1515962,34772.0,40420.0,45258.0,39550.0,0,0,0,40000
1515972,34221.0,40533.0,45183.0,40063.0,0,0,0,40000
1515982,34309.0,40753.0,45593.0,39345.0,0,0,0,40000
1515992,33820.0,41136.0,45994.0,39050.0,0,0,0,40000
1516002,34025.0,40383.0,45617.0,39975.0,0,0,0,40000
1516012,35794.0,40108.0,44252.0,39846.0,0,0,0,40000
1516022,34955.0,40391.0,44335.0,40319.0,0,0,0,40000
1516032,35016.0,39846.0,45076.0,40062.0,0,0,0,40000
1516042,35031.0,40169.0,44803.0,39997.0,0,0,0,40000
1516052,34925.0,41025.0,44829.0,39221.0,0,0,0,40000
1516062,35620.0,41492.0,43632.0,39256.0,0,0,0,40000
1516072,35676.0,40650.0,44192.0,39482.0,0,0,0,40000
1516082,35396.0,40876.0,44216.0,39512.0,0,0,0,40000
1516092,35367.0,40503.0,44483.0,39647.0,0,0,0,40000
1516102,35330.0,41354.0,44208.0,39108.0,0,0,0,40000
1516112,34791.0,42237.0,44861.0,38111.0,0,0,0,40000
1516122,34262.0,41694.0,45664.0,38380.0,0,0,0,40000
1516132,34815.0,40531.0,45141.0,39513.0,0,0,0,40000
1516142,35016.0,40472.0,44806.0,39706.0,0,0,0,40000
1516152,34614.0,39732.0,45068.0,40586.0,0,0,0,40000
1516162,33312.0,39582.0,46194.0,40912.0,0,0,0,40000
1516172,33902.0,41224.0,45356.0,39518.0,0,0,0,40000
1516182,35351.0,40701.0,44771.0,39177.0,0,0,0,40000
1516192,33554.0,41948.0,46008.0,38490.0,0,0,0,40000
1516202,34740.0,39804.0,45258.0,40198.0,0,0,0,40000
1516212,34969.0,41067.0,44491.0,39473.0,0,0,0,40000
1516222,36173.0,39031.0,43681.0,41115.0,0,0,0,40000
1516232,35076.0,40846.0,44252.0,39826.0,0,0,0,40000
1516242,34991.0,40217.0,44997.0,39795.0,0,0,0,40000
1516252,35287.0,40567.0,44217.0,39929.0,0,0,0,40000
1516262,35023.0,40553.0,44747.0,39677.0,0,0,0,40000
1516272,35603.0,40045.0,44061.0,40291.0,0,0,0,40000
1516282,34778.0,40170.0,44950.0,40102.0,0,0,0,40000
1516292,35458.0,39746.0,44522.0,40274.0,0,0,0,40000
1516302,34587.0,41617.0,45451.0,38345.0,0,0,0,40000
1516312,35344.0,41174.0,44508.0,38974.0,0,0,0,40000
1516322,34329.0,41373.0,45109.0,39189.0,0,0,0,40000
1516332,34967.0,40393.0,45077.0,39563.0,0,0,0,40000
1516342,35252.0,39956.0,44054.0,40738.0,0,0,0,40000
1516352,35203.0,40715.0,44855.0,39227.0,0,0,0,40000
1516362,35526.0,40716.0,43624.0,40134.0,0,0,0,40000
1516372,35827.0,40403.0,43997.0,39773.0,0,0,0,40000
1516382,36576.0,39296.0,42744.0,41384.0,0,0,0,40000
1516392,37163.0,38957.0,43379.0,40501.0,0,0,0,40000
1516402,36322.0,39926.0,42654.0,41098.0,0,0,0,40000
1516412,35919.0,38443.0,44255.0,41383.0,0,0,0,40000
1516422,35896.0,39874.0,43198.0,41032.0,0,0,0,40000
1516432,35825.0,38225.0,44829.0,41121.0,0,0,0,40000
1516442,35150.0,39752.0,43716.0,41382.0,0,0,0,40000
1516452,35190.0,40346.0,44740.0,39724.0,0,0,0,40000
1516462,33767.0,41609.0,45733.0,38891.0,0,0,0,40000
1516472,33112.0,41760.0,46888.0,38240.0,0,0,0,40000
1516482,33745.0,42079.0,45571.0,38605.0,0,0,0,40000
1516492,34433.0,41085.0,45807.0,38675.0,0,0,0,40000
1516502,34268.0,40430.0,45200.0,40102.0,0,0,0,40000
1516512,34339.0,40465.0,45237.0,39959.0,0,0,0,40000
1516522,34947.0,41149.0,44355.0,39549.0,0,0,0,40000
1516532,35536.0,39724.0,44552.0,40188.0,0,0,0,40000
1516542,35392.0,40382.0,43384.0,40842.0,0,0,0,40000
1516552,35701.0,38717.0,44797.0,40785.0,0,0,0,40000
1516562,35181.0,40385.0,43783.0,40651.0,0,0,0,40000
1516572,37051.0,38441.0,44087.0,40421.0,0,0,0,40000
1516582,36288.0,40150.0,41962.0,41600.0,0,0,0,40000
1516592,36442.0,38372.0,44308.0,40878.0,0,0,0,40000
1516602,35461.0,40541.0,43537.0,40461.0,0,0,0,40000
1516612,35397.0,39323.0,45201.0,40079.0,0,0,0,40000
1516622,36046.0,40548.0,43080.0,40326.0,0,0,0,40000
1516632,35577.0,40421.0,44151.0,39851.0,0,0,0,40000
1516642,35324.0,40250.0,44378.0,40048.0,0,0,0,40000
1516652,34734.0,40332.0,45050.0,39884.0,0,0,0,40000
1516662,34958.0,40890.0,44248.0,39904.0,0,0,0,40000
1516672,35116.0,40632.0,44830.0,39422.0,0,0,0,40000
1516682,35121.0,40355.0,44781.0,39743.0,0,0,0,40000
1516692,36226.0,40722.0,43550.0,39502.0,0,0,0,40000
1516702,34868.0,40222.0,44706.0,40204.0,0,0,0,40000
1516712,35205.0,40359.0,44317.0,40119.0,0,0,0,40000
1516722,35162.0,39250.0,45286.0,40302.0,0,0,0,40000
1516732,35122.0,40828.0,44214.0,39836.0,0,0,0,40000
1516742,34810.0,41474.0,44802.0,38914.0,0,0,0,40000
1516752,34804.0,41136.0,44660.0,39400.0,0,0,0,40000
1516762,34599.0,41005.0,45413.0,38983.0,0,0,0,40000
1516772,34587.0,41575.0,44965.0,38873.0,0,0,0,40000
1516782,35275.0,40511.0,44595.0,39619.0,0,0,0,40000
1516792,35022.0,41174.0,44910.0,38894.0,0,0,0,40000
1516802,34169.0,40641.0,45199.0,39991.0,0,0,0,40000
1516812,34645.0,39359.0,45619.0,40377.0,0,0,0,40000
1516822,35108.0,39716.0,44246.0,40930.0,0,0,0,40000
1516832,36041.0,38459.0,44175.0,41325.0,0,0,0,40000
1516842,35083.0,39249.0,44015.0,41653.0,0,0,0,40000
1516852,35796.0,37846.0,44466.0,41892.0,0,0,0,40000
1516862,34531.0,40327.0,44159.0,40983.0,0,0,0,40000
1516872,35552.0,39794.0,44826.0,39828.0,0,0,0,40000
1516882,34562.0,40454.0,44102.0,40882.0,0,0,0,40000
1516892,33986.0,40664.0,46692.0,38658.0,0,0,0,40000
1516902,33582.0,41644.0,45562.0,39212.0,0,0,0,40000
1516912,34055.0,41719.0,46255.0,37971.0,0,0,0,40000
1516922,35061.0,41153.0,44321.0,39465.0,0,0,0,40000
1516932,33600.0,42210.0,46384.0,37806.0,0,0,0,40000
1516942,33848.0,40998.0,45640.0,39514.0,0,0,0,40000
1516952,33951.0,40871.0,46267.0,38911.0,0,0,0,40000
1516962,34695.0,41083.0,44591.0,39631.0,0,0,0,40000
1516972,35317.0,39749.0,44749.0,40185.0,0,0,0,40000
1516982,34730.0,40694.0,44588.0,39988.0,0,0,0,40000
1516992,35191.0,40101.0,44889.0,39819.0,0,0,0,40000
1517002,34883.0,39783.0,44293.0,41041.0,0,0,0,40000
1517012,35033.0,40097.0,44469.0,40401.0,0,0,0,40000
1517022,34634.0,41194.0,45348.0,38824.0,0,0,0,40000
1517032,34271.0,39553.0,45563.0,40613.0,0,0,0,40000
1517042,35043.0,39653.0,44769.0,40535.0,0,0,0,40000
1517052,34151.0,39959.0,45585.0,40305.0,0,0,0,40000
1517062,33968.0,40166.0,45762.0,40104.0,0,0,0,40000
1517072,34677.0,39003.0,44807.0,41513.0,0,0,0,40000
1517082,35392.0,40094.0,44566.0,39948.0,0,0,0,40000
1517092,34767.0,40569.0,44547.0,40117.0,0,0,0,40000
1517102,34008.0,40108.0,45886.0,39998.0,0,0,0,40000
1517112,33098.0,39378.0,46478.0,41046.0,0,0,0,40000
1517122,33930.0,39948.0,45986.0,40136.0,0,0,0,40000
1517132,35034.0,39936.0,44496.0,40534.0,0,0,0,40000
1517142,34585.0,39159.0,45229.0,41027.0,0,0,0,40000
1517152,33798.0,39918.0,45726.0,40558.0,0,0,0,40000
1517162,34249.0,40695.0,45019.0,40037.0,0,0,0,40000
1517172,34234.0,40334.0,45812.0,39620.0,0,0,0,40000
1517182,33571.0,40877.0,45557.0,39995.0,0,0,0,40000
1517192,34596.0,39332.0,45510.0,40562.0,0,0,0,40000
1517202,35329.0,39301.0,44327.0,41043.0,0,0,0,40000
1517212,35840.0,39690.0,44146.0,40324.0,0,0,0,40000
1517222,34410.0,40308.0,44742.0,40540.0,0,0,0,40000
1517232,35523.0,40745.0,44613.0,39119.0,0,0,0,40000
1517242,36116.0,40030.0,43368.0,40486.0,0,0,0,40000
1517252,35834.0,40162.0,44322.0,39682.0,0,0,0,40000
1517262,34410.0,40856.0,44978.0,39756.0,0,0,0,40000
1517272,34782.0,40134.0,45622.0,39462.0,0,0,0,40000
1517282,34922.0,41728.0,44368.0,38982.0,0,0,0,40000
1517292,34928.0,42114.0,45290.0,37668.0,0,0,0,40000
1517302,34433.0,41597.0,44723.0,39247.0,0,0,0,40000
1517312,33318.0,41340.0,46542.0,38800.0,0,0,0,40000
1517322,34043.0,41025.0,45255.0,39677.0,0,0,0,40000
1517332,35406.0,40688.0,44480.0,39426.0,0,0,0,40000
1517342,35960.0,39108.0,43828.0,41104.0,0,0,0,40000
1517352,36776.0,38732.0,43328.0,41164.0,0,0,0,40000
1517362,35447.0,39239.0,44033.0,41281.0,0,0,0,40000
1517372,35516.0,38032.0,44456.0,41996.0,0,0,0,40000
1517382,35668.0,38826.0,43934.0,41572.0,0,0,0,40000
1517392,35835.0,39307.0,44267.0,40591.0,0,0,0,40000
1517402,34950.0,39914.0,44412.0,40724.0,0,0,0,40000
1517412,33622.0,40490.0,46242.0,39646.0,0,0,0,40000
1517422,33706.0,39854.0,45900.0,40540.0,0,0,0,40000
1517432,33767.0,40605.0,46051.0,39577.0,0,0,0,40000
1517442,32983.0,41035.0,46229.0,39753.0,0,0,0,40000
1517452,34233.0,41023.0,45661.0,39083.0,0,0,0,40000
1517462,34122.0,40468.0,45904.0,39506.0,0,0,0,40000
1517472,34726.0,40286.0,45002.0,39986.0,0,0,0,40000
1517482,34244.0,41006.0,45460.0,39290.0,0,0,0,40000
1517492,34484.0,40180.0,45274.0,40062.0,0,0,0,40000
1517502,35575.0,39265.0,44769.0,40391.0,0,0,0,40000
1517512,34025.0,40439.0,45261.0,40353.0,0,0,0,40000
1517522,34818.0,40466.0,45008.0,39708.0,0,0,0,40000
1517532,35079.0,39899.0,44521.0,40501.0,0,0,0,40000
1517542,35581.0,39649.0,43863.0,40907.0,0,0,0,40000
1517552,35335.0,40177.0,44441.0,40047.0,0,0,0,40000
1517562,35071.0,40419.0,44737.0,39773.0,0,0,0,40000
1517572,35020.0,40642.0,44754.0,39584.0,0,0,0,40000
1517582,35188.0,41490.0,44412.0,38910.0,0,0,0,40000
1517592,34915.0,40813.0,44587.0,39685.0,0,0,0,40000
1517602,33934.0,41852.0,45994.0,38220.0,0,0,0,40000
1517612,34007.0,40435.0,45657.0,39901.0,0,0,0,40000
1517622,35087.0,42203.0,44889.0,37821.0,0,0,0,40000
1517632,35364.0,40876.0,43554.0,40206.0,0,0,0,40000
1517642,35866.0,39718.0,44634.0,39782.0,0,0,0,40000
1517652,34980.0,39944.0,44350.0,40726.0,0,0,0,40000
1517662,35622.0,41376.0,44450.0,38552.0,0,0,0,40000
1517672,34947.0,41043.0,43903.0,40107.0,0,0,0,40000
1517682,35991.0,40347.0,44493.0,39169.0,0,0,0,40000
1517692,35533.0,40569.0,43803.0,40095.0,0,0,0,40000
1517702,36220.0,40072.0,43866.0,39842.0,0,0,0,40000
1517712,35317.0,40433.0,43641.0,40609.0,0,0,0,40000
1517722,35387.0,38473.0,44983.0,41157.0,0,0,0,40000
1517732,36125.0,39903.0,43329.0,40643.0,0,0,0,40000
1517742,35014.0,38972.0,44756.0,41258.0,0,0,0,40000
1517752,34827.0,40699.0,44703.0,39771.0,0,0,0,40000
1517762,35259.0,40001.0,44391.0,40349.0,0,0,0,40000
1517772,35030.0,39834.0,45020.0,40116.0,0,0,0,40000
1517782,34022.0,39824.0,45266.0,40888.0,0,0,0,40000
1517792,35584.0,39966.0,44942.0,39508.0,0,0,0,40000
1517802,35081.0,40499.0,44427.0,39993.0,0,0,0,40000
1517812,35339.0,39231.0,44525.0,40905.0,0,0,0,40000
1517822,34944.0,39510.0,44346.0,41200.0,0,0,0,40000
1517832,35846.0,38952.0,44434.0,40768.0,0,0,0,40000
1517842,34638.0,40760.0,44058.0,40544.0,0,0,0,40000
1517852,35593.0,40245.0,44997.0,39165.0,0,0,0,40000
1517862,34656.0,41226.0,44354.0,39764.0,0,0,0,40000
1517872,35460.0,40434.0,45128.0,38978.0,0,0,0,40000
1517882,34194.0,40396.0,45262.0,40148.0,0,0,0,40000
1517892,34892.0,39018.0,45292.0,40798.0,0,0,0,40000
1517902,35204.0,39936.0,43992.0,40868.0,0,0,0,40000
1517912,35499.0,40347.0,44143.0,40011.0,0,0,0,40000
1517922,35610.0,40574.0,43890.0,39926.0,0,0,0,40000
1517932,34984.0,39802.0,44740.0,40474.0,0,0,0,40000
1517942,34006.0,39718.0,45574.0,40702.0,0,0,0,40000
1517952,33713.0,39821.0,46011.0,40455.0,0,0,0,40000
1517962,34939.0,39557.0,45405.0,40099.0,0,0,0,40000
1517972,35103.0,39973.0,44533.0,40391.0,0,0,0,40000
1517982,34720.0,40376.0,45182.0,39722.0,0,0,0,40000
1517992,32964.0,40558.0,45840.0,40638.0,0,0,0,40000
1518002,33051.0,40889.0,47529.0,38531.0,0,0,0,40000
1518012,32483.0,41581.0,46877.0,39059.0,0,0,0,40000
1518022,32921.0,42029.0,47103.0,37947.0,0,0,0,40000
1518032,31813.0,41481.0,47331.0,39375.0,0,0,0,40000
1518042,33248.0,40698.0,46814.0,39240.0,0,0,0,40000
1518052,33851.0,39923.0,45591.0,40635.0,0,0,0,40000
1518062,33238.0,40588.0,46228.0,39946.0,0,0,0,40000
1518072,34429.0,40199.0,45395.0,39977.0,0,0,0,40000
1518082,35733.0,38909.0,43811.0,41547.0,0,0,0,40000
1518092,35368.0,38864.0,44718.0,41050.0,0,0,0,40000
1518102,34747.0,39051.0,45103.0,41099.0,0,0,0,40000
1518112,35520.0,38974.0,44636.0,40870.0,0,0,0,40000
1518122,34807.0,38799.0,44501.0,41893.0,0,0,0,40000
1518132,35552.0,40284.0,44736.0,39428.0,0,0,0,40000
1518142,34275.0,41357.0,45271.0,39097.0,0,0,0,40000
1518152,33130.0,41522.0,46584.0,38764.0,0,0,0,40000
1518162,33214.0,40526.0,45858.0,40402.0,0,0,0,40000
1518172,33752.0,40006.0,46046.0,40196.0,0,0,0,40000
1518182,33492.0,41388.0,46086.0,39034.0,0,0,0,40000
1518192,34096.0,40620.0,45740.0,39544.0,0,0,0,40000
1518202,35223.0,39959.0,44295.0,40523.0,0,0,0,40000
1518212,34318.0,39744.0,45928.0,40010.0,0,0,0,40000
1518222,34466.0,40590.0,44880.0,40064.0,0,0,0,40000
1518232,34468.0,39698.0,45372.0,40462.0,0,0,0,40000
1518242,34711.0,38845.0,45145.0,41299.0,0,0,0,40000
1518252,34357.0,39433.0,45443.0,40767.0,0,0,0,40000
1518262,34530.0,39206.0,44994.0,41270.0,0,0,0,40000
1518272,34672.0,40746.0,44862.0,39720.0,0,0,0,40000
1518282,34936.0,39420.0,44950.0,40694.0,0,0,0,40000
1518292,34203.0,40073.0,45073.0,40651.0,0,0,0,40000
1518302,34250.0,41462.0,45678.0,38610.0,0,0,0,40000
1518312,34056.0,40394.0,45562.0,39988.0,0,0,0,40000
1518322,34082.0,39732.0,46252.0,39934.0,0,0,0,40000
1518332,34477.0,40213.0,44741.0,40569.0,0,0,0,40000
1518342,34331.0,40167.0,45867.0,39635.0,0,0,0,40000
1518352,32719.0,40999.0,46293.0,39989.0,0,0,0,40000
1518362,33110.0,39848.0,47100.0,39942.0,0,0,0,40000
1518372,33464.0,40224.0,45626.0,40686.0,0,0,0,40000
1518382,33612.0,40580.0,46362.0,39446.0,0,0,0,40000
1518392,33326.0,40690.0,45922.0,40062.0,0,0,0,40000
1518402,34190.0,40214.0,45836.0,39760.0,0,0,0,40000
1518412,33652.0,39688.0,45870.0,40790.0,0,0,0,40000
1518422,33097.0,39635.0,46681.0,40587.0,0,0,0,40000
1518432,34604.0,39308.0,45138.0,40950.0,0,0,0,40000
1518442,34455.0,38821.0,45645.0,41079.0,0,0,0,40000
1518452,33797.0,39445.0,45691.0,41067.0,0,0,0,40000
1518462,34322.0,38458.0,45570.0,41650.0,0,0,0,40000
1518472,33716.0,39850.0,45674.0,40760.0,0,0,0,40000
1518482,34577.0,38391.0,45241.0,41791.0,0,0,0,40000
1518492,33536.0,39612.0,45992.0,40860.0,0,0,0,40000
1518502,33712.0,40082.0,45938.0,40268.0,0,0,0,40000
1518512,34121.0,41293.0,45393.0,39193.0,0,0,0,40000
1518522,34359.0,40851.0,45743.0,39047.0,0,0,0,40000
1518532,32521.0,40389.0,46871.0,40219.0,0,0,0,40000
1518542,32520.0,40588.0,47464.0,39428.0,0,0,0,40000
1518552,33100.0,41048.0,46726.0,39126.0,0,0,0,40000
1518562,32943.0,41557.0,47081.0,38419.0,0,0,0,40000
1518572,32283.0,41859.0,47185.0,38673.0,0,0,0,40000
1518582,34001.0,41433.0,45953.0,38613.0,0,0,0,40000
1518592,33514.0,41244.0,45808.0,39434.0,0,0,0,40000
1518602,33081.0,40993.0,47051.0,38875.0,0,0,0,40000
1518612,32631.0,40371.0,46231.0,40767.0,0,0,0,40000
1518622,34540.0,39170.0,45272.0,41018.0,0,0,0,40000
1518632,32842.0,40400.0,46878.0,39880.0,0,0,0,40000
1518642,33091.0,39467.0,46799.0,40643.0,0,0,0,40000
1518652,34005.0,40683.0,45423.0,39889.0,0,0,0,40000
1518662,32977.0,40527.0,47137.0,39359.0,0,0,0,40000
1518672,32434.0,40918.0,47122.0,39526.0,0,0,0,40000
1518682,34095.0,38805.0,45631.0,41469.0,0,0,0,40000
1518692,32416.0,39528.0,47120.0,40936.0,0,0,0,40000
1518702,33389.0,39579.0,46553.0,40479.0,0,0,0,40000
1518712,33548.0,40446.0,46050.0,39956.0,0,0,0,40000
1518722,32767.0,39649.0,47077.0,40507.0,0,0,0,40000
1518732,33213.0,39799.0,46319.0,40669.0,0,0,0,40000
1518742,34058.0,38024.0,45970.0,41948.0,0,0,0,40000
1518752,33143.0,39649.0,46171.0,41037.0,0,0,0,40000
1518762,34154.0,40126.0,46088.0,39632.0,0,0,0,40000
1518772,34212.0,41040.0,45240.0,39508.0,0,0,0,40000
1518782,35050.0,39332.0,44894.0,40724.0,0,0,0,40000
1518792,33543.0,39783.0,45789.0,40885.0,0,0,0,40000
1518802,33679.0,39873.0,46441.0,40007.0,0,0,0,40000
1518812,33701.0,40985.0,45731.0,39583.0,0,0,0,40000
1518822,33666.0,41716.0,46380.0,38238.0,0,0,0,40000
1518832,33369.0,41935.0,45719.0,38977.0,0,0,0,40000
1518842,33998.0,41066.0,45920.0,39016.0,0,0,0,40000
1518852,33363.0,40793.0,46333.0,39511.0,0,0,0,40000
1518862,33309.0,40809.0,46409.0,39473.0,0,0,0,40000
1518872,34226.0,41280.0,45646.0,38848.0,0,0,0,40000
1518882,33466.0,41812.0,46196.0,38526.0,0,0,0,40000
1518892,34389.0,40881.0,45699.0,39031.0,0,0,0,40000
1518902,34805.0,40043.0,44685.0,40467.0,0,0,0,40000
1518912,33148.0,40458.0,46428.0,39966.0,0,0,0,40000
1518922,34089.0,41039.0,45871.0,39001.0,0,0,0,40000
1518932,34224.0,40924.0,45496.0,39356.0,0,0,0,40000
1518942,34152.0,41008.0,45392.0,39448.0,0,0,0,40000
1518952,33530.0,40376.0,45730.0,40364.0,0,0,0,40000
1518962,34450.0,38908.0,45672.0,40970.0,0,0,0,40000
1518972,34424.0,39280.0,45012.0,41284.0,0,0,0,40000
1518982,33842.0,39480.0,46084.0,40594.0,0,0,0,40000
1518992,34388.0,39652.0,45264.0,40696.0,0,0,0,40000
1519002,34733.0,39985.0,45069.0,40213.0,0,0,0,40000
1519012,34163.0,39329.0,45573.0,40935.0,0,0,0,40000
1519022,33131.0,40369.0,46683.0,39817.0,0,0,0,40000
1519032,32911.0,39879.0,46667.0,40543.0,0,0,0,40000
1519042,32168.0,40332.0,47526.0,39974.0,0,0,0,40000
1519052,32271.0,40939.0,47681.0,39109.0,0,0,0,40000
1519062,32769.0,41075.0,46519.0,39637.0,0,0,0,40000
1519072,33546.0,40284.0,46106.0,40064.0,0,0,0,40000
1519082,31570.0,39674.0,48150.0,40606.0,19.999999272915417,0.005392901142058868,0,40000
1519092,20984.0,26250.0,58698.0,54068.0,19.804111624046996,2.7923400191034533,0,40000
1519102,19455.0,27779.0,60439.0,52327.0,19.111321542655862,5.895539745707595,0,40000
1519112,16974.0,30260.0,62574.0,50192.0,19.111321542655862,5.895539745707595,0,40000
1519122,18595.0,30875.0,61701.0,48829.0,16.984054177996256,10.561340051285537,0,40000
1519132,16769.0,32773.0,63029.0,47429.0,15.485305696187222,12.657223530286236,0,40000
1519142,20169.0,36141.0,59737.0,43953.0,15.485305696187222,12.657223530286236,0,40000
1519152,23389.0,38399.0,56391.0,41821.0,13.682761205460832,14.58705062013346,0,40000
1519162,26733.0,41289.0,53091.0,38887.0,11.68986339389609,16.22797257306187,0,40000
1519172,33661.0,56369.0,46555.0,23415.0,9.279212082303841,17.71711667093792,0,40000
1519182,41922.0,55590.0,37738.0,24750.0,6.944497239086553,18.75563803490351,0,40000
1519192,45610.0,56192.0,35042.0,23156.0,4.490934977588669,19.48926635425435,0,40000
1519202,55438.0,57170.0,25368.0,22024.0,1.9574207886680668,19.90398211052477,0,40000
1519212,56427.0,56339.0,25035.0,22199.0,-0.6065484471252508,19.990800358697246,0,40000
1519222,61360.0,51406.0,19892.0,27342.0,-3.1611885718594173,19.748592021031406,0,40000
1519232,61373.0,51393.0,21353.0,25881.0,-5.6718338554467715,19.17890248987694,0,40000
1519242,57467.0,49863.0,24771.0,27899.0,-8.08400445080506,18.29341061801664,0,40000
1519252,58537.0,50801.0,23517.0,27145.0,-10.358737342251736,17.108376915249426,0,40000
1519262,54582.0,52830.0,27770.0,24818.0,-12.46296169898721,15.642077409653037,0,40000
1519272,57188.0,52798.0,24948.0,25066.0,-14.354438760424443,13.926596420993334,0,40000
1519282,55486.0,56010.0,25494.0,23010.0,-16.02132053585474,11.971519882095139,0,40000
1519292,54939.0,55443.0,25345.0,24273.0,-17.434574203117357,9.799776648270857,0,40000
1519302,49330.0,56390.0,29774.0,24506.0,-18.547497126581053,7.482670000706139,0,40000
1519312,46733.0,54235.0,31403.0,27629.0,-19.353521138246418,5.043928979619859,0,40000
1519322,43295.0,55279.0,33467.0,27959.0,-19.840675538453148,2.5194432277443557,0,40000
1519332,38739.0,52887.0,37229.0,31145.0,-19.999939200589395,-0.049315035513395875,0,40000
1519342,37884.0,52726.0,37144.0,32246.0,-19.828699031363485,-2.6120288519855266,0,40000
1519352,32799.0,47691.0,41163.0,38347.0,-19.330396578461965,-5.131838668487738,0,40000
1519362,31674.0,45214.0,41810.0,41302.0,-18.512639285930987,-7.568499631301081,0,40000
1519372,23416.0,39218.0,49680.0,47686.0,-17.362260717609786,-9.927331100237572,0,40000
1519382,24966.0,34464.0,48344.0,52226.0,-15.93076887323834,-12.091757651700616,0,40000
1519392,18224.0,29706.0,54960.0,57110.0,-14.256408583101894,-14.026931749732675,0,40000
1519402,21015.0,29295.0,52973.0,56717.0,-12.336256864690103,-15.742197005767215,0,40000
1519412,18684.0,28550.0,55838.0,56928.0,-10.211298249505688,-17.196784236003023,0,40000
1519422,20547.0,26687.0,54639.0,58127.0,-10.211298249505688,-17.196784236003023,0,40000
1519432,18455.0,28779.0,57719.0,55047.0,-7.920246277240932,-18.364903999418324,0,40000
1519442,19695.0,27539.0,57743.0,55023.0,-2.943737152019092,-19.782174086278346,0,40000
1519452,17048.0,30186.0,62064.0,50702.0,-2.943737152019092,-19.782174086278346,0,40000
1519462,18086.0,29148.0,61390.0,51376.0,-0.37855905688708225,-19.996417005064902,0,40000
1519472,15458.0,31776.0,65535.0,47170.0,2.1888397902116994,-19.879863691001155,0,40000
1519482,17526.0,29708.0,65010.0,47756.0,4.720444125370443,-19.434953235324638,0,40000
1519492,11864.0,35370.0,65535.0,42006.0,7.185432092086687,-18.66466087690882,0,40000
1519502,12247.0,34987.0,65535.0,42111.0,9.531717937015383,-17.58255820889495,0,40000
1519512,8824.0,38410.0,65535.0,38410.0,11.720375992741573,-16.205949111013737,0,40000
1519522,9908.0,37326.0,65535.0,38980.0,13.709702947658087,-14.56173221450577,0,40000
1519532,16616.0,30618.0,65535.0,46112.0,15.497433538525547,-12.642371364541685,0,40000
1519542,18748.0,28486.0,63886.0,48880.0,17.003138349231875,-10.530588125877882,0,40000
1519552,18678.0,28556.0,62888.0,49878.0,18.206916863827278,-8.276966733875513,0,40000
1519562,19089.0,28145.0,62335.0,50431.0,19.116383863609506,-5.8791043517809785,0,40000
1519572,20087.0,27147.0,59919.0,52847.0,19.723457620967004,-3.3143957931904735,0,40000
1519582,20170.0,27064.0,59498.0,53268.0,19.985664767761957,-0.7571022326201148,0,40000
1519592,21177.0,26057.0,56091.0,56675.0,19.91748797342722,1.8148478802318688,0,40000
1519602,20828.0,26406.0,57098.0,55668.0,19.51803873462701,4.36419109957386,0,40000
1519612,21197.0,26037.0,55791.0,56975.0,18.778443472769165,6.882591135612596,0,40000
1519622,20352.0,26882.0,56780.0,55986.0,17.719618120517605,9.274434412028803,0,40000
1519632,21091.0,26143.0,54685.0,58081.0,16.38609154029663,11.467170707415988,0,40000
1519642,18923.0,28311.0,56763.0,56003.0,14.779401817964695,13.474764632569354,0,40000
1519652,24251.0,28331.0,51957.0,55461.0,12.926995488833056,15.260825260505733,0,40000
1519662,23544.0,33246.0,52756.0,50454.0,10.871517834071717,16.787200480826474,0,40000
1519672,33847.0,37447.0,43373.0,45333.0,8.626212973806375,18.044069655444545,0,40000
1519682,34348.0,43766.0,43172.0,38714.0,6.240625210629397,19.00143670832437,0,40000
1519692,45299.0,48449.0,33935.0,32317.0,3.748888237164957,19.645504243598488,0,40000
1519702,45502.0,51670.0,34516.0,28312.0,1.1963895536543816,19.964184231666135,0,40000
1519712,55874.0,56440.0,25542.0,22144.0,-1.369622945357217,19.95304821293105,0,40000
1519722,53826.0,57914.0,29000.0,19260.0,-3.9107978028782657,19.61391497241187,0,40000
1519732,56928.0,55838.0,27224.0,20010.0,-6.412521149723759,18.94411709487527,0,40000
1519742,54399.0,58367.0,30463.0,16771.0,-8.789175831060069,17.965255027711397,0,40000
1519752,56972.0,55794.0,29114.0,18120.0,-11.02031278141185,16.689898328026167,0,40000
1519762,56882.0,55884.0,29570.0,17664.0,-13.070352170673068,15.13822625457097,0,40000
1519772,57381.0,55385.0,29329.0,17905.0,-14.90475223175203,13.33597993812539,0,40000
1519782,56111.0,56655.0,30443.0,16791.0,-14.90475223175203,13.33597993812539,0,40000
1519792,56094.0,56672.0,29894.0,17340.0,-16.548258502079033,11.231880543718804,0,40000
1519802,56736.0,56030.0,29500.0,17734.0,-17.856855239109223,9.007370369286342,0,40000
1519812,56110.0,56656.0,28214.0,19020.0,-18.879752168853773,6.599618022481394,0,40000
1519822,54971.0,57795.0,29289.0,17945.0,-19.579452583332895,4.079832905526745,0,40000
1519832,63981.0,48785.0,18395.0,28839.0,-19.94243455687559,1.5163455888201351,0,40000
1519842,54001.0,58765.0,27675.0,19559.0,-19.972065322479498,-1.0566961505617156,0,40000
1519852,62766.0,50000.0,17244.0,29990.0,-19.671098239948122,-3.6121868769915393,0,40000
1519862,63047.0,49719.0,16535.0,30699.0,-19.038600018144503,-6.126312867386723,0,40000
1519872,56599.0,44489.0,21487.0,37425.0,-18.094132903086876,-8.52070152542787,0,40000
1519882,50741.0,40083.0,26921.0,42255.0,-16.849685981011326,-10.774417958354427,0,40000
1519892,41068.0,34756.0,36208.0,47968.0,-15.32596757196763,-12.849697194214214,0,40000
1519902,37842.0,29572.0,38906.0,53680.0,-13.545545581760564,-14.714557244186686,0,40000
1519912,27535.0,40171.0,49115.0,43179.0,-11.537905459680132,-16.33636243487158,0,40000
1519922,28141.0,34483.0,49311.0,48065.0,-9.336650374833685,-17.6869149310477,0,40000
1519932,18197.0,29037.0,59585.0,53181.0,-6.958037927647133,-18.75061887505114,0,40000
1519942,20195.0,27039.0,58195.0,54571.0,-4.486438755911834,-19.49030187784305,0,40000
1519952,19184.0,28050.0,60164.0,52602.0,-1.936726927585262,-19.90600635004335,0,40000
1519962,20359.0,26875.0,60149.0,52617.0,0.6600910516699021,-19.98910402703196,0,40000
1519972,19332.0,27902.0,62720.0,50046.0,3.2366043865050047,-19.736372312186873,0,40000
1519982,20182.0,27052.0,62850.0,49916.0,5.794797826226588,-19.142108508551495,0,40000
1519992,17342.0,29892.0,65535.0,46400.0,8.202984908757553,-18.24036837859082,0,40000
1520002,20115.0,27119.0,65535.0,47199.0,10.50286150825239,-17.02027908521098,0,40000
1520012,17962.0,29272.0,65535.0,44510.0,12.602352097550558,-15.529994256578561,0,40000
1520022,20034.0,27200.0,65535.0,45744.0,14.488866286512799,-13.786687554722956,0,40000
1520032,18412.0,28822.0,65535.0,44794.0,16.143462031870474,-11.806296355146962,0,40000
1520042,19975.0,27259.0,65535.0,45023.0,17.52599388168062,-9.635327625944717,0,40000
1520052,19634.0,27600.0,65535.0,45692.0,18.623062312706104,-7.292568141407082,0,40000
1520062,19568.0,27666.0,65535.0,45430.0,19.40417243310171,-4.845419712104999,0,40000
1520072,20177.0,27057.0,65535.0,47139.0,19.86492118287948,-2.3205401091095372,0,40000
1520082,20595.0,26639.0,64321.0,48445.0,19.998456301782618,0.24848651007880734,0,40000
1520092,22222.0,25012.0,62404.0,50362.0,19.802224772687076,2.8056895858199042,0,40000
1520102,20532.0,26702.0,62626.0,50140.0,19.27952727900891,5.31975825559313,0,40000
1520112,21570.0,25664.0,60636.0,52130.0,18.43836875287333,7.747680797055616,0,40000
1520122,21677.0,25557.0,59659.0,53107.0,18.43836875287333,7.747680797055616,0,40000
1520132,22247.0,24987.0,58011.0,54755.0,17.256511472310724,10.110035203005399,0,40000
1520142,23244.0,23990.0,56934.0,55832.0,15.809083245716772,12.250423948990388,0,40000
1520152,24936.0,22298.0,54132.0,58634.0,14.10598980835819,14.178189289415446,0,40000
1520162,22871.0,24363.0,56119.0,56647.0,12.167985595272937,15.872621918045875,0,40000
1520172,24415.0,22819.0,53961.0,58805.0,10.03714978157781,17.29900645303575,0,40000
1520182,22077.0,25157.0,56933.0,55833.0,7.734089066147344,18.444074016249775,0,40000
1520192,24470.0,22764.0,54816.0,57950.0,5.305431676600147,19.283474653830616,0,40000
1520202,24307.0,25893.0,55929.0,53871.0,2.7934080312173046,19.803961007109933,0,40000
1520212,34233.0,32253.0,46841.0,46673.0,0.23332756576573366,19.998638909862187,0,40000
1520222,45752.0,43992.0,35846.0,34410.0,-2.3263131038507505,19.864245954549908,0,40000
1520232,56200.0,50222.0,26994.0,26584.0,-4.851465619920556,19.402661707578392,0,40000
1520242,57539.0,50235.0,26999.0,25227.0,-7.330103825679066,18.60832012581375,0,40000
1520252,61883.0,50883.0,23621.0,23613.0,-9.704982945970219,17.487518578072397,0,40000
1520262,62026.0,50740.0,24810.0,22424.0,-11.867298850746117,16.098671311231865,0,40000
1520272,55858.0,56908.0,32072.0,15162.0,-13.845393601093186,14.432777834873225,0,40000
1520282,54572.0,58194.0,33812.0,13422.0,-15.60316821611245,12.511640244975803,0,40000
1520292,54694.0,58072.0,33478.0,13756.0,-17.109432028707044,10.356994528098083,0,40000
1520302,53249.0,59517.0,35365.0,11869.0,-18.291424015155727,8.088498469912965,0,40000
1520312,53563.0,59203.0,35057.0,12177.0,-19.210978518113176,5.562221172930293,0,40000
1520322,52037.0,60729.0,35199.0,12035.0,-19.766248770674547,3.0488374072434543,0,40000
1520332,51117.0,61649.0,35529.0,11705.0,-19.99446316383149,0.4705770820872165,0,40000
1520342,52013.0,60753.0,33181.0,14053.0,-19.88193357482995,-2.169957908819777,0,40000
1520352,50307.0,62459.0,34817.0,12417.0,-19.437312636112573,-4.71071942340217,0,40000
1520362,50709.0,62057.0,31817.0,15417.0,-18.66728604095747,-7.178609326678417,0,40000
1520372,50380.0,62386.0,32210.0,15024.0,-17.574584507066238,-9.546411860169627,0,40000
1520382,50731.0,59263.0,30387.0,19619.0,-16.204333671459747,-11.722609362424215,0,40000
1520392,44204.0,57172.0,36628.0,21996.0,-14.546155389612391,-13.726229029899304,0,40000
1520402,43302.0,50496.0,36146.0,30056.0,-12.61281819892498,-15.521495323610635,0,40000
1520412,38184.0,46984.0,41718.0,33114.0,-10.488783654196185,-17.02895820229373,0,40000
1520422,36916.0,40932.0,42480.0,39672.0,-8.218119902013772,-18.23355437856605,0,40000
1520432,30891.0,34615.0,48519.0,45975.0,-5.811828727347223,-19.136944553506485,0,40000
1520442,29688.0,29082.0,50172.0,51058.0,-3.3017492989800576,-19.72557861170832,0,40000
1520452,21491.0,25743.0,58973.0,53793.0,-3.3017492989800576,-19.72557861170832,0,40000
1520462,23033.0,24201.0,57441.0,55325.0,-0.7110539470533417,-19.98735606037927,0,40000
1520472,21032.0,26202.0,60346.0,52420.0,1.855422347170697,-19.913749217905192,0,40000
1520482,22599.0,24635.0,59199.0,53567.0,6.848260284228901,-18.790990689142845,0,40000
1520492,20845.0,26389.0,62069.0,50697.0,6.848260284228901,-18.790990689142845,0,40000
1520502,20635.0,26599.0,62023.0,50743.0,9.240121586502807,-17.737535146311757,0,40000
1520512,17574.0,29660.0,65535.0,47062.0,11.443102469631452,-16.402908457633803,0,40000
1520522,18570.0,28664.0,64904.0,47862.0,13.46998169601314,-14.783761128652985,0,40000
1520532,15584.0,31650.0,65535.0,43986.0,15.257493973508607,-12.930927176670224,0,40000
1520542,8682.0,38552.0,65535.0,38708.0,16.795956809486363,-10.85798484314049,0,40000
1520552,9128.0,38106.0,65535.0,38106.0,18.050190280809627,-8.613398332050233,0,40000
1520562,8658.0,38576.0,65535.0,38576.0,19.009069621371008,-6.217336417620482,0,40000
1520572,8623.0,38611.0,65535.0,38611.0,19.662866117433325,-3.656732974649973,0,40000
1520582,17698.0,29536.0,63906.0,48860.0,19.973950951252824,-1.0204329458354666,0,40000
1520592,7597.0,39637.0,65535.0,39637.0,19.939574149173087,1.553506597870877,0,40000
1520602,19153.0,28081.0,61577.0,51189.0,19.576967610220194,4.091740361800756,0,40000
1520612,21304.0,25930.0,58168.0,54598.0,18.889774893704057,6.5708754717455955,0,40000
1520622,20225.0,27009.0,59151.0,53615.0,17.843044170523985,9.034698375083147,0,40000
1520632,22923.0,24311.0,55199.0,57567.0,16.508378928282823,11.290412975627932,0,40000
1520642,21372.0,25862.0,56458.0,56308.0,14.91194202623138,13.327940013607297,0,40000
1520652,23256.0,23978.0,54650.0,58116.0,13.07574858211157,15.133565310838264,0,40000
1520662,23577.0,25357.0,54081.0,56985.0,11.02431277472671,16.6872564505073,0,40000
1520672,32355.0,27669.0,46057.0,53919.0,8.789767900342877,17.96496535644035,0,40000
1520682,33766.0,32048.0,44736.0,49450.0,6.410875153962127,18.944674179312536,0,40000
1520692,47152.0,37220.0,32714.0,42914.0,3.928719307159818,19.61033310797014,0,40000
1520702,45970.0,43886.0,34496.0,35648.0,1.3804430056757249,19.95230255153728,0,40000
1520712,55572.0,48096.0,26648.0,29684.0,-1.1955521591435818,19.96423439640917,0,40000
1520722,52132.0,51392.0,31324.0,25152.0,-3.7485350823474093,19.64557163170394,0,40000
1520732,58380.0,54386.0,26900.0,20334.0,-6.269025982779368,18.992085541804965,0,40000
1520742,56654.0,56112.0,28894.0,18340.0,-8.746899003933356,17.985876620698523,0,40000
1520752,56878.0,55888.0,30126.0,17108.0,-11.004106336615266,16.700588125346478,0,40000
1520762,54957.0,57809.0,31751.0,15483.0,-11.004106336615266,16.700588125346478,0,40000
1520772,55636.0,57130.0,31928.0,15306.0,-13.123110994104303,15.092513304165704,0,40000
1520782,52781.0,59985.0,33519.0,13715.0,-14.95455198570552,13.280112006561957,0,40000
1520792,53686.0,59080.0,33076.0,14158.0,-16.528951905018,11.260273039389489,0,40000
1520802,53442.0,59324.0,31856.0,15378.0,-17.8389279138582,9.042823170015588,0,40000
1520812,53044.0,59722.0,31428.0,15806.0,-18.850182732858368,6.683607628956704,0,40000
1520822,52360.0,60406.0,30846.0,16388.0,-19.551492632463095,4.211785350981365,0,40000
1520832,52934.0,59832.0,29552.0,17682.0,-19.930557534681146,1.6651955911437557,0,40000
1520842,52844.0,59922.0,28122.0,19112.0,-19.979305516038302,-0.9095884216509003,0,40000
1520852,62048.0,49810.0,17642.0,30500.0,-19.687692302608998,-3.520620939236492,0,40000
1520862,59883.0,42911.0,19595.0,37611.0,-19.071126981144943,-6.024293790067469,0,40000
1520872,52696.0,40806.0,25384.0,41114.0,-18.130346000177408,-8.443373372879536,0,40000
1520882,50752.0,35428.0,26762.0,47058.0,-16.867900461654397,-10.745879862334187,0,40000
1520892,39956.0,29820.0,36780.0,53444.0,-15.350693598336257,-12.82014844102822,0,40000
1520902,36190.0,23458.0,41030.0,59322.0,-13.57989536278534,-14.68286218473092,0,40000
1520912,27445.0,19789.0,49327.0,63439.0,-11.585577208412785,-16.302588774421878,0,40000
1520922,27048.0,30248.0,50086.0,52618.0,-9.375629013537644,-17.66628372353708,0,40000
1520932,20307.0,26927.0,57281.0,55485.0,-7.001444751876261,-18.734454125659074,0,40000
1520942,20827.0,26407.0,57375.0,55391.0,-4.512887115970941,-19.4841948737561,0,40000
1520952,19334.0,27900.0,59752.0,53014.0,-1.9344009733130887,-19.906232513322188,0,40000
1520962,19584.0,27650.0,60674.0,52092.0,0.6913520180039369,-19.98804723796704,0,40000
1520972,17282.0,29952.0,64180.0,48586.0,3.2509133045627836,-19.734020438983453,0,40000
1520982,19019.0,28215.0,62869.0,49897.0,5.758025278405469,-19.153201948845098,0,40000
1520992,16273.0,30961.0,65535.0,45413.0,8.171276021495244,-18.25459526203024,0,40000
1521002,17701.0,29533.0,65535.0,46147.0,10.547190309177605,-16.992844864294796,0,40000
1521012,15903.0,31331.0,65535.0,43061.0,12.630806483224383,-15.506860661763131,0,40000
1521022,16309.0,30925.0,65535.0,43461.0,14.516140918129016,-13.757966886317924,0,40000
1521032,15404.0,31830.0,65535.0,41760.0,16.174216327254168,-11.76412879048783,0,40000
1521042,17349.0,29885.0,65535.0,43369.0,17.56659852537892,-9.561099112976244,0,40000
1521052,16000.0,31234.0,65535.0,42144.0,18.652146486909945,-7.217855043629862,0,40000
1521062,17272.0,29962.0,65535.0,44116.0,19.425167502201166,-4.760553277868834,0,40000
1521072,17354.0,29880.0,65535.0,44144.0,19.874520075837545,-2.2368396802476727,0,40000
1521082,18676.0,28558.0,65535.0,46808.0,19.997203148160008,0.3344641254595747,0,40000
1521092,19283.0,27951.0,65015.0,47751.0,19.788929898024204,2.8979740321617484,0,40000
1521102,21665.0,25569.0,61591.0,51175.0,19.255765339290956,5.405136556846743,0,40000
1521112,22272.0,24962.0,59814.0,52952.0,19.255765339290956,5.405136556846743,0,40000
1521122,24217.0,23017.0,57361.0,55405.0,18.40934100157956,7.816403513609167,0,40000
1521132,13490.0,33744.0,65535.0,46990.0,17.254754378209572,10.113033736107953,0,40000
1521142,25052.0,22182.0,54636.0,58130.0,15.809156651350856,12.250329218965874,0,40000
1521152,15431.0,31803.0,63281.0,49485.0,14.111468500823756,14.172736388935586,0,40000
1521162,19302.0,27932.0,59822.0,52944.0,12.160518072382512,15.878343748995308,0,40000
1521172,17796.0,29438.0,60792.0,51974.0,10.004687320887024,17.317801003917396,0,40000
1521182,27574.0,19660.0,51084.0,61682.0,7.587021118128775,18.505056350983317,0,40000
1521192,31002.0,34156.0,49090.0,45752.0,5.1510638916410425,19.325282424436438,0,40000
1521202,34127.0,26029.0,46469.0,53375.0,2.6387600236664084,19.825159407618898,0,40000
1521212,33121.0,31795.0,48077.0,47007.0,0.05770396286080961,19.999916756143516,0,40000
1521222,42668.0,38474.0,40428.0,38430.0,-2.4981014576768112,19.84337393456952,0,40000
1521232,43204.0,41770.0,41044.0,33982.0,-5.0067518046854955,19.363172166932735,0,40000
1521242,50750.0,49318.0,35090.0,24842.0,-7.441585948187155,18.56401892306037,0,40000
1521252,49811.0,51969.0,36881.0,21339.0,-9.760941820799315,17.45634597420007,0,40000
1521262,55673.0,57093.0,32295.0,14939.0,-11.927698537989714,16.05397170755069,0,40000
1521272,54109.0,58657.0,34299.0,12935.0,-13.897279887402096,14.382823496490847,0,40000
1521282,54655.0,58111.0,34107.0,13127.0,-15.634457182765559,12.472519737417556,0,40000
1521292,53605.0,59161.0,35241.0,11993.0,-17.108438985661284,10.358634826747448,0,40000
1521302,52966.0,59800.0,35134.0,12100.0,-18.290890836305596,8.08970409930746,0,40000
1521312,53414.0,59352.0,34540.0,12694.0,-19.188087477289816,5.640682490964526,0,40000
1521322,53045.0,59721.0,33773.0,13461.0,-19.75386803783547,3.1280501184895204,0,40000
1521332,52450.0,60316.0,33778.0,13456.0,-19.991989516014772,0.5659992858259154,0,40000
1521342,52428.0,60338.0,32766.0,14468.0,-19.89961741948128,-2.0013062130211683,0,40000
1521352,53497.0,59269.0,30605.0,16629.0,-19.479248109220823,-4.534191559629677,0,40000
1521362,51862.0,60904.0,30548.0,16686.0,-18.7209102525229,-7.037579080691241,0,40000
1521372,53885.0,58881.0,28291.0,18943.0,-17.637125774821257,-9.430365549814896,0,40000
1521382,49395.0,57429.0,31185.0,21991.0,-16.281631423385473,-11.615010899393369,0,40000
1521392,45643.0,51297.0,34591.0,28469.0,-14.65614374177649,-13.608727002199208,0,40000
1521402,41553.0,48193.0,38183.0,32071.0,-12.720307754996847,-15.433527484608536,0,40000
1521412,38628.0,44068.0,40814.0,36490.0,-10.644207357179607,-16.932242903329833,0,40000
1521422,30233.0,39453.0,48693.0,41621.0,-8.385153782153008,-18.15734551220649,0,40000
1521432,29064.0,33902.0,50104.0,46930.0,-5.978394450436558,-19.08556522073657,0,40000
1521442,18586.0,28878.0,61330.0,51206.0,-3.4785563245975655,-19.695168085005072,0,40000
1521452,21617.0,25617.0,58919.0,53847.0,-3.4785563245975655,-19.695168085005072,0,40000
1521462,19962.0,27272.0,61046.0,51720.0,1.6415480485824712,-19.932519158505656,0,40000
1521472,20860.0,26374.0,60590.0,52176.0,1.6415480485824712,-19.932519158505656,0,40000
1521482,18284.0,28950.0,64556.0,48210.0,6.733847633152848,-18.83229396684009,0,40000
1521492,16910.0,30324.0,65535.0,45970.0,6.733847633152848,-18.83229396684009,0,40000
1521502,17295.0,29939.0,65535.0,46005.0,9.100924740876865,-17.809356216912935,0,40000
1521512,13465.0,33769.0,65535.0,42161.0,11.334639060141104,-16.478044707316567,0,40000
1521522,9971.0,37263.0,65535.0,37263.0,13.35610737714067,-14.88671876977222,0,40000
1521532,10999.0,36235.0,65535.0,38265.0,15.147933633389732,-13.059100529455318,0,40000
1521542,10006.0,37228.0,65535.0,37228.0,16.696894665991696,-11.009709737898545,0,40000
1521552,9563.0,37671.0,65535.0,37671.0,17.965465685470754,-8.788745229222023,0,40000
1521562,9452.0,37782.0,65535.0,37782.0,18.940540670602715,-6.423077074521557,0,40000
1521572,9486.0,37748.0,65535.0,37748.0,19.60587122206945,-3.9509256666797765,0,40000
1521582,18069.0,29165.0,65535.0,47219.0,19.958424668995832,-1.2889083489599256,0,40000
1521592,20050.0,27184.0,62048.0,50718.0,19.95726986001657,1.3066674154023201,0,40000
1521602,21741.0,25493.0,60203.0,52563.0,19.62372980880715,3.861246999472284,0,40000
1521612,21859.0,25375.0,59159.0,53607.0,18.948780656410865,6.398727344967083,0,40000
1521622,24232.0,23002.0,56548.0,56218.0,17.964991690998584,8.78971407625708,0,40000
1521632,22817.0,24417.0,56701.0,56065.0,16.688742624581597,11.022062856401853,0,40000
1521642,25486.0,21748.0,53114.0,59652.0,15.133486959210723,13.07583926390192,0,40000
1521652,23819.0,23415.0,54827.0,57939.0,13.31564931164281,14.922918059459631,0,40000
1521662,26263.0,20971.0,52601.0,60165.0,11.287247326074901,16.51054353436055,0,40000
1521672,25372.0,21862.0,53690.0,59076.0,9.067026067279887,17.82663844630465,0,40000
1521682,30201.0,23987.0,49107.0,56705.0,6.651123907971024,18.861668822265337,0,40000
1521692,30627.0,29665.0,49267.0,50441.0,4.17335048544997,19.559732762121126,0,40000
1521702,40057.0,36219.0,41015.0,42709.0,1.621242758039888,19.934180994450294,0,40000
1521712,40977.0,41133.0,41665.0,36225.0,-0.958789812356355,19.97700483295035,0,40000
1521722,50556.0,47616.0,32332.0,29496.0,-3.5274040549389065,19.686478116544883,0,40000
1521732,48951.0,48997.0,35511.0,26541.0,-6.023265294270458,19.07145183762466,0,40000
1521742,56118.0,53374.0,29446.0,21062.0,-8.455973464542065,18.1244727583166,0,40000
1521752,54475.0,55593.0,32403.0,17529.0,-10.705368677429544,16.893640267281366,0,40000
1521762,57091.0,55675.0,29967.0,17267.0,-12.784470469278082,15.3804198518817,0,40000
1521772,55565.0,57201.0,32463.0,14771.0,-14.651127727828175,13.614127085599886,0,40000
1521782,54226.0,58540.0,33220.0,14014.0,-14.651127727828175,13.614127085599886,0,40000
1521792,54562.0,58204.0,33224.0,14010.0,-16.278812206685515,11.618961792667477,0,40000
1521802,52872.0,59894.0,33188.0,14046.0,-17.63517587848721,9.434011433892946,0,40000
1521812,54775.0,57991.0,31981.0,15253.0,-18.699826289148497,7.093412208216213,0,40000
1521822,54162.0,58604.0,31016.0,16218.0,-19.464047631308844,4.599005306165726,0,40000
1521832,62897.0,49869.0,21149.0,26085.0,-19.895106941938774,2.0456587615777044,0,40000
1521842,54334.0,58432.0,28664.0,18570.0,-19.993187429724962,-0.5219735624414581,0,40000
1521852,63478.0,49288.0,18460.0,28774.0,-19.759894484338943,-3.089752412053668,0,40000
1521862,58345.0,46127.0,22551.0,32977.0,-19.19486727875263,-5.617567992563291,0,40000
1521872,56272.0,39758.0,23142.0,40828.0,-18.30841964854875,-8.049954656557643,0,40000
1521882,48591.0,36303.0,30951.0,44155.0,-17.11640992171407,-10.345458491137459,0,40000
1521892,45505.0,32431.0,32963.0,49101.0,-15.647676789964983,-12.45593075915209,0,40000
1521902,35912.0,27020.0,42014.0,55054.0,-13.916314248878441,-14.364407322492038,0,40000
1521912,31848.0,21824.0,46092.0,60236.0,-11.957691203387412,-16.031644366203714,0,40000
1521922,26868.0,20366.0,51666.0,61100.0,-9.800560162843311,-17.434133775283723,0,40000
1521932,23658.0,29010.0,54554.0,52778.0,-7.450428499761133,-18.560471846640837,0,40000
1521942,19928.0,27306.0,59142.0,53624.0,-5.007099882791811,-19.36308216074461,0,40000
1521952,22195.0,25039.0,57561.0,55205.0,-2.464388662477642,-19.84758898506949,0,40000
1521962,19351.0,27883.0,61049.0,51717.0,0.1660994477446851,-19.999310262443025,0,40000
1521972,20254.0,26980.0,61370.0,51396.0,2.77281770342508,-19.806854419204793,0,40000
1521982,17729.0,29505.0,64595.0,48171.0,5.288443954562645,-19.28814041164803,0,40000
1521992,18421.0,28813.0,64929.0,47837.0,7.7209353441324815,-18.449584207014688,0,40000
1522002,16241.0,30993.0,65535.0,45117.0,10.031033356522682,-17.302553851970217,0,40000
1522012,17883.0,29351.0,65535.0,45919.0,12.167985595272935,-15.872621918045876,0,40000
1522022,15972.0,31262.0,65535.0,43682.0,14.102676088329938,-14.181485364645233,0,40000
1522032,17617.0,29617.0,65535.0,44637.0,15.826244684259319,-12.22824513959193,0,40000
1522042,17063.0,30171.0,65535.0,44017.0,17.26643833502785,-10.093072239049947,0,40000
1522052,17982.0,29252.0,65535.0,45502.0,18.449306606813874,-7.72159865104202,0,40000
1522062,17976.0,29258.0,65535.0,45724.0,19.282027458331225,-5.310688947411688,0,40000
1522072,19646.0,27588.0,64898.0,47868.0,19.808313788597335,-2.762373047302752,0,40000
1522082,20678.0,26556.0,62792.0,49974.0,19.999073921843816,-0.19246368131812597,0,40000
1522092,20746.0,26488.0,62424.0,50342.0,19.856972524479755,2.3876017595185544,0,40000
1522102,21448.0,25786.0,59940.0,52826.0,19.370158449684716,4.979654770574735,0,40000
1522112,21737.0,25497.0,59677.0,53089.0,18.569120202219963,7.428847482315576,0,40000
1522122,24261.0,22973.0,55557.0,57209.0,17.433487750767906,9.801709281743943,0,40000
1522132,23673.0,23561.0,55425.0,57341.0,16.011667017414972,11.984428201771895,0,40000
1522142,27138.0,20096.0,52280.0,60486.0,16.011667017414972,11.984428201771895,0,40000
1522152,23228.0,24006.0,54972.0,57794.0,14.347427164907707,13.93381978309137,0,40000
1522162,25917.0,21317.0,52773.0,59993.0,12.446270835593879,15.655361455011036,0,40000
1522172,22466.0,24768.0,56258.0,56508.0,10.33468728161729,17.122915604276564,0,40000
1522182,36278.0,40510.0,42892.0,40320.0,8.001820794634861,18.329508012233966,0,40000
1522192,33106.0,32300.0,47518.0,47076.0,5.58184526223545,19.20528582105613,0,40000
1522202,50896.0,50602.0,30844.0,27658.0,3.001689030718774,19.773463605622123,0,40000
1522212,50650.0,52710.0,32258.0,24382.0,0.44134317603767537,19.995129812055858,0,40000
1522222,59210.0,53556.0,25478.0,21756.0,-2.113598516774759,19.888003954894206,0,40000
1522232,57895.0,54871.0,27611.0,19623.0,-4.659048155185176,19.44976273088352,0,40000
1522242,60943.0,51823.0,25993.0,21241.0,-7.128415833494962,18.686510848865776,0,40000
1522252,60369.0,52397.0,26969.0,20265.0,-9.493134505614059,17.603420044364096,0,40000
1522262,55689.0,57077.0,32429.0,14805.0,-11.699682475957188,16.22089485699788,0,40000
1522272,54019.0,58747.0,34313.0,12921.0,-13.737512400943091,14.53549975177788,0,40000
1522282,54465.0,58301.0,34215.0,13019.0,-15.489817400541527,12.651701739208088,0,40000
1522292,54188.0,58578.0,33566.0,13668.0,-16.981648917712324,10.565207051239454,0,40000
1522302,54138.0,58628.0,33760.0,13474.0,-18.198799097056604,8.294800264320516,0,40000
1522312,53732.0,59034.0,32960.0,14274.0,-19.11128621557564,5.895654262789551,0,40000
1522322,53866.0,58900.0,31958.0,15276.0,-19.70905621246723,3.3989856154162705,0,40000
1522332,53225.0,59541.0,32083.0,15151.0,-19.982325912765234,0.8406254314681371,0,40000
1522342,52964.0,59802.0,30346.0,16888.0,-19.923523297367755,-1.7473463936049907,0,40000
1522352,54174.0,58592.0,28784.0,18450.0,-19.5343360129411,-4.290654557700072,0,40000
1522362,52061.0,60705.0,29325.0,17909.0,-18.810101051967973,-6.79559404428733,0,40000
1522372,54733.0,57389.0,26291.0,21587.0,-17.781131710348205,-9.155946433834652,0,40000
1522382,47845.0,55279.0,31825.0,25051.0,-16.460502067553016,-11.360099985655186,0,40000
1522392,45215.0,50021.0,33579.0,31185.0,-14.866854577974223,-13.378214939122742,0,40000
1522402,38263.0,46639.0,40833.0,34265.0,-13.027439388006655,-15.175171267297538,0,40000
1522412,35671.0,41473.0,42665.0,40191.0,-10.960437526439806,-16.72927999732834,0,40000
1522422,28544.0,36694.0,50124.0,44638.0,-8.706839548532875,-18.005303248657153,0,40000
1522432,25259.0,31217.0,53533.0,49991.0,-6.324875901216862,-18.97355909770769,0,40000
1522442,19074.0,28160.0,60744.0,52022.0,-3.8504871546367654,-19.62584389706535,0,40000
1522452,21098.0,26136.0,58844.0,53922.0,-1.3006282523050696,-19.957664346042748,0,40000
1522462,19062.0,28172.0,62168.0,50598.0,1.2689954554756069,-19.95970066243435,0,40000
1522472,20427.0,26807.0,61835.0,50931.0,1.2689954554756069,-19.95970066243435,0,40000
1522482,16908.0,30326.0,65535.0,46650.0,3.882586860343552,-19.619518833852364,0,40000
1522492,19179.0,28055.0,64883.0,47883.0,6.360450258129911,-18.96166323173827,0,40000
1522502,17914.0,29320.0,65535.0,45360.0,8.74167162496124,-17.988417862651165,0,40000
1522512,19576.0,27658.0,65535.0,46392.0,10.977673623202069,-16.717974812232896,0,40000
1522522,18570.0,28664.0,65535.0,44364.0,13.030485325162962,-15.172555888534822,0,40000
1522532,19374.0,27860.0,65535.0,45488.0,14.866814496023267,-13.378259480994997,0,40000
1522542,18375.0,28859.0,65535.0,44825.0,16.46880233001818,-11.348063703327885,0,40000
1522552,11090.0,36144.0,65535.0,36850.0,17.805837459051496,-9.107807221380927,0,40000
1522562,10151.0,37083.0,65535.0,37083.0,18.846154397743625,-6.694958134029559,0,40000
1522572,10064.0,37170.0,65535.0,37170.0,19.570346793824957,-4.12329072094429,0,40000
1522582,9900.0,37334.0,65535.0,38366.0,19.937229324198967,-1.5833151531835727,0,40000
1522592,9435.0,37799.0,65535.0,38349.0,19.97506089634934,0.9984699229999103,0,40000
1522602,9315.0,37919.0,65535.0,39355.0,19.681736433064113,3.5537657462748857,0,40000
1522612,10625.0,36609.0,65535.0,41213.0,19.06516145030269,6.043146438230024,0,40000
1522622,24031.0,23203.0,57379.0,55387.0,18.106825951480157,8.49369495348195,0,40000
1522632,22764.0,24470.0,56814.0,55952.0,16.87890238385062,10.728590509309315,0,40000
1522642,25017.0,22217.0,55177.0,57589.0,15.356875803802225,12.812742311722099,0,40000
1522652,23222.0,24012.0,55988.0,56778.0,13.587284076602069,14.676025055229223,0,40000
1522662,26002.0,21232.0,53208.0,59558.0,11.548132631049267,16.32913447601235,0,40000
1522672,23715.0,23519.0,55899.0,56867.0,9.35434468837377,17.677563051820616,0,40000
1522682,26628.0,20606.0,52184.0,60582.0,6.924432388802661,18.763055084204723,0,40000
1522692,29377.0,24541.0,51191.0,54891.0,4.456827812948476,19.497094292374154,0,40000
1522702,38090.0,29020.0,43534.0,49356.0,1.9155538085563775,19.90805499305558,0,40000
1522712,36891.0,34795.0,45231.0,43083.0,-0.7330905436719987,19.986559940489478,0,40000
1522722,46230.0,39898.0,36944.0,36928.0,-3.2927068141821287,19.727090049874022,0,40000
1522732,45498.0,44546.0,38768.0,31188.0,-5.85217986428657,19.12464354794721,0,40000
1522742,54281.0,50393.0,31995.0,23331.0,-8.257105999211657,18.215932600824555,0,40000
1522752,53370.0,52864.0,33376.0,20390.0,-10.521060252588583,17.0090355741118,0,40000
1522762,56335.0,56431.0,31853.0,15381.0,-12.627321707393698,15.509698465733752,0,40000
1522772,54786.0,57980.0,33512.0,13722.0,-14.515398943458091,13.758749707450008,0,40000
1522782,54934.0,57832.0,33944.0,13290.0,-16.16589423087309,11.775562140136842,0,40000
1522792,54259.0,58507.0,34173.0,13061.0,-16.16589423087309,11.775562140136842,0,40000
1522802,53085.0,59681.0,35193.0,12041.0,-17.540293044586292,9.6092726004645,0,40000
1522812,53830.0,58936.0,34002.0,13232.0,-18.66300272744046,7.189737769595629,0,40000
1522822,53558.0,59208.0,32850.0,14384.0,-19.431908519501114,4.7329622108928815,0,40000
1522832,54516.0,58250.0,31328.0,15906.0,-19.882076560590644,2.168647421507712,0,40000
1522842,53074.0,59692.0,30984.0,16250.0,-19.99615139507527,-0.39233835554193697,0,40000
1522852,63590.0,49176.0,20078.0,27156.0,-19.781582774386933,-2.9477080825750273,0,40000
1522862,63307.0,48499.0,19155.0,29039.0,-19.24229739362809,-5.452888318604522,0,40000
1522872,57887.0,44713.0,23287.0,34113.0,-18.382938005608782,-7.8782986920999765,0,40000
1522882,54087.0,38841.0,26837.0,40235.0,-17.216332529352083,-10.178305076915965,0,40000
1522892,42936.0,53196.0,36568.0,27300.0,-15.708467741990667,-12.379177727088287,0,40000
1522902,41447.0,46779.0,37811.0,33963.0,-13.94585087432154,-14.335733095701286,0,40000
1522912,32920.0,42266.0,46590.0,38224.0,-11.946352732156981,-16.040095273996517,0,40000
1522922,31382.0,36314.0,47300.0,45004.0,-9.783945418125873,-17.443463304491274,0,40000
1522932,24360.0,30810.0,55200.0,49630.0,-7.395455020265058,-18.582444538952252,0,40000
1522942,24607.0,28823.0,55171.0,51399.0,-4.9502257564555565,-19.377700197911103,0,40000
1522952,19418.0,27816.0,61422.0,51344.0,-2.4215090469310216,-19.85286613906494,0,40000
1522962,21014.0,26220.0,60066.0,52700.0,0.15573342885731908,-19.999393668287453,0,40000
1522972,18738.0,28496.0,63742.0,49024.0,2.7191620244968644,-19.81429175833782,0,40000
1522982,20594.0,26640.0,63022.0,49744.0,5.259717290774747,-19.295993729816693,0,40000
1522992,18689.0,28545.0,65185.0,47581.0,7.70700359496446,-18.455408301828623,0,40000
1523002,19888.0,27346.0,64870.0,47896.0,10.004739205947564,-17.31777102923398,0,40000
1523012,17502.0,29732.0,65535.0,45106.0,12.138099366642939,-15.895488157508792,0,40000
