timestamp,stabilizer.roll,stabilizer.pitch,stateEstimateZ.rateRoll,stateEstimateZ.ratePitch,controller.pitchRate,controller.rollRate,roll,pitch,yawdot,thrust
891973,-40.0723762512207,67.58650207519531,5.0,6.0,-407.95220947265625,241.87693786621094,0,0,0,40000
891983,-40.09063720703125,67.57295989990234,-13.0,-4.0,-409.8983459472656,243.18890380859375,0,0,0,40000
891993,-40.1304931640625,67.56339263916016,0.0,-13.0,-411.8680114746094,244.6314697265625,0,0,0,40000
892003,-40.141788482666016,67.5055160522461,4.0,-87.0,-413.54669189453125,245.9034881591797,0,0,0,40000
892013,-40.0495719909668,67.40501403808594,-27.0,-349.0,-414.9671325683594,246.55287170410156,0,0,0,40000
892023,-39.69379425048828,67.13208770751953,-50.0,-531.0,-415.3471984863281,245.61370849609375,0,0,0,40000
892033,-39.25082015991211,66.86444854736328,-19.0,-875.0,-415.75067138671875,244.13897705078125,0,0,0,40000
892043,-38.14417266845703,66.20462799072266,21.0,-1373.0,-413.7865295410156,238.65821838378906,0,0,0,40000
892053,-37.12358474731445,65.58506774902344,21.0,-1946.0,-412.04437255859375,233.6610870361328,0,0,0,40000
892063,-35.82982635498047,64.78205108642578,-61.0,-2503.0,-408.7861633300781,226.76654052734375,0,0,0,40000
892073,-33.50251770019531,63.19873809814453,-10.0,-3306.0,-401.5818176269531,214.03793334960938,0,0,0,40000
892083,-31.699573516845703,61.839534759521484,76.0,-4048.0,-394.91925048828125,203.99212646484375,0,0,0,40000
892093,-28.76781463623047,59.26826858520508,81.0,-4947.0,-381.6578674316406,187.47280883789062,0,0,0,40000
892103,-26.736534118652344,57.1683349609375,119.0,-5735.0,-370.4433898925781,175.93899536132812,0,0,0,40000
892113,-23.721450805664062,53.40684127807617,216.0,-6771.0,-349.8443298339844,158.7386016845703,0,0,0,40000
892123,-21.784027099609375,50.513038635253906,278.0,-7459.0,-333.7116394042969,147.6483917236328,0,0,0,40000
892133,-19.061738967895508,45.64955520629883,432.0,-8134.0,-306.2339782714844,132.03274536132812,0,0,0,40000
892143,-17.382343292236328,42.14155960083008,645.0,-8488.0,-286.21868896484375,122.38348388671875,0,0,0,40000
892153,-15.081974029541016,36.64383316040039,928.0,-8643.0,-254.61801147460938,109.15126037597656,0,0,0,40000
892163,-13.681641578674316,32.941261291503906,1171.0,-8525.0,-233.2154083251953,101.08584594726562,0,0,0,40000
892173,-11.699298858642578,27.49530029296875,1431.0,-8127.0,-201.5940399169922,89.63623809814453,0,0,0,40000
892183,-10.425774574279785,24.021709442138672,1778.0,-7618.0,-181.349609375,82.25297546386719,0,0,0,40000
892193,-8.560330390930176,19.245466232299805,2124.0,-6728.0,-153.44070434570312,71.39089965820312,0,0,0,40000
892203,-7.3148274421691895,16.45609474182129,2275.0,-5738.0,-137.1155548095703,64.10092163085938,0,0,0,40000
892213,-5.454306602478027,12.994454383850098,2443.0,-4398.0,-116.85252380371094,53.15645980834961,0,0,0,40000
892223,-4.1956305503845215,11.2453031539917,2658.0,-3204.0,-106.63728332519531,45.71278381347656,0,0,0,40000
892233,-2.2675554752349854,9.537142753601074,2733.0,-1733.0,-96.74925231933594,34.24919128417969,0,0,0,40000
892243,-0.9782443046569824,8.981659889221191,2742.0,-671.0,-93.63459777832031,26.544517517089844,0,0,0,40000
892253,0.9431295990943909,8.856069564819336,2710.0,366.0,-93.19935607910156,15.00535774230957,0,0,0,40000
892263,2.205223798751831,9.143729209899902,2661.0,951.0,-95.14268493652344,7.38743782043457,0,0,0,40000
892273,4.042294979095459,9.939065933227539,2551.0,1409.0,-100.20233154296875,-3.7343997955322266,0,0,0,40000
892283,5.2258620262146,10.622587203979492,2405.0,1640.0,-104.61380004882812,-10.97846794128418,0,0,0,40000
892293,6.912060737609863,11.746442794799805,2252.0,1691.0,-111.69575500488281,-21.28310775756836,0,0,0,40000
892303,7.959005355834961,12.482621192932129,2072.0,1638.0,-116.47853088378906,-27.79108428955078,0,0,0,40000
892313,9.406546592712402,13.494287490844727,1849.0,1465.0,-122.9416275024414,-36.741607666015625,0,0,0,40000
892323,10.27004337310791,14.050382614135742,1616.0,1125.0,-126.69320678710938,-42.220458984375,0,0,0,40000
892333,11.381650924682617,14.611396789550781,1366.0,693.0,-130.49185180664062,-49.218746185302734,0,0,0,40000
892343,12.002486228942871,14.77883529663086,1128.0,192.0,-131.93807983398438,-53.296485900878906,0,0,0,40000
892353,12.710970878601074,14.666950225830078,856.0,-407.0,-131.7093963623047,-57.920894622802734,0,0,0,40000
892363,13.046035766601562,14.319799423217773,584.0,-1082.0,-130.0605926513672,-60.31886291503906,0,0,0,40000
892373,13.318744659423828,13.332763671875,328.0,-1820.0,-124.5517578125,-62.352073669433594,0,0,0,40000
892383,13.356908798217773,12.350489616394043,60.0,-2533.0,-119.04077911376953,-62.98149871826172,0,0,0,40000
892393,13.212896347045898,10.446484565734863,-216.0,-3127.0,-107.95428466796875,-62.51612091064453,0,0,0,40000
892403,13.002281188964844,8.9522066116333,-439.0,-3523.0,-99.27531433105469,-61.64514923095703,0,0,0,40000
892413,12.53396224975586,6.537744998931885,-689.0,-3679.0,-85.01399993896484,-59.217369079589844,0,0,0,40000
892423,12.115575790405273,4.901381969451904,-937.0,-3621.0,-75.36247253417969,-57.07568359375,0,0,0,40000
892433,11.367192268371582,2.5531370639801025,-1160.0,-3345.0,-61.37727355957031,-52.93584442138672,0,0,0,40000
892443,10.803997993469238,1.125956654548645,-1318.0,-2954.0,-52.8648681640625,-49.88763427734375,0,0,0,40000
892453,9.866998672485352,-0.6843805909156799,-1434.0,-2405.0,-42.00286865234375,-44.573028564453125,0,0,0,40000
892463,9.182482719421387,-1.6454565525054932,-1535.0,-1852.0,-36.19831848144531,-40.749671936035156,0,0,0,40000
892473,8.10595703125,-2.732167959213257,-1609.0,-1302.0,-29.607954025268555,-34.54679870605469,0,0,0,40000
892483,7.374958038330078,-3.1991357803344727,-1639.0,-744.0,-26.715486526489258,-30.390838623046875,0,0,0,40000
892493,6.260661602020264,-3.564044713973999,-1609.0,-320.0,-24.422563552856445,-23.906179428100586,0,0,0,40000
892503,5.5271477699279785,-3.6319706439971924,-1527.0,21.0,-23.906646728515625,-19.67963409423828,0,0,0,40000
892513,4.4865570068359375,-3.563873052597046,-1460.0,193.0,-24.207109451293945,-13.583029747009277,0,0,0,40000
892523,3.8346846103668213,-3.4575560092926025,-1368.0,249.0,-24.739938735961914,-9.794633865356445,0,0,0,40000
892533,2.93243145942688,-3.316218137741089,-1241.0,183.0,-25.486919403076172,-4.479617118835449,0,0,0,40000
892543,2.4036197662353516,-3.280916213989258,-1073.0,-14.0,-25.599987030029297,-1.3850927352905273,0,0,0,40000
892553,1.7149884700775146,-3.368597984313965,-920.0,-241.0,-24.974401473999023,2.687347412109375,0,0,0,40000
892563,1.330971121788025,-3.5518391132354736,-741.0,-517.0,-23.77074432373047,4.94698429107666,0,0,0,40000
892573,0.889970600605011,-3.992635488510132,-548.0,-751.0,-21.011991500854492,7.561371803283691,0,0,0,40000
892583,0.6938192248344421,-4.3751091957092285,-363.0,-938.0,-18.590606689453125,8.715192794799805,0,0,0,40000
892593,0.5090505480766296,-5.070685863494873,-158.0,-1066.0,-14.273662567138672,9.8068208694458,0,0,0,40000
892603,0.4776332974433899,-5.562711715698242,33.0,-1077.0,-11.160533905029297,9.980742454528809,0,0,0,40000
892613,0.5588510632514954,-6.291922569274902,205.0,-1024.0,-6.60516357421875,9.47804069519043,0,0,0,40000
892623,0.6898100972175598,-6.742902755737305,346.0,-904.0,-3.702342987060547,8.673240661621094,0,0,0,40000
892633,0.9744123816490173,-7.325176239013672,468.0,-749.0,0.004405975341796875,6.940059185028076,0,0,0,40000
892643,1.2283868789672852,-7.626956939697266,584.0,-557.0,2.0403785705566406,5.382471084594727,0,0,0,40000
892653,1.6755130290985107,-7.919986724853516,660.0,-327.0,4.033191680908203,2.6550769805908203,0,0,0,40000
892663,2.002048969268799,-8.016456604003906,740.0,-129.0,4.851459503173828,0.6397819519042969,0,0,0,40000
892673,2.533578395843506,-8.051072120666504,796.0,44.0,5.300666809082031,-2.6188879013061523,0,0,0,40000
892683,2.9014949798583984,-7.99357795715332,803.0,192.0,5.196281433105469,-4.909034729003906,0,0,0,40000
892693,3.469370126724243,-7.840002536773682,795.0,261.0,4.512054443359375,-8.413612365722656,0,0,0,40000
892703,3.835521697998047,-7.715435981750488,780.0,274.0,3.9976119995117188,-10.72119140625,0,0,0,40000
892713,4.366097450256348,-7.5529680252075195,758.0,214.0,3.2512359619140625,-14.029333114624023,0,0,0,40000
892723,4.707274436950684,-7.475496292114258,694.0,112.0,3.01153564453125,-16.213523864746094,0,0,0,40000
892733,5.181435585021973,-7.420115947723389,657.0,42.0,2.9024276733398438,-19.20828628540039,0,0,0,40000
892743,5.458423137664795,-7.425034523010254,556.0,-86.0,3.154541015625,-21.030675888061523,0,0,0,40000
892753,5.806492328643799,-7.519914150238037,453.0,-179.0,3.9480438232421875,-23.289352416992188,0,0,0,40000
892763,5.993716239929199,-7.625149726867676,358.0,-279.0,4.806884765625,-24.590293884277344,0,0,0,40000
892773,6.2076897621154785,-7.861814022064209,259.0,-400.0,6.459606170654297,-26.05805015563965,0,0,0,40000
892783,6.313249111175537,-8.060897827148438,172.0,-453.0,7.893531799316406,-26.879558563232422,0,0,0,40000
892793,6.4034104347229,-8.355748176574707,59.0,-446.0,9.909828186035156,-27.611793518066406,0,0,0,40000
892803,6.404903888702393,-8.553791999816895,-72.0,-440.0,11.352325439453125,-27.812955856323242,0,0,0,40000
892813,6.334672451019287,-8.828570365905762,-172.0,-376.0,13.2626953125,-27.582618713378906,0,0,0,40000
892823,6.242563724517822,-8.984125137329102,-224.0,-269.0,14.463729858398438,-27.218379974365234,0,0,0,40000
892833,6.041097640991211,-9.157479286193848,-317.0,-176.0,15.776691436767578,-26.19341278076172,0,0,0,40000
892843,5.870010852813721,-9.20858383178711,-396.0,-32.0,16.359024047851562,-25.345115661621094,0,0,0,40000
892853,5.5654988288879395,-9.212468147277832,-463.0,57.0,16.658851623535156,-23.688777923583984,0,0,0,40000
892863,5.3383097648620605,-9.161983489990234,-508.0,172.0,16.631458282470703,-22.48853302001953,0,0,0,40000
892873,4.963901996612549,-9.026167869567871,-550.0,243.0,16.089141845703125,-20.39556884765625,0,0,0,40000
892883,4.707151412963867,-8.915084838867188,-562.0,268.0,15.691452026367188,-18.999366760253906,0,0,0,40000
892893,4.295209884643555,-8.740463256835938,-581.0,253.0,14.907981872558594,-16.661514282226562,0,0,0,40000
892903,4.020140647888184,-8.6359224319458,-587.0,220.0,14.541065216064453,-15.134995460510254,0,0,0,40000
892913,3.6006014347076416,-8.514376640319824,-591.0,163.0,14.068546295166016,-12.73080062866211,0,0,0,40000
892923,3.3394365310668945,-8.448046684265137,-533.0,127.0,13.924812316894531,-11.267081260681152,0,0,0,40000
892933,2.9628515243530273,-8.386466026306152,-514.0,72.0,13.807487487792969,-9.100946426391602,0,0,0,40000
892943,2.731476068496704,-8.36620044708252,-472.0,41.0,13.937114715576172,-7.797389984130859,0,0,0,40000
892953,2.4230992794036865,-8.349272727966309,-402.0,9.0,14.086128234863281,-6.023327827453613,0,0,0,40000
892963,2.2406630516052246,-8.35947036743164,-361.0,-15.0,14.397960662841797,-4.998105049133301,0,0,0,40000
892973,2.003087282180786,-8.370150566101074,-296.0,-5.0,14.712959289550781,-3.635438919067383,0,0,0,40000
892983,1.8813682794570923,-8.374519348144531,-221.0,19.0,14.990398406982422,-2.9629669189453125,0,0,0,40000
892993,1.7416361570358276,-8.353119850158691,-155.0,75.0,15.112972259521484,-2.178317070007324,0,0,0,40000
893003,1.6858367919921875,-8.315006256103516,-96.0,131.0,15.134239196777344,-1.8947248458862305,0,0,0,40000
893013,1.6508550643920898,-8.20891284942627,-38.0,166.0,14.745254516601562,-1.7346372604370117,0,0,0,40000
893023,1.6501224040985107,-8.128826141357422,24.0,159.0,14.509559631347656,-1.7797164916992188,0,0,0,40000
893033,1.6763876676559448,-8.024540901184082,74.0,158.0,14.125778198242188,-1.9871482849121094,0,0,0,40000
893043,1.7121310234069824,-7.95486307144165,91.0,172.0,13.947189331054688,-2.252518653869629,0,0,0,40000
893053,1.7915433645248413,-7.82610559463501,140.0,230.0,13.41109848022461,-2.781670093536377,0,0,0,40000
893063,1.8638339042663574,-7.726963043212891,167.0,215.0,13.049251556396484,-3.270425796508789,0,0,0,40000
893073,1.9837678670883179,-7.597941875457764,199.0,159.0,12.504459381103516,-4.048058986663818,0,0,0,40000
893083,2.066565752029419,-7.552158832550049,147.0,72.0,12.456806182861328,-4.605903625488281,0,0,0,40000
893093,2.18239688873291,-7.511447429656982,177.0,48.0,12.438369750976562,-5.364901542663574,0,0,0,40000
893103,2.2611899375915527,-7.509883403778076,156.0,-21.0,12.65426254272461,-5.904543876647949,0,0,0,40000
893113,2.369990825653076,-7.522444725036621,174.0,-28.0,12.955150604248047,-6.6270833015441895,0,0,0,40000
893123,2.4411280155181885,-7.533874988555908,132.0,-23.0,13.249618530273438,-7.126296043395996,0,0,0,40000
893133,2.5256261825561523,-7.535161018371582,121.0,3.0,13.48345947265625,-7.708072662353516,0,0,0,40000
893143,2.5751326084136963,-7.521702289581299,70.0,39.0,13.628538131713867,-8.081826210021973,0,0,0,40000
893153,2.621675729751587,-7.46838903427124,58.0,110.0,13.533550262451172,-8.439194679260254,0,0,0,40000
893163,2.6436543464660645,-7.398861885070801,50.0,173.0,13.339252471923828,-8.65010929107666,0,0,0,40000
893173,2.666355609893799,-7.267350673675537,29.0,217.0,12.769901275634766,-8.866073608398438,0,0,0,40000
893183,2.670534133911133,-7.160640716552734,8.0,242.0,12.345766067504883,-8.97124195098877,0,0,0,40000
893193,2.6692192554473877,-6.993800640106201,-8.0,265.0,11.556644439697266,-9.04350471496582,0,0,0,40000
893203,2.6579034328460693,-6.880409240722656,-14.0,236.0,11.084049224853516,-9.055471420288086,0,0,0,40000
893213,2.629946708679199,-6.745326519012451,-44.0,181.0,10.4774169921875,-8.967031478881836,0,0,0,40000
893223,2.5977354049682617,-6.671591281890869,-56.0,150.0,10.236005783081055,-8.852092742919922,0,0,0,40000
893233,2.5432076454162598,-6.591017246246338,-99.0,104.0,9.951139450073242,-8.601982116699219,0,0,0,40000
893243,2.4975359439849854,-6.553621768951416,-91.0,78.0,9.923805236816406,-8.40339183807373,0,0,0,40000
893253,2.422405958175659,-6.533419609069824,-116.0,27.0,9.998735427856445,-8.026224136352539,0,0,0,40000
893263,2.3657386302948,-6.525712013244629,-133.0,-13.0,10.148353576660156,-7.757898330688477,0,0,0,40000
893273,2.2697131633758545,-6.527315139770508,-165.0,14.0,10.353843688964844,-7.251062393188477,0,0,0,40000
893283,2.2079544067382812,-6.515326976776123,-117.0,22.0,10.477514266967773,-6.947465896606445,0,0,0,40000
893293,2.0997188091278076,-6.4974517822265625,-158.0,43.0,10.565460205078125,-6.362391471862793,0,0,0,40000
893303,2.023749828338623,-6.468648433685303,-167.0,51.0,10.587045669555664,-5.968210220336914,0,0,0,40000
893313,1.9160104990005493,-6.404470443725586,-165.0,126.0,10.39501953125,-5.380548000335693,0,0,0,40000
893323,1.8365089893341064,-6.3376359939575195,-162.0,167.0,10.184980392456055,-4.959571838378906,0,0,0,40000
893333,1.7190570831298828,-6.223378658294678,-158.0,178.0,9.687507629394531,-4.307784080505371,0,0,0,40000
893343,1.6410014629364014,-6.144657135009766,-164.0,168.0,9.400440216064453,-3.8896265029907227,0,0,0,40000
893353,1.5318015813827515,-6.029452323913574,-148.0,187.0,8.891475677490234,-3.281643867492676,0,0,0,40000
893363,1.472829818725586,-5.944263458251953,-121.0,212.0,8.559728622436523,-2.972708225250244,0,0,0,40000
893373,1.399944543838501,-5.796942234039307,-96.0,221.0,7.851470947265625,-2.5782289505004883,0,0,0,40000
893383,1.3624794483184814,-5.701529026031494,-78.0,203.0,7.451166152954102,-2.394768714904785,0,0,0,40000
893393,1.3266005516052246,-5.570590972900391,-43.0,185.0,6.834165573120117,-2.2196102142333984,0,0,0,40000
893403,1.312059760093689,-5.4902801513671875,-2.0,177.0,6.517965316772461,-2.1718478202819824,0,0,0,40000
893413,1.3213574886322021,-5.3702826499938965,23.0,156.0,5.960428237915039,-2.2671046257019043,0,0,0,40000
893423,1.3432613611221313,-5.324137210845947,47.0,68.0,5.843774795532227,-2.4385476112365723,0,0,0,40000
893433,1.380464792251587,-5.314651966094971,42.0,-12.0,5.94622802734375,-2.7027196884155273,0,0,0,40000
893443,1.4144366979599,-5.337367534637451,52.0,-88.0,6.242307662963867,-2.9485855102539062,0,0,0,40000
893453,1.450488805770874,-5.414253234863281,58.0,-132.0,6.8650054931640625,-3.207949638366699,0,0,0,40000
893463,1.4829967021942139,-5.475455284118652,59.0,-164.0,7.395725250244141,-3.44711971282959,0,0,0,40000
893473,1.5236183404922485,-5.577469825744629,38.0,-147.0,8.173957824707031,-3.73612117767334,0,0,0,40000
893483,1.5467634201049805,-5.6290202140808105,16.0,-95.0,8.651557922363281,-3.9211740493774414,0,0,0,40000
893493,1.565731406211853,-5.663011074066162,21.0,-25.0,9.02513313293457,-4.081724166870117,0,0,0,40000
893503,1.5772088766098022,-5.660688877105713,14.0,31.0,9.18104362487793,-4.197762966156006,0,0,0,40000
893513,1.566765308380127,-5.6292033195495605,-13.0,65.0,9.161422729492188,-4.182300090789795,0,0,0,40000
893523,1.553217887878418,-5.5943169593811035,-17.0,104.0,9.120384216308594,-4.14778470993042,0,0,0,40000
893533,1.5259588956832886,-5.503465175628662,-37.0,157.0,8.741559982299805,-4.030389308929443,0,0,0,40000
893543,1.4996320009231567,-5.430768966674805,-80.0,168.0,8.469188690185547,-3.9177703857421875,0,0,0,40000
893553,1.4512460231781006,-5.3140692710876465,-60.0,174.0,7.929803848266602,-3.6715340614318848,0,0,0,40000
893563,1.4165759086608887,-5.228250980377197,-78.0,191.0,7.572780609130859,-3.506441593170166,0,0,0,40000
893573,1.363143801689148,-5.121459007263184,-71.0,126.0,7.0867156982421875,-3.227375030517578,0,0,0,40000
893583,1.322392225265503,-5.0764265060424805,-82.0,103.0,6.96934700012207,-3.023043632507324,0,0,0,40000
893593,1.2558207511901855,-5.015035629272461,-126.0,77.0,6.752084732055664,-2.6622095108032227,0,0,0,40000
893603,1.2177221775054932,-4.982763767242432,-81.0,71.0,6.708324432373047,-2.470607280731201,0,0,0,40000
893613,1.1751741170883179,-4.928027629852295,-71.0,80.0,6.528409957885742,-2.2510781288146973,0,0,0,40000
893623,1.143080234527588,-4.893087387084961,-36.0,68.0,6.465980529785156,-2.0931596755981445,0,0,0,40000
893633,1.1130754947662354,-4.828900337219238,-62.0,102.0,6.226511001586914,-1.946988582611084,0,0,0,40000
893643,1.1081233024597168,-4.763546943664551,0.0,189.0,5.978132247924805,-1.9505414962768555,0,0,0,40000
893653,1.0866024494171143,-4.639163017272949,-16.0,170.0,5.372335433959961,-1.854259967803955,0,0,0,40000
893663,1.0771892070770264,-4.556957721710205,-12.0,170.0,5.016815185546875,-1.8301959037780762,0,0,0,40000
893673,1.0748776197433472,-4.439914226531982,8.0,180.0,4.4492034912109375,-1.8485074043273926,0,0,0,40000
893683,1.0781445503234863,-4.3679585456848145,6.0,156.0,4.149375915527344,-1.9004311561584473,0,0,0,40000
893693,1.1039329767227173,-4.278618812561035,35.0,112.0,3.7426300048828125,-2.08795166015625,0,0,0,40000
893703,1.1282942295074463,-4.224079608917236,54.0,106.0,3.542797088623047,-2.2676734924316406,0,0,0,40000
893713,1.1667150259017944,-4.1691975593566895,51.0,54.0,3.3390846252441406,-2.5327444076538086,0,0,0,40000
893723,1.1875896453857422,-4.1628594398498535,72.0,18.0,3.426004409790039,-2.693340301513672,0,0,0,40000
893733,1.236735224723816,-4.1694207191467285,70.0,-9.0,3.590330123901367,-3.0247669219970703,0,0,0,40000
893743,1.2677063941955566,-4.1882476806640625,45.0,-45.0,3.8287181854248047,-3.2482829093933105,0,0,0,40000
893753,1.3116226196289062,-4.221748352050781,53.0,-61.0,4.155912399291992,-3.55063533782959,0,0,0,40000
893763,1.3386696577072144,-4.241255760192871,69.0,-45.0,4.399938583374023,-3.7527308464050293,0,0,0,40000
893773,1.3769835233688354,-4.258623123168945,48.0,-13.0,4.631725311279297,-4.023487567901611,0,0,0,40000
893783,1.3908427953720093,-4.269659996032715,32.0,15.0,4.825929641723633,-4.148242473602295,0,0,0,40000
893793,1.4113084077835083,-4.253170490264893,37.0,74.0,4.854946136474609,-4.313116550445557,0,0,0,40000
893803,1.4219104051589966,-4.200941562652588,17.0,139.0,4.6682586669921875,-4.419257640838623,0,0,0,40000
893813,1.4256561994552612,-4.087833404541016,9.0,186.0,4.1137237548828125,-4.484432220458984,0,0,0,40000
893823,1.419730544090271,-4.00157356262207,-17.0,206.0,3.7172203063964844,-4.491580963134766,0,0,0,40000
893833,1.4086312055587769,-3.863776683807373,-21.0,196.0,3.0079879760742188,-4.467411994934082,0,0,0,40000
893843,1.4010138511657715,-3.7686493396759033,-55.0,160.0,2.5513916015625,-4.463870048522949,0,0,0,40000
893853,1.3649494647979736,-3.6715826988220215,-36.0,132.0,2.0802154541015625,-4.288772106170654,0,0,0,40000
893863,1.346621036529541,-3.6207799911499023,-35.0,111.0,1.8846416473388672,-4.219411373138428,0,0,0,40000
893873,1.3130511045455933,-3.5670127868652344,-69.0,61.0,1.6695995330810547,-4.057889461517334,0,0,0,40000
893883,1.282841444015503,-3.555631160736084,-82.0,-13.0,1.7080841064453125,-3.9155197143554688,0,0,0,40000
893893,1.22480046749115,-3.5958216190338135,-86.0,-73.0,2.056516647338867,-3.604712724685669,0,0,0,40000
893903,1.189432978630066,-3.6305367946624756,-71.0,-72.0,2.3733139038085938,-3.428590774536133,0,0,0,40000
893913,1.136584758758545,-3.6910247802734375,-72.0,-94.0,2.846170425415039,-3.146235466003418,0,0,0,40000
893923,1.1005403995513916,-3.7456207275390625,-74.0,-116.0,3.285421371459961,-2.9634299278259277,0,0,0,40000
893933,1.0501444339752197,-3.8394668102264404,-82.0,-131.0,3.9625396728515625,-2.6931803226470947,0,0,0,40000
893943,1.0209393501281738,-3.8875441551208496,-61.0,-89.0,4.367099761962891,-2.5489120483398438,0,0,0,40000
893953,0.9809533357620239,-3.931013345718384,-54.0,-43.0,4.745420455932617,-2.338871955871582,0,0,0,40000
893963,0.9484566450119019,-3.9521842002868652,-59.0,-27.0,4.99078369140625,-2.172736644744873,0,0,0,40000
893973,0.9190946817398071,-3.9689345359802246,-39.0,-6.0,5.210186004638672,-2.024474620819092,0,0,0,40000
893983,0.8986201286315918,-3.9680826663970947,-34.0,20.0,5.324155807495117,-1.9288339614868164,0,0,0,40000
893993,0.8817210793495178,-3.930189371109009,-19.0,80.0,5.215307235717773,-1.854079246520996,0,0,0,40000
894003,0.8814958930015564,-3.868791103363037,7.0,153.0,4.963794708251953,-1.8791718482971191,0,0,0,40000
894013,0.8791300654411316,-3.752272367477417,-10.0,187.0,4.37872314453125,-1.8915119171142578,0,0,0,40000
894023,0.8759866952896118,-3.675959825515747,-11.0,154.0,4.032035827636719,-1.898979663848877,0,0,0,40000
894033,0.8768660426139832,-3.6194140911102295,-8.0,105.0,3.779926300048828,-1.9252839088439941,0,0,0,40000
894043,0.8703143000602722,-3.5403096675872803,-15.0,120.0,3.4124526977539062,-1.912172794342041,0,0,0,40000
894053,0.8653035163879395,-3.490034818649292,-18.0,129.0,3.216114044189453,-1.9081411361694336,0,0,0,40000
894063,0.861089825630188,-3.42164945602417,-26.0,55.0,2.9090538024902344,-1.908808946609497,0,0,0,40000
894073,0.8548323512077332,-3.4063162803649902,-14.0,25.0,2.9194412231445312,-1.896965503692627,0,0,0,40000
894083,0.8544198870658875,-3.3754608631134033,8.0,56.0,2.8360214233398438,-1.9200270175933838,0,0,0,40000
894093,0.8457419276237488,-3.358638048171997,-6.0,22.0,2.8360214233398438,-1.8934450149536133,0,0,0,40000
894103,0.8278644680976868,-3.3473522663116455,-32.0,16.0,2.8688182830810547,-1.811291217803955,0,0,0,40000
894113,0.8122876882553101,-3.348998785018921,-37.0,-7.0,2.9791507720947266,-1.7424030303955078,0,0,0,40000
894123,0.7826822996139526,-3.3701422214508057,-41.0,-71.0,3.2066783905029297,-1.5886478424072266,0,0,0,40000
894133,0.7672807574272156,-3.411296844482422,-66.0,-93.0,3.5554161071777344,-1.5194640159606934,0,0,0,40000
894143,0.726963222026825,-3.4723448753356934,-55.0,-53.0,4.025188446044922,-1.2998113632202148,0,0,0,40000
894153,0.6940121650695801,-3.4980664253234863,-64.0,-14.0,4.2841796875,-1.123316764831543,0,0,0,40000
894163,0.6548241972923279,-3.4905049800872803,-65.0,30.0,4.343677520751953,-0.9082636833190918,0,0,0,40000
894173,0.6257045865058899,-3.46290922164917,-64.0,79.0,4.2823638916015625,-0.7526431083679199,0,0,0,40000
894183,0.5813870429992676,-3.3902745246887207,-83.0,122.0,3.949216842651367,-0.5047607421875,0,0,0,40000
894193,0.5467843413352966,-3.3258655071258545,-74.0,169.0,3.663349151611328,-0.31395745277404785,0,0,0,40000
894203,0.4946269690990448,-3.213606357574463,-85.0,151.0,3.0874977111816406,-0.01647329330444336,0,0,0,40000
894213,0.4531137943267822,-3.1568827629089355,-79.0,125.0,2.842548370361328,0.2185356616973877,0,0,0,40000
894223,0.3891719579696655,-3.0904200077056885,-74.0,96.0,2.537191390991211,0.5897784233093262,0,0,0,40000
894233,0.35035836696624756,-3.0694730281829834,-94.0,34.0,2.5038022994995117,0.8116700649261475,0,0,0,40000
894243,0.2952979803085327,-3.0514705181121826,-84.0,-13.0,2.4873924255371094,1.1325507164001465,0,0,0,40000
894253,0.26686984300613403,-3.054436445236206,-54.0,-2.0,2.5968055725097656,1.2948070764541626,0,0,0,40000
894263,0.24401085078716278,-3.0405588150024414,-44.0,42.0,2.6050052642822266,1.4244284629821777,0,0,0,40000
894273,0.22293975949287415,-3.024157762527466,-30.0,62.0,2.597513198852539,1.5439271926879883,0,0,0,40000
894283,0.20262978971004486,-2.976365327835083,-9.0,72.0,2.4006118774414062,1.6595312356948853,0,0,0,40000
894293,0.19895389676094055,-2.940011739730835,-13.0,72.0,2.271106719970703,1.6755797863006592,0,0,0,40000
894303,0.19769106805324554,-2.898390293121338,4.0,67.0,2.1088390350341797,1.67725670337677,0,0,0,40000
894313,0.19942153990268707,-2.8832015991210938,15.0,37.0,2.1043710708618164,1.6609293222427368,0,0,0,40000
894323,0.20900098979473114,-2.8724827766418457,25.0,-7.0,2.1262359619140625,1.5973315238952637,0,0,0,40000
894333,0.21084380149841309,-2.882328510284424,-20.0,-10.0,2.271615982055664,1.579930305480957,0,0,0,40000
894343,0.2118796408176422,-2.890192747116089,-6.0,-1.0,2.4054489135742188,1.5674052238464355,0,0,0,40000
894353,0.2158004343509674,-2.891418695449829,10.0,-15.0,2.4995317459106445,1.5374705791473389,0,0,0,40000
894363,0.2277676910161972,-2.88995623588562,30.0,19.0,2.577547073364258,1.4590650796890259,0,0,0,40000
894373,0.24994532763957977,-2.86151123046875,14.0,3.0,2.493043899536133,1.3187370300292969,0,0,0,40000
894383,0.25878074765205383,-2.8502800464630127,11.0,53.0,2.511411666870117,1.2580678462982178,0,0,0,40000
894393,0.2711814343929291,-2.80541729927063,36.0,121.0,2.327012062072754,1.1757287979125977,0,0,0,40000
894403,0.2891422510147095,-2.7240235805511475,23.0,122.0,1.9213886260986328,1.0594995021820068,0,0,0,40000
894413,0.29767337441444397,-2.68070387840271,5.0,68.0,1.7423925399780273,0.9994974136352539,0,0,0,40000
894423,0.3046533465385437,-2.645963191986084,2.0,37.0,1.6136913299560547,0.9485682249069214,0,0,0,40000
894433,0.29579105973243713,-2.631779193878174,-20.0,24.0,1.6076974868774414,0.9927418231964111,0,0,0,40000
894443,0.28293663263320923,-2.607362985610962,-25.0,53.0,1.539804458618164,1.061205506324768,0,0,0,40000
894453,0.28643152117729187,-2.5761523246765137,-3.0,69.0,1.4301795959472656,1.0316922664642334,0,0,0,40000
894463,0.2923150062561035,-2.53139591217041,3.0,71.0,1.238138198852539,0.9877045154571533,0,0,0,40000
894473,0.2963622510433197,-2.4931604862213135,9.0,71.0,1.0839805603027344,0.9546091556549072,0,0,0,40000
894483,0.2966684103012085,-2.4577138423919678,-14.0,17.0,0.9453516006469727,0.943760871887207,0,0,0,40000
894493,0.29521140456199646,-2.453206777572632,-29.0,0.0,0.9919118881225586,0.9435968399047852,0,0,0,40000
894503,0.2823607921600342,-2.4641573429107666,-33.0,-29.0,1.131418228149414,1.0120940208435059,0,0,0,40000
894513,0.265959769487381,-2.48685622215271,-32.0,-49.0,1.3419322967529297,1.1023423671722412,0,0,0,40000
894523,0.24054664373397827,-2.5290310382843018,-24.0,-100.0,1.67022705078125,1.24734365940094,0,0,0,40000
894533,0.21581390500068665,-2.5709681510925293,-49.0,-78.0,1.9984560012817383,1.3889312744140625,0,0,0,40000
894543,0.16603787243366241,-2.6115641593933105,-57.0,-14.0,2.320063591003418,1.6819536685943604,0,0,0,40000
894553,0.14484328031539917,-2.6145811080932617,-45.0,-3.0,2.4165658950805664,1.8045026063919067,0,0,0,40000
894563,0.118876613676548,-2.5926222801208496,-19.0,81.0,2.3630619049072266,1.9564900398254395,0,0,0,40000
894573,0.10787803679704666,-2.548086404800415,-34.0,111.0,2.1728515625,2.0190985202789307,0,0,0,40000
894583,0.08830173313617706,-2.4626383781433105,-26.0,152.0,1.735182762145996,2.133683443069458,0,0,0,40000
894593,0.07989148050546646,-2.3950212001800537,1.0,161.0,1.4021339416503906,2.1816771030426025,0,0,0,40000
894603,0.08544708043336868,-2.274533748626709,-1.0,156.0,0.7489299774169922,2.1458747386932373,0,0,0,40000
894613,0.07829272747039795,-2.2138261795043945,-25.0,98.0,0.45176124572753906,2.186373710632324,0,0,0,40000
894623,0.061810292303562164,-2.1774868965148926,9.0,56.0,0.2994050979614258,2.283287763595581,0,0,0,40000
894633,0.06576427817344666,-2.1625494956970215,-23.0,-18.0,0.27475547790527344,2.2575950622558594,0,0,0,40000
894643,0.05262081325054169,-2.1876964569091797,-9.0,-40.0,0.49092864990234375,2.334721565246582,0,0,0,40000
894653,0.04634694755077362,-2.196946620941162,-14.0,-1.0,0.6122331619262695,2.3708784580230713,0,0,0,40000
894663,0.043116871267557144,-2.192716121673584,-3.0,15.0,0.652766227722168,2.3889546394348145,0,0,0,40000
894673,0.04594990238547325,-2.1889564990997314,-5.0,3.0,0.6959199905395508,2.370577335357666,0,0,0,40000
894683,0.04547039419412613,-2.18497633934021,-5.0,-11.0,0.7375669479370117,2.372061014175415,0,0,0,40000
894693,0.052342288196086884,-2.177504301071167,17.0,52.0,0.7581920623779297,2.329359769821167,0,0,0,40000
894703,0.05797901377081871,-2.1425106525421143,23.0,76.0,0.6130161285400391,2.293877601623535,0,0,0,40000
894713,0.060031138360500336,-2.115408420562744,24.0,81.0,0.5141830444335938,2.279759645462036,0,0,0,40000
894723,0.07364130765199661,-2.0645270347595215,20.0,75.0,0.2714548110961914,2.19602632522583,0,0,0,40000
894733,0.07927551120519638,-2.0358402729034424,5.0,87.0,0.16073131561279297,2.1599016189575195,0,0,0,40000
894743,0.08033314347267151,-1.9858626127243042,6.0,65.0,-0.07896900177001953,2.151150703430176,0,0,0,40000
894753,0.08000529557466507,-1.968467116355896,8.0,34.0,-0.12411785125732422,2.15071702003479,0,0,0,40000
894763,0.08165114372968674,-1.9678248167037964,-14.0,-6.0,-0.06897926330566406,2.13834547996521,0,0,0,40000
894773,0.08086259663105011,-1.9725606441497803,-10.0,16.0,0.018575668334960938,2.1406548023223877,0,0,0,40000
894783,0.06981737911701202,-1.9679070711135864,-14.0,16.0,0.04983234405517578,2.20469331741333,0,0,0,40000
894793,0.06408637017011642,-1.9685664176940918,-5.0,-3.0,0.11284446716308594,2.2370951175689697,0,0,0,40000
894803,0.06649645417928696,-1.9784198999404907,6.0,-35.0,0.231201171875,2.2207186222076416,0,0,0,40000
894813,0.06309113651514053,-2.0018811225891113,-9.0,-50.0,0.4317312240600586,2.2392125129699707,0,0,0,40000
894823,0.05859857797622681,-2.0307443141937256,17.0,-33.0,0.6655311584472656,2.264435291290283,0,0,0,40000
894833,0.06572048366069794,-2.037520408630371,9.0,7.0,0.7672519683837891,2.219834566116333,0,0,0,40000
894843,0.06481584906578064,-2.0150675773620605,-18.0,49.0,0.6933002471923828,2.2232558727264404,0,0,0,40000
894853,0.05817904323339462,-1.9835808277130127,-1.0,89.0,0.5643014907836914,2.261258602142334,0,0,0,40000
894863,0.06129065155982971,-1.9307736158370972,14.0,62.0,0.3060007095336914,2.240870714187622,0,0,0,40000
894873,0.05987626314163208,-1.9159002304077148,2.0,23.0,0.2743797302246094,2.24752140045166,0,0,0,40000
894883,0.05546365678310394,-1.9233471155166626,-14.0,-22.0,0.37655067443847656,2.2722153663635254,0,0,0,40000
894893,0.06257135421037674,-1.9386776685714722,0.0,-65.0,0.5264921188354492,2.2277965545654297,0,0,0,40000
894903,0.06337688118219376,-2.0033020973205566,9.0,-119.0,0.9734649658203125,2.2211251258850098,0,0,0,40000
894913,0.06418154388666153,-2.0616369247436523,0.0,-109.0,1.3846302032470703,2.214384078979492,0,0,0,40000
894923,0.06198373809456825,-2.1436116695404053,-3.0,-127.0,1.9397468566894531,2.225679874420166,0,0,0,40000
894933,0.0583401583135128,-2.182607889175415,8.0,-50.0,2.2387752532958984,2.245758533477783,0,0,0,40000
894943,0.05915738269686699,-2.198376417160034,8.0,8.0,2.399287223815918,2.2390971183776855,0,0,0,40000
894953,0.06378098577260971,-2.1919033527374268,-13.0,26.0,2.426280975341797,2.2094428539276123,0,0,0,40000
894963,0.06726743280887604,-2.15885066986084,9.0,59.0,2.2931699752807617,2.186591625213623,0,0,0,40000
894973,0.07079192250967026,-2.1120903491973877,11.0,122.0,2.07657527923584,2.1633737087249756,0,0,0,40000
894983,0.07483512908220291,-2.0167977809906006,4.0,149.0,1.5664691925048828,2.136876344680786,0,0,0,40000
894993,0.0870426669716835,-1.9574350118637085,26.0,98.0,1.269698143005371,2.0611724853515625,0,0,0,40000
895003,0.10680122673511505,-1.9182528257369995,24.0,47.0,1.0925531387329102,1.9396922588348389,0,0,0,40000
895013,0.12159375846385956,-1.9146981239318848,11.0,-2.0,1.1286554336547852,1.847449541091919,0,0,0,40000
895023,0.14382100105285645,-1.9332950115203857,41.0,-52.0,1.2978572845458984,1.7101197242736816,0,0,0,40000
895033,0.16177968680858612,-1.9737043380737305,29.0,-108.0,1.5990352630615234,1.597705602645874,0,0,0,40000
895043,0.1880577951669693,-2.056354284286499,31.0,-127.0,2.1555652618408203,1.4346498250961304,0,0,0,40000
895053,0.20898686349391937,-2.1320552825927734,48.0,-185.0,2.672804832458496,1.3030489683151245,0,0,0,40000
895063,0.2442549765110016,-2.280679941177368,46.0,-236.0,3.631089210510254,1.0845162868499756,0,0,0,40000
895073,0.26121485233306885,-2.3825950622558594,66.0,-177.0,4.312817573547363,0.975149393081665,0,0,0,40000
895083,0.3007657527923584,-2.4894251823425293,41.0,-162.0,5.027170181274414,0.7292242050170898,0,0,0,40000
895093,0.31825685501098633,-2.5513081550598145,16.0,-118.0,5.474281311035156,0.6149089336395264,0,0,0,40000
895103,0.339870423078537,-2.6074137687683105,25.0,-56.0,5.888618469238281,0.4752953052520752,0,0,0,40000
895113,0.3525271415710449,-2.6053755283355713,48.0,42.0,5.954626083374023,0.38895320892333984,0,0,0,40000
895123,0.37584802508354187,-2.5347177982330322,37.0,144.0,5.607823371887207,0.23804545402526855,0,0,0,40000
895133,0.3865795433521271,-2.443526268005371,29.0,219.0,5.135101318359375,0.16218256950378418,0,0,0,40000
895143,0.4010310173034668,-2.306025743484497,9.0,220.0,4.380960464477539,0.06357622146606445,0,0,0,40000
895153,0.4111091196537018,-2.208988666534424,4.0,201.0,3.866156578063965,-0.009097576141357422,0,0,0,40000
895163,0.4131681025028229,-2.090301513671875,4.0,166.0,3.2181453704833984,-0.033806800842285156,0,0,0,40000
895173,0.42016831040382385,-2.0190863609313965,29.0,163.0,2.852288246154785,-0.08832287788391113,0,0,0,40000
895183,0.42803192138671875,-1.9425652027130127,16.0,94.0,2.4522581100463867,-0.14828157424926758,0,0,0,40000
895193,0.4317612648010254,-1.891422152519226,6.0,97.0,2.2027387619018555,-0.18360114097595215,0,0,0,40000
895203,0.441345751285553,-1.8273513317108154,-1.0,74.0,1.8737773895263672,-0.25432586669921875,0,0,0,40000
895213,0.4399435818195343,-1.8054392337799072,-13.0,48.0,1.7967262268066406,-0.2591421604156494,0,0,0,40000
895223,0.43829336762428284,-1.7972397804260254,-7.0,-7.0,1.8014202117919922,-0.26238584518432617,0,0,0,40000
895233,0.43867990374565125,-1.8149904012680054,6.0,-82.0,1.962127685546875,-0.27786803245544434,0,0,0,40000
895243,0.447918176651001,-1.8581969738006592,10.0,-33.0,2.2767515182495117,-0.3466219902038574,0,0,0,40000
895253,0.45907482504844666,-1.867650032043457,0.0,20.0,2.389423370361328,-0.4272434711456299,0,0,0,40000
895263,0.4644865095615387,-1.8467607498168945,15.0,47.0,2.3198680877685547,-0.47353267669677734,0,0,0,40000
895273,0.47828584909439087,-1.8023645877838135,15.0,117.0,2.1081066131591797,-0.5705206394195557,0,0,0,40000
895283,0.47707778215408325,-1.7223623991012573,12.0,135.0,1.6808156967163086,-0.5775885581970215,0,0,0,40000
895293,0.47527191042900085,-1.663669228553772,-24.0,144.0,1.3792648315429688,-0.5810825824737549,0,0,0,40000
895303,0.46329039335250854,-1.5656362771987915,-30.0,145.0,0.8392314910888672,-0.523273229598999,0,0,0,40000
895313,0.4638960361480713,-1.5179357528686523,1.0,94.0,0.5990791320800781,-0.5407958030700684,0,0,0,40000
895323,0.46933653950691223,-1.4606937170028687,24.0,78.0,0.3001394271850586,-0.5873701572418213,0,0,0,40000
895333,0.4837951064109802,-1.4425455331802368,20.0,33.0,0.23471450805664062,-0.6884708404541016,0,0,0,40000
895343,0.508137047290802,-1.4125231504440308,20.0,37.0,0.09729194641113281,-0.8494689464569092,0,0,0,40000
895353,0.5255632996559143,-1.4118869304656982,17.0,-19.0,0.13580322265625,-0.9695801734924316,0,0,0,40000
895363,0.5461328625679016,-1.444435954093933,34.0,-47.0,0.37398242950439453,-1.1090784072875977,0,0,0,40000
895373,0.5638139843940735,-1.4655965566635132,41.0,-63.0,0.5446805953979492,-1.2318449020385742,0,0,0,40000
895383,0.5784544944763184,-1.5265719890594482,23.0,-97.0,0.9555454254150391,-1.336888074874878,0,0,0,40000
895393,0.5853561162948608,-1.5789293050765991,9.0,-115.0,1.31640625,-1.3957915306091309,0,0,0,40000
895403,0.6020053625106812,-1.6465123891830444,9.0,-92.0,1.7705726623535156,-1.513524055480957,0,0,0,40000
895413,0.6066831350326538,-1.6813933849334717,16.0,-57.0,2.0299072265625,-1.5597336292266846,0,0,0,40000
895423,0.6114527583122253,-1.7143423557281494,-4.0,-36.0,2.2786169052124023,-1.60670804977417,0,0,0,40000
895433,0.6086281538009644,-1.7216156721115112,-10.0,26.0,2.3738598823547363,-1.6080725193023682,0,0,0,40000
895443,0.615932047367096,-1.6841496229171753,1.0,91.0,2.2002015113830566,-1.6702501773834229,0,0,0,40000
895453,0.6151110529899597,-1.6445945501327515,0.0,91.0,2.0126872062683105,-1.683790683746338,0,0,0,40000
895463,0.6133173108100891,-1.5759456157684326,10.0,115.0,1.6489500999450684,-1.691414713859558,0,0,0,40000
895473,0.6343744993209839,-1.5103291273117065,42.0,150.0,1.301368236541748,-1.836508870124817,0,0,0,40000
895483,0.6424113512039185,-1.4230018854141235,-9.0,116.0,0.8210363388061523,-1.9040061235427856,0,0,0,40000
895493,0.6420658230781555,-1.3863404989242554,-1.0,68.0,0.6430783271789551,-1.9211848974227905,0,0,0,40000
895503,0.6395004391670227,-1.3725254535675049,-7.0,4.0,0.6013917922973633,-1.9250304698944092,0,0,0,40000
895513,0.6496766209602356,-1.3838355541229248,8.0,-37.0,0.7106146812438965,-2.0054752826690674,0,0,0,40000
895523,0.6496087312698364,-1.4237728118896484,-11.0,-58.0,0.9924163818359375,-2.024627447128296,0,0,0,40000
895533,0.6439274549484253,-1.4584360122680664,-10.0,-66.0,1.2437424659729004,-2.0099215507507324,0,0,0,40000
895543,0.6342751383781433,-1.498637080192566,-3.0,-37.0,1.5295228958129883,-1.9710986614227295,0,0,0,40000
895553,0.6235113739967346,-1.5213031768798828,-24.0,-46.0,1.710871696472168,-1.9253687858581543,0,0,0,40000
895563,0.6027770042419434,-1.536205530166626,-41.0,-11.0,1.8462295532226562,-1.819361686706543,0,0,0,40000
895573,0.5892589092254639,-1.5391911268234253,-39.0,0.0,1.9103069305419922,-1.7560776472091675,0,0,0,40000
895583,0.5634267330169678,-1.5237927436828613,-37.0,34.0,1.8638229370117188,-1.6182942390441895,0,0,0,40000
895593,0.5516113042831421,-1.4875620603561401,-21.0,87.0,1.6915531158447266,-1.5640840530395508,0,0,0,40000
895603,0.5327751636505127,-1.4515413045883179,-30.0,38.0,1.5193109512329102,-1.4673073291778564,0,0,0,40000
895613,0.5213768482208252,-1.4276868104934692,-26.0,74.0,1.4193272590637207,-1.41469144821167,0,0,0,40000
895623,0.4903131127357483,-1.3983500003814697,-42.0,51.0,1.285628318786621,-1.2434067726135254,0,0,0,40000
895633,0.4844297170639038,-1.3740352392196655,-14.0,45.0,1.1812667846679688,-1.2227150201797485,0,0,0,40000
895643,0.4711668789386749,-1.356926679611206,-20.0,21.0,1.1194629669189453,-1.1574292182922363,0,0,0,40000
895653,0.46647366881370544,-1.350032091140747,-13.0,6.0,1.118669033050537,-1.1433027982711792,0,0,0,40000
895663,0.45140862464904785,-1.3544634580612183,-10.0,8.0,1.1858272552490234,-1.0666248798370361,0,0,0,40000
895673,0.4457595646381378,-1.3530464172363281,-17.0,0.0,1.217933177947998,-1.0461854934692383,0,0,0,40000
895683,0.45166605710983276,-1.3428056240081787,14.0,43.0,1.196974277496338,-1.0950086116790771,0,0,0,40000
895693,0.45805832743644714,-1.3203599452972412,-1.0,77.0,1.102203369140625,-1.147047519683838,0,0,0,40000
895703,0.4682002663612366,-1.264290690422058,0.0,86.0,0.8043885231018066,-1.2218528985977173,0,0,0,40000
895713,0.4775463342666626,-1.226162075996399,28.0,84.0,0.6128721237182617,-1.292125940322876,0,0,0,40000
895723,0.48403865098953247,-1.2061771154403687,17.0,19.0,0.529231071472168,-1.3455148935317993,0,0,0,40000
895733,0.491294264793396,-1.2238727807998657,13.0,-60.0,0.6718664169311523,-1.4037222862243652,0,0,0,40000
895743,0.5065327286720276,-1.2966666221618652,17.0,-119.0,1.1465215682983398,-1.5102218389511108,0,0,0,40000
895753,0.5175837278366089,-1.3812594413757324,22.0,-197.0,1.6944494247436523,-1.5919243097305298,0,0,0,40000
895763,0.5249180197715759,-1.4748140573501587,15.0,-170.0,2.542656898498535,-1.6592837572097778,0,0,0,40000
895773,0.5359454154968262,-1.5841953754425049,30.0,-140.0,2.9932518005371094,-1.7305049896240234,0,0,0,40000
895783,0.5445485711097717,-1.6313579082489014,17.0,-92.0,3.3246097564697266,-1.7983769178390503,0,0,0,40000
895793,0.5527758598327637,-1.6698753833770752,9.0,-1.0,3.6055102348327637,-1.8642914295196533,0,0,0,40000
895803,0.5631307363510132,-1.6480618715286255,7.0,89.0,3.5243821144104004,-1.9431767463684082,0,0,0,40000
895813,0.5633426904678345,-1.573678731918335,-7.0,143.0,3.1263084411621094,-1.961391568183899,0,0,0,40000
895823,0.5555747151374817,-1.4882018566131592,7.0,234.0,2.6591615676879883,-1.9315316677093506,0,0,0,40000
895833,0.5527916550636292,-1.3267457485198975,4.0,245.0,1.7321977615356445,-1.9314690828323364,0,0,0,40000
895843,0.5500591397285461,-1.2292004823684692,-29.0,182.0,1.1849207878112793,-1.9316601753234863,0,0,0,40000
895853,0.5372458696365356,-1.1133534908294678,-25.0,160.0,0.524559497833252,-1.8710486888885498,0,0,0,40000
895863,0.5231400728225708,-1.035530686378479,-24.0,154.0,0.08959245681762695,-1.8022959232330322,0,0,0,40000
895873,0.5099571347236633,-0.9541662931442261,-32.0,123.0,-0.36910581588745117,-1.7386550903320312,0,0,0,40000
895883,0.5016443729400635,-0.9021230340003967,-37.0,90.0,-0.6536931991577148,-1.703902006149292,0,0,0,40000
895893,0.4807206392288208,-0.8675485253334045,-17.0,2.0,-0.8349089622497559,-1.59296452999115,0,0,0,40000
895903,0.4732917547225952,-0.8665469288825989,-15.0,-14.0,-0.8149032592773438,-1.562648892402649,0,0,0,40000
895913,0.46117693185806274,-0.9011901021003723,-28.0,-65.0,-0.58056640625,-1.5039563179016113,0,0,0,40000
895923,0.44703415036201477,-0.9433823823928833,-31.0,-134.0,-0.29964399337768555,-1.4326636791229248,0,0,0,40000
895933,0.4358966648578644,-1.0536741018295288,-15.0,-166.0,0.39233875274658203,-1.378959059715271,0,0,0,40000
895943,0.41769278049468994,-1.1289098262786865,-31.0,-169.0,0.876716136932373,-1.2824933528900146,0,0,0,40000
895953,0.3914313018321991,-1.2346519231796265,-31.0,-137.0,1.5469779968261719,-1.1370127201080322,0,0,0,40000
895963,0.3891274034976959,-1.2784892320632935,-51.0,-31.0,1.8479061126708984,-1.1348990201950073,0,0,0,40000
895973,0.3627750277519226,-1.2820652723312378,-16.0,13.0,1.9078831672668457,-0.9878568649291992,0,0,0,40000
895983,0.3544273376464844,-1.2694482803344727,5.0,50.0,1.870466709136963,-0.9484655857086182,0,0,0,40000
895993,0.345145046710968,-1.2164937257766724,-12.0,115.0,1.5900139808654785,-0.9032588005065918,0,0,0,40000
896003,0.3425213098526001,-1.1668503284454346,-10.0,108.0,1.3277506828308105,-0.8978093862533569,0,0,0,40000
896013,0.34592682123184204,-1.10105299949646,2.0,65.0,0.966641902923584,-0.9285603761672974,0,0,0,40000
896023,0.34550461173057556,-1.0955883264541626,-2.0,-7.0,0.9667778015136719,-0.9363921880722046,0,0,0,40000
896033,0.35385602712631226,-1.1182862520217896,14.0,-76.0,1.1360974311828613,-0.9969309568405151,0,0,0,40000
896043,0.3521367609500885,-1.172031044960022,11.0,-111.0,1.4930505752563477,-0.9971764087677002,0,0,0,40000
896053,0.3629472851753235,-1.2408552169799805,26.0,-92.0,1.9424877166748047,-1.0727429389953613,0,0,0,40000
896063,0.36883771419525146,-1.2783102989196777,13.0,-38.0,2.205172538757324,-1.1190876960754395,0,0,0,40000
896073,0.3744141757488251,-1.3002090454101562,15.0,-23.0,2.37534236907959,-1.1637110710144043,0,0,0,40000
896083,0.3748597800731659,-1.2979252338409424,-1.0,51.0,2.40065860748291,-1.1776601076126099,0,0,0,40000
896093,0.36934030055999756,-1.2479019165039062,0.0,99.0,2.1386537551879883,-1.1556898355484009,0,0,0,40000
896103,0.3662744164466858,-1.1905183792114258,-2.0,159.0,1.8308019638061523,-1.1483094692230225,0,0,0,40000
896113,0.3593473732471466,-1.0865336656570435,-16.0,157.0,1.2407169342041016,-1.1176639795303345,0,0,0,40000
896123,0.34332069754600525,-1.019817590713501,-26.0,154.0,0.8718314170837402,-1.0320019721984863,0,0,0,40000
896133,0.32260921597480774,-0.9277479648590088,-23.0,148.0,0.3483400344848633,-0.9176664352416992,0,0,0,40000
896143,0.3055260479450226,-0.866222083568573,-27.0,144.0,0.0059070587158203125,-0.8245782852172852,0,0,0,40000
896153,0.28781241178512573,-0.7778245806694031,-16.0,102.0,-0.5001649856567383,-0.7271335124969482,0,0,0,40000
896163,0.2808205783367157,-0.7395685911178589,-12.0,36.0,-0.7070837020874023,-0.6936962604522705,0,0,0,40000
896173,0.27502354979515076,-0.7231062054634094,6.0,3.0,-0.7839899063110352,-0.6671676635742188,0,0,0,40000
896183,0.282284677028656,-0.7252113819122314,3.0,-23.0,-0.749657154083252,-0.7191161513328552,0,0,0,40000
896193,0.2860755920410156,-0.7723986506462097,-1.0,-98.0,-0.4440922737121582,-0.750407874584198,0,0,0,40000
896203,0.2854114770889282,-0.8296054601669312,0.0,-158.0,-0.07666969299316406,-0.7549906969070435,0,0,0,40000
896213,0.28918081521987915,-0.9494380950927734,15.0,-188.0,0.6692214012145996,-0.7862557172775269,0,0,0,40000
896223,0.3036276400089264,-1.033339023590088,31.0,-153.0,1.2026300430297852,-0.8818833827972412,0,0,0,40000
896233,0.3272818624973297,-1.1211267709732056,18.0,-90.0,1.762113094329834,-1.0333435535430908,0,0,0,40000
896243,0.33388784527778625,-1.1597588062286377,27.0,-32.0,2.0282387733459473,-1.0829081535339355,0,0,0,40000
896253,0.3642787039279938,-1.1509191989898682,55.0,75.0,2.0100879669189453,-1.2757153511047363,0,0,0,40000
896263,0.37877795100212097,-1.1090413331985474,26.0,108.0,1.7926206588745117,-1.3739298582077026,0,0,0,40000
896273,0.3960924744606018,-1.0219359397888184,20.0,155.0,1.301809310913086,-1.4895110130310059,0,0,0,40000
896283,0.401565283536911,-0.9289755821228027,34.0,221.0,0.7730741500854492,-1.534310221672058,0,0,0,40000
896293,0.41333502531051636,-0.7754029035568237,11.0,255.0,-0.12313985824584961,-1.6172075271606445,0,0,0,40000
896303,0.4207260310649872,-0.6535355448722839,14.0,280.0,-0.8332653045654297,-1.6740872859954834,0,0,0,40000
896313,0.42106008529663086,-0.48899906873703003,-11.0,215.0,-1.8039841651916504,-1.6887887716293335,0,0,0,40000
896323,0.40941229462623596,-0.404240220785141,-21.0,168.0,-2.299407482147217,-1.6313259601593018,0,0,0,40000
896333,0.39541172981262207,-0.3143059313297272,-25.0,99.0,-2.828644275665283,-1.5593764781951904,0,0,0,40000
896343,0.37589630484580994,-0.2879060208797455,-47.0,25.0,-2.978132724761963,-1.4538159370422363,0,0,0,40000
896353,0.36139288544654846,-0.2912648916244507,0.0,-47.0,-2.949458360671997,-1.377650260925293,0,0,0,40000
896363,0.3530890941619873,-0.31768855452537537,-45.0,-74.0,-2.781714916229248,-1.3385634422302246,0,0,0,40000
896373,0.324636310338974,-0.38595759868621826,-56.0,-108.0,-2.361433744430542,-1.1779597997665405,0,0,0,40000
896383,0.30364543199539185,-0.4313215911388397,-69.0,-107.0,-2.076859712600708,-1.0613822937011719,0,0,0,40000
896393,0.26200008392333984,-0.49334800243377686,-58.0,-93.0,-1.6906025409698486,-0.8198058605194092,0,0,0,40000
896403,0.23056554794311523,-0.5336384177207947,-38.0,-77.0,-1.433321475982666,-0.6384693384170532,0,0,0,40000
896413,0.1969166249036789,-0.5803022384643555,-29.0,-40.0,-1.1363906860351562,-0.442895770072937,0,0,0,40000
896423,0.18134798109531403,-0.6163197755813599,-49.0,-90.0,-0.9022495746612549,-0.3551323413848877,0,0,0,40000
896433,0.15401026606559753,-0.6773666143417358,-32.0,-81.0,-0.5163669586181641,-0.1960200071334839,0,0,0,40000
896443,0.1378566175699234,-0.7223151922225952,-24.0,-90.0,-0.22555112838745117,-0.10342913866043091,0,0,0,40000
896453,0.11435449868440628,-0.788108766078949,-31.0,-93.0,0.1920771598815918,0.033853888511657715,0,0,0,40000
896463,0.10069599747657776,-0.8266292214393616,-23.0,-27.0,0.4475550651550293,0.1126166582107544,0,0,0,40000
896473,0.08215294033288956,-0.8324511647224426,-26.0,11.0,0.5074949264526367,0.221183180809021,0,0,0,40000
896483,0.07523850351572037,-0.8104979991912842,20.0,78.0,0.400388240814209,0.26037120819091797,0,0,0,40000
896493,0.06842701882123947,-0.7495889663696289,-8.0,97.0,0.058188438415527344,0.29898160696029663,0,0,0,40000
896503,0.06887057423591614,-0.683263897895813,13.0,189.0,-0.31842660903930664,0.29426032304763794,0,0,0,40000
896513,0.08004675060510635,-0.5550201535224915,14.0,189.0,-1.0696640014648438,0.2249525785446167,0,0,0,40000
896523,0.08184606581926346,-0.4780161380767822,4.0,162.0,-1.5164265632629395,0.21172761917114258,0,0,0,40000
896533,0.08898584544658661,-0.3736967444419861,14.0,131.0,-2.129948139190674,0.16630733013153076,0,0,0,40000
896543,0.08323538303375244,-0.3320636451244354,0.0,59.0,-2.3693315982818604,0.19822168350219727,0,0,0,40000
896553,0.08799561858177185,-0.31322720646858215,12.0,33.0,-2.4727184772491455,0.16711527109146118,0,0,0,40000
896563,0.08878512680530548,-0.3206293284893036,-2.0,-58.0,-2.4188292026519775,0.15971308946609497,0,0,0,40000
896573,0.08170655369758606,-0.3664540648460388,-16.0,-64.0,-2.1334352493286133,0.19962358474731445,0,0,0,40000
896583,0.0737031027674675,-0.41237276792526245,-2.0,-126.0,-1.8461694717407227,0.24534350633621216,0,0,0,40000
896593,0.060108769685029984,-0.5049443244934082,-19.0,-113.0,-1.2766923904418945,0.32488709688186646,0,0,0,40000
896603,0.05528324097394943,-0.560512125492096,-24.0,-122.0,-0.9271411895751953,0.35209089517593384,0,0,0,40000
896613,0.04508129134774208,-0.6505628824234009,-35.0,-148.0,-0.3684384822845459,0.41181692481040955,0,0,0,40000
896623,0.03564444184303284,-0.7207332849502563,-18.0,-133.0,0.07336187362670898,0.46727174520492554,0,0,0,40000
896633,0.024374935775995255,-0.8066686987876892,-5.0,-103.0,0.6122298240661621,0.5340644121170044,0,0,0,40000
896643,0.01668582297861576,-0.856057345867157,-24.0,-78.0,0.9336433410644531,0.5795941352844238,0,0,0,40000
896653,0.010668696835637093,-0.8804684281349182,-1.0,-4.0,1.1063714027404785,0.6153546571731567,0,0,0,40000
896663,0.002252077916637063,-0.8708890676498413,-12.0,40.0,1.0751500129699707,0.6656737327575684,0,0,0,40000
896673,-0.0012172064743936062,-0.8249202966690063,-6.0,75.0,0.8247380256652832,0.6864969730377197,0,0,0,40000
896683,-0.0010384409688413143,-0.7802554965019226,23.0,128.0,0.580747127532959,0.6854570508003235,0,0,0,40000
896693,0.00952032022178173,-0.6854919791221619,31.0,138.0,0.033937931060791016,0.621942400932312,0,0,0,40000
896703,0.026354461908340454,-0.6163036227226257,34.0,148.0,-0.36188840866088867,0.520327091217041,0,0,0,40000
896713,0.05172393098473549,-0.530212938785553,30.0,119.0,-0.8615059852600098,0.36686304211616516,0,0,0,40000
896723,0.07859883457422256,-0.4801197052001953,54.0,80.0,-1.1470947265625,0.20360898971557617,0,0,0,40000
896733,0.11136186122894287,-0.4474937617778778,43.0,18.0,-1.3291823863983154,0.004079043865203857,0,0,0,40000
896743,0.13410165905952454,-0.4396827220916748,71.0,8.0,-1.362785816192627,-0.1360967755317688,0,0,0,40000
896753,0.17702966928482056,-0.4526526629924774,51.0,-13.0,-1.2715439796447754,-0.39855170249938965,0,0,0,40000
896763,0.2017374336719513,-0.4554429352283478,62.0,-3.0,-1.2411508560180664,-0.5525651574134827,0,0,0,40000
896773,0.2565748393535614,-0.45892828702926636,64.0,6.0,-1.2064273357391357,-0.8886241316795349,0,0,0,40000
896783,0.2926252484321594,-0.460044801235199,66.0,6.0,-1.1859595775604248,-1.1132781505584717,0,0,0,40000
896793,0.3446961045265198,-0.4533795118331909,98.0,18.0,-1.2122347354888916,-1.4353092908859253,0,0,0,40000
896803,0.37214332818984985,-0.46614348888397217,39.0,-47.0,-1.1218235492706299,-1.6108767986297607,0,0,0,40000
896813,0.4024539291858673,-0.5225883722305298,47.0,-103.0,-0.7682805061340332,-1.8044335842132568,0,0,0,40000
896823,0.42000046372413635,-0.591784656047821,35.0,-153.0,-0.33618712425231934,-1.9221028089523315,0,0,0,40000
896833,0.4319723844528198,-0.6998633742332458,18.0,-143.0,0.33206629753112793,-2.006786823272705,0,0,0,40000
896843,0.4363454580307007,-0.7678163647651672,3.0,-146.0,0.761998176574707,-2.0460708141326904,0,0,0,40000
896853,0.4301917850971222,-0.8499725461006165,-20.0,-106.0,1.2795493602752686,-2.0221946239471436,0,0,0,40000
896863,0.41416823863983154,-0.8953143954277039,-25.0,-75.0,1.5779151916503906,-1.9386796951293945,0,0,0,40000
896873,0.399489164352417,-0.8987627029418945,-14.0,30.0,1.6257801055908203,-1.8627357482910156,0,0,0,40000
896883,0.3807525336742401,-0.8686245679855347,-67.0,101.0,1.4714324474334717,-1.7620118856430054,0,0,0,40000
896893,0.3433394432067871,-0.7824855446815491,-51.0,145.0,0.9791512489318848,-1.5482311248779297,0,0,0,40000
896903,0.3130728006362915,-0.7085306644439697,-80.0,204.0,0.5576291084289551,-1.3764115571975708,0,0,0,40000
896913,0.26105278730392456,-0.5705413818359375,-72.0,199.0,-0.25160837173461914,-1.0727137327194214,0,0,0,40000
896923,0.21786805987358093,-0.4821805953979492,-73.0,207.0,-0.7662341594696045,-0.8206335306167603,0,0,0,40000
896933,0.15567457675933838,-0.36290469765663147,-99.0,157.0,-1.4696669578552246,-0.45297306776046753,0,0,0,40000
896943,0.11360630393028259,-0.2942260801792145,-90.0,126.0,-1.8721187114715576,-0.20445486903190613,0,0,0,40000
896953,0.044985949993133545,-0.2414582222700119,-78.0,60.0,-2.1810128688812256,0.20517048239707947,0,0,0,40000
896963,0.004025052301585674,-0.24521620571613312,-70.0,-20.0,-2.1511805057525635,0.45032763481140137,0,0,0,40000
896973,-0.04094080626964569,-0.3060248792171478,-86.0,-113.0,-1.7780838012695312,0.7207279205322266,19.999999780056914,0.0029660956532028813,0,40000
896983,-0.06351226568222046,-0.3781506419181824,-23.0,-173.0,-1.3527374267578125,121.33782958984375,19.94727144264077,1.4513311109488771,0,40000
896993,-0.08387094736099243,-0.4970753788948059,-19.0,-174.0,-9.34207534790039,121.74495697021484,19.812560647971914,2.731746798375477,0,40000
897003,-0.06696289032697678,-0.5799137949943542,75.0,-199.0,-16.577747344970703,121.43350982666016,19.596901942882603,3.995176371706772,0,40000
897013,0.029678290709853172,-0.7218789458274841,193.0,-201.0,-23.391237258911133,120.15078735351562,19.29870947819795,5.249744039104435,0,40000
897023,0.15147343277931213,-0.8150407671928406,325.0,-183.0,-30.478775024414062,118.21037292480469,18.91631411323683,6.494078869967405,0,40000
897033,0.45049792528152466,-0.9493830800056458,517.0,-202.0,-37.284339904785156,114.68672180175781,18.459123743812025,7.69810045469888,0,40000
897043,0.738527774810791,-1.065916657447815,717.0,-247.0,-43.987972259521484,110.75885009765625,17.926902966698332,8.867138773165927,0,40000
897053,1.3120877742767334,-1.2756545543670654,931.0,-344.0,-49.95319366455078,104.6395492553711,17.300915703390046,10.033858471405292,0,40000
897063,1.7929635047912598,-1.466049075126648,1143.0,-471.0,-56.049522399902344,98.48077392578125,17.300915703390046,10.033858471405292,0,40000
897073,2.650728940963745,-1.8293976783752441,1320.0,-597.0,-60.65400695800781,89.71005249023438,16.623214310214568,11.120645035099248,0,40000
897083,3.3154618740081787,-2.143493413925171,1532.0,-753.0,-65.39154052734375,81.57628631591797,15.86594809032518,12.176686379927293,0,40000
897093,4.4354681968688965,-2.749069929122925,1695.0,-954.0,-68.04497528076172,70.29569244384766,15.048037501422026,13.17408696478797,0,40000
897103,5.256205081939697,-3.225642681121826,1836.0,-1110.0,-71.14905548095703,60.38869857788086,14.167873491190527,14.116350829361702,0,40000
897113,6.570766448974609,-4.041318893432617,1930.0,-1254.0,-71.88501739501953,47.093326568603516,13.227766351677117,15.000873219430883,0,40000
897123,7.4961347579956055,-4.627974033355713,2021.0,-1340.0,-73.638427734375,35.72382736206055,12.228695589668535,15.825896631003921,0,40000
897133,8.90756607055664,-5.545297622680664,2036.0,-1402.0,-73.01605987548828,21.05453872680664,11.176859811513067,16.585469687463906,0,40000
897143,9.838874816894531,-6.157329559326172,1966.0,-1392.0,-73.79151153564453,8.944418907165527,10.08236193614199,17.272694572319487,0,40000
897153,11.205132484436035,-7.0471320152282715,1902.0,-1323.0,-72.50788879394531,-6.184374809265137,8.931211651055616,17.895067992160534,0,40000
897163,12.08639144897461,-7.614844799041748,1791.0,-1287.0,-72.73474884033203,-18.795116424560547,7.72590990263092,18.447501624242495,0,40000
897173,13.319366455078125,-8.409849166870117,1644.0,-1194.0,-71.01297760009766,-33.51860427856445,6.531726074506591,18.903347705832708,0,40000
897183,14.044745445251465,-8.910381317138672,1424.0,-1141.0,-68.31550598144531,-38.08768081665039,5.295118192584067,19.28630921992503,0,40000
897193,14.998854637145996,-9.617867469787598,1197.0,-1098.0,-66.66670227050781,-51.51216506958008,4.021124192716059,19.591594121631697,0,40000
897203,15.52177906036377,-10.045778274536133,943.0,-972.0,-66.222412109375,-62.632572174072266,2.729669199260982,19.812846995386753,0,40000
897213,16.09017562866211,-10.603132247924805,631.0,-836.0,-64.48845672607422,-74.18632507324219,1.4587715215874684,19.946728695397784,0,40000
897223,16.348344802856445,-10.95198917388916,428.0,-749.0,-63.47260284423828,-83.80438995361328,0.1766451783780042,19.99921989680987,0,40000
897233,16.503934860229492,-11.425883293151855,54.0,-708.0,-61.207054138183594,-92.91936492919922,-1.111682674413825,19.9690801398414,0,40000
897243,16.443706512451172,-11.749079704284668,-226.0,-734.0,-59.337554931640625,-100.81548309326172,-2.3969120895843177,19.855850836335485,0,40000
897253,16.14349365234375,-12.275279998779297,-596.0,-785.0,-55.73480987548828,-107.28617858886719,-3.6721665422194967,19.659989646136736,0,40000
897263,15.8043212890625,-12.6649808883667,-892.0,-861.0,-52.43720245361328,-113.48363494873047,-4.967582714988014,19.37325790799659,0,40000
897273,15.067753791809082,-13.341160774230957,-1211.0,-981.0,-46.850860595703125,-117.43959045410156,-6.202441499846407,19.01393487526932,0,40000
897283,14.440950393676758,-13.833487510681152,-1434.0,-1054.0,-41.90447235107422,-121.70742797851562,-7.414658612942837,18.574790379800053,0,40000
897293,13.291035652160645,-14.624591827392578,-1713.0,-1077.0,-34.65369415283203,-122.70954132080078,-8.590624065150084,18.061040340225816,0,40000
897303,12.39422607421875,-15.165684700012207,-1937.0,-1094.0,-28.421085357666016,-125.01789093017578,-9.741218425332395,17.467359949058263,0,40000
897313,10.886247634887695,-15.991229057312012,-2176.0,-1094.0,-19.967063903808594,-123.4973373413086,-10.848296123868968,16.802216258840662,0,40000
897323,9.780731201171875,-16.512744903564453,-2347.0,-970.0,-12.869989395141602,-124.12567901611328,-11.911242557515902,16.066185008769878,0,40000
897333,7.975884914398193,-17.21337127685547,-2483.0,-836.0,-4.232487678527832,-120.28018951416016,-12.91796307388881,15.268471764444705,0,40000
897343,6.68056583404541,-17.59446907043457,-2596.0,-640.0,2.8961305618286133,-119.14009857177734,-13.8697188089424,14.409403185450447,0,40000
897353,4.654894828796387,-18.015878677368164,-2727.0,-430.0,10.672386169433594,-113.26564025878906,-14.768698805478554,13.486494562823076,0,40000
897363,3.2506422996520996,-18.177019119262695,-2798.0,-196.0,17.304527282714844,-110.78072357177734,-15.60494862304051,12.509419589743803,0,40000
897373,1.0792951583862305,-18.234750747680664,-2855.0,61.0,23.673355102539062,-103.28683471679688,-15.60494862304051,12.509419589743803,0,40000
897383,-0.3811614513397217,-18.129344940185547,-2852.0,350.0,29.612638473510742,-99.78936004638672,-16.40186272170974,11.444601314951443,0,40000
897393,-2.58345103263855,-17.78245735168457,-2908.0,569.0,34.24650573730469,-91.25977325439453,-17.10693360500756,10.36112072286889,0,40000
