timestamp,stabilizer.roll,stabilizer.pitch,stateEstimateZ.rateRoll,stateEstimateZ.ratePitch,controller.pitchRate,controller.rollRate,roll,pitch,yawdot,thrust
1557992,-40.99449920654297,63.93164825439453,-1.0,11.0,-385.8915100097656,247.44317626953125,0,0,0,40000
1558002,-40.97355651855469,63.92121887207031,-34.0,0.0,-387.7467041015625,248.54678344726562,0,0,0,40000
1558012,-40.988895416259766,63.90540313720703,-8.0,-8.0,-389.5691833496094,249.86825561523438,0,0,0,40000
1558022,-41.01445388793945,63.837799072265625,-19.0,-86.0,-391.0796203613281,251.25164794921875,0,0,0,40000
1558032,-40.95255661010742,63.72933578491211,-10.0,-384.0,-392.3421325683594,252.1096649169922,0,0,0,40000
1558042,-40.582279205322266,63.41391372680664,11.0,-635.0,-392.35626220703125,251.110595703125,0,0,0,40000
1558052,-40.136932373046875,63.10404968261719,40.0,-1028.0,-392.3940734863281,249.6483154296875,0,0,0,40000
1558062,-38.99098205566406,62.359039306640625,26.0,-1559.0,-389.80450439453125,243.95750427246094,0,0,0,40000
1558072,-37.93055725097656,61.66866683959961,57.0,-2171.0,-387.5208740234375,238.74598693847656,0,0,0,40000
1558082,-35.92237091064453,60.250518798828125,33.0,-2894.0,-380.83782958984375,227.79978942871094,0,0,0,40000
1558092,-34.35175323486328,59.00859069824219,64.0,-3715.0,-375.17181396484375,219.4257354736328,0,0,0,40000
1558102,-31.66261863708496,56.610504150390625,103.0,-4654.0,-362.5121765136719,204.27392578125,0,0,0,40000
1558112,-29.72504997253418,54.63156509399414,144.0,-5586.0,-352.3017883300781,193.5635528564453,0,0,0,40000
1558122,-26.708593368530273,51.03205871582031,211.0,-6512.0,-332.28094482421875,176.30235290527344,0,0,0,40000
1558132,-24.70749855041504,48.214412689208984,392.0,-7361.0,-316.85577392578125,165.06103515625,0,0,0,40000
1558142,-21.85896110534668,43.45905303955078,549.0,-8015.0,-289.68597412109375,148.65936279296875,0,0,0,40000
1558152,-20.106077194213867,40.026214599609375,756.0,-8403.0,-270.3311462402344,138.76611328125,0,0,0,40000
1558162,-17.693273544311523,34.653480529785156,944.0,-8589.0,-239.19921875,124.84831237792969,0,0,0,40000
1558172,-16.21914291381836,31.0169677734375,1230.0,-8555.0,-218.35430908203125,116.50772094726562,0,0,0,40000
1558182,-14.149374961853027,25.652292251586914,1528.0,-8240.0,-186.99972534179688,104.53819274902344,0,0,0,40000
1558192,-12.82240104675293,22.21760368347168,1832.0,-7712.0,-167.09909057617188,96.97697448730469,0,0,0,40000
1558202,-10.881866455078125,17.46874237060547,2111.0,-6964.0,-139.1855926513672,85.68356323242188,0,0,0,40000
1558212,-9.582945823669434,14.632943153381348,2345.0,-6017.0,-122.643310546875,78.19306945800781,0,0,0,40000
1558222,-7.606317043304443,11.052474975585938,2614.0,-4894.0,-101.53260040283203,66.58534240722656,0,0,0,40000
1558232,-6.2741780281066895,9.2095365524292,2798.0,-3643.0,-90.77272033691406,58.796730041503906,0,0,0,40000
1558242,-4.22532844543457,7.335097789764404,2940.0,-2281.0,-79.76576232910156,46.655094146728516,0,0,0,40000
1558252,-2.8478050231933594,6.6780781745910645,2968.0,-1027.0,-76.03121948242188,38.491851806640625,0,0,0,40000
1558262,-0.7689745426177979,6.451578140258789,2949.0,33.0,-74.86630249023438,26.06674575805664,0,0,0,40000
1558272,0.596221923828125,6.710159778594971,2905.0,856.0,-76.61558532714844,17.8740177154541,0,0,0,40000
1558282,2.602719306945801,7.523348808288574,2845.0,1419.0,-81.70951080322266,5.780921936035156,0,0,0,40000
1558292,3.8988564014434814,8.262005805969238,2712.0,1765.0,-86.38026428222656,-2.097360610961914,0,0,0,40000
1558302,5.751943111419678,9.516111373901367,2567.0,1941.0,-94.17498779296875,-13.36651611328125,0,0,0,40000
1558312,6.906857013702393,10.388540267944336,2351.0,1983.0,-99.71073150634766,-20.489486694335938,0,0,0,40000
1558322,8.494475364685059,11.658950805664062,2114.0,1867.0,-107.66793060302734,-30.251445770263672,0,0,0,40000
1558332,9.456741333007812,12.438559532165527,1851.0,1668.0,-112.70951843261719,-36.29736328125,0,0,0,40000
1558342,10.720202445983887,13.394819259643555,1543.0,1343.0,-118.83824920654297,-44.18531036376953,0,0,0,40000
1558352,11.440361022949219,13.833284378051758,1275.0,871.0,-121.87907409667969,-48.84101867675781,0,0,0,40000
1558362,12.298943519592285,14.14753532409668,1040.0,351.0,-124.18631744384766,-54.351802825927734,0,0,0,40000
1558372,12.716361999511719,14.100539207458496,759.0,-281.0,-124.32821655273438,-57.2329216003418,0,0,0,40000
1558382,13.117061614990234,13.602532386779785,506.0,-985.0,-121.75566864013672,-60.026458740234375,0,0,0,40000
1558392,13.243429183959961,12.944498062133789,230.0,-1777.0,-118.20411682128906,-61.180667877197266,0,0,0,40000
1558402,13.228912353515625,11.467190742492676,-28.0,-2512.0,-109.70356750488281,-61.49125671386719,0,0,0,40000
1558412,13.09151840209961,10.183257102966309,-255.0,-3049.0,-102.26007080078125,-60.98284149169922,0,0,0,40000
1558422,12.860194206237793,8.727471351623535,-519.0,-3482.0,-93.80491638183594,-59.983551025390625,0,0,0,40000
1558432,12.306023597717285,6.33331298828125,-805.0,-3627.0,-79.6590347290039,-57.03484344482422,0,0,0,40000
1558442,11.833425521850586,4.717437744140625,-1001.0,-3585.0,-70.12471771240234,-54.55995178222656,0,0,0,40000
1558452,11.033990859985352,2.388845443725586,-1215.0,-3368.0,-56.25226974487305,-50.10436248779297,0,0,0,40000
1558462,10.444933891296387,0.9609345197677612,-1393.0,-2967.0,-47.730560302734375,-46.8904914855957,0,0,0,40000
1558472,9.456428527832031,-0.8600644469261169,-1513.0,-2437.0,-36.79948806762695,-41.255104064941406,0,0,0,40000
1558482,8.747454643249512,-1.8216407299041748,-1580.0,-1867.0,-30.98660659790039,-37.27215576171875,0,0,0,40000
1558492,7.587228775024414,-2.876614570617676,-1753.0,-1248.0,-24.58184242248535,-30.552919387817383,0,0,0,40000
1558502,6.805245876312256,-3.3244211673736572,-1738.0,-685.0,-21.800390243530273,-26.074626922607422,0,0,0,40000
1558512,5.622451305389404,-3.644836664199829,-1720.0,-209.0,-19.771379470825195,-19.160724639892578,0,0,0,40000
1558522,4.851668834686279,-3.6659438610076904,-1647.0,137.0,-19.534835815429688,-14.690756797790527,0,0,0,40000
1558532,3.7385807037353516,-3.493314743041992,-1557.0,374.0,-20.46319580078125,-8.137483596801758,0,0,0,40000
1558542,3.0298266410827637,-3.2742111682891846,-1478.0,488.0,-21.676895141601562,-3.9843196868896484,0,0,0,40000
1558552,2.0506958961486816,-2.951206684112549,-1368.0,418.0,-23.522663116455078,1.817366600036621,0,0,0,40000
1558562,1.4619306325912476,-2.7867743968963623,-1239.0,253.0,-24.423789978027344,5.299073219299316,0,0,0,40000
1558572,0.6727977395057678,-2.6921193599700928,-1073.0,15.0,-24.91036033630371,10.004619598388672,0,0,0,40000
1558582,0.21664230525493622,-2.748296022415161,-876.0,-220.0,-24.49164581298828,12.729707717895508,0,0,0,40000
1558592,-0.34757548570632935,-3.0065042972564697,-714.0,-483.0,-22.85591697692871,16.119056701660156,0,0,0,40000
1558602,-0.6306111812591553,-3.2897965908050537,-529.0,-717.0,-21.06097984313965,17.83290672302246,0,0,0,40000
1558612,-0.9192053079605103,-3.8563971519470215,-324.0,-947.0,-17.55298614501953,19.5891056060791,0,0,0,40000
1558622,-1.0306373834609985,-4.311427116394043,-110.0,-1035.0,-14.698949813842773,20.28742218017578,0,0,0,40000
1558632,-1.0621709823608398,-5.02739143371582,71.0,-1076.0,-10.26104736328125,20.508426666259766,0,0,0,40000
1558642,-1.0066348314285278,-5.502464771270752,234.0,-1004.0,-7.251182556152344,20.206119537353516,0,0,0,40000
1558652,-0.8012466430664062,-6.145123481750488,369.0,-850.0,-3.2182998657226562,19.000566482543945,0,0,0,40000
1558662,-0.5833442211151123,-6.50155782699585,534.0,-660.0,-0.8888282775878906,17.713361740112305,0,0,0,40000
1558672,-0.1755363494157791,-6.894628524780273,660.0,-471.0,1.6721153259277344,15.277042388916016,0,0,0,40000
1558682,0.15545378625392914,-7.049671649932861,794.0,-235.0,2.812145233154297,13.290437698364258,0,0,0,40000
1558692,0.7181088328361511,-7.149466037750244,828.0,-75.0,3.624561309814453,9.899704933166504,0,0,0,40000
1558702,1.1359682083129883,-7.14040994644165,894.0,60.0,3.784618377685547,7.363497734069824,0,0,0,40000
1558712,1.7841590642929077,-7.051161766052246,941.0,190.0,3.4620018005371094,3.4287147521972656,0,0,0,40000
1558722,2.214656352996826,-6.96392297744751,956.0,214.0,3.148529052734375,0.7844810485839844,0,0,0,40000
1558732,2.8762402534484863,-6.830146312713623,972.0,196.0,2.55230712890625,-3.26332950592041,0,0,0,40000
1558742,3.315373659133911,-6.751858711242676,901.0,139.0,2.28607177734375,-5.992397308349609,0,0,0,40000
1558752,3.940546989440918,-6.670111656188965,841.0,54.0,1.9965248107910156,-9.854307174682617,0,0,0,40000
1558762,4.329361915588379,-6.653832912445068,787.0,-19.0,2.098674774169922,-12.31241512298584,0,0,0,40000
1558772,4.840087890625,-6.693783760070801,688.0,-120.0,2.5384864807128906,-15.516075134277344,0,0,0,40000
1558782,5.129988670349121,-6.769776344299316,609.0,-195.0,3.1965866088867188,-17.40593719482422,0,0,0,40000
1558792,5.497653007507324,-6.928884506225586,487.0,-261.0,4.356971740722656,-19.772703170776367,0,0,0,40000
1558802,5.690343856811523,-7.059753894805908,376.0,-261.0,5.352409362792969,-21.097354888916016,0,0,0,40000
1558812,5.907050609588623,-7.25525426864624,208.0,-290.0,6.740684509277344,-22.57259750366211,0,0,0,40000
1558822,5.991608142852783,-7.396173477172852,104.0,-294.0,7.806400299072266,-23.25872802734375,0,0,0,40000
1558832,6.028214931488037,-7.594712257385254,-10.0,-309.0,9.22308349609375,-23.659025192260742,0,0,0,40000
1558842,5.994314193725586,-7.730138778686523,-103.0,-297.0,10.26589584350586,-23.635906219482422,0,0,0,40000
1558852,5.867152214050293,-7.920095920562744,-242.0,-248.0,11.641067504882812,-23.05082130432129,0,0,0,40000
1558862,5.726980686187744,-8.0325288772583,-350.0,-199.0,12.555282592773438,-22.383378982543945,0,0,0,40000
1558872,5.460288047790527,-8.158002853393555,-423.0,-122.0,13.551525115966797,-20.950361251831055,0,0,0,40000
1558882,5.258782386779785,-8.199441909790039,-469.0,-12.0,14.045703887939453,-19.901504516601562,0,0,0,40000
1558892,4.913010597229004,-8.202413558959961,-516.0,25.0,14.309696197509766,-17.978473663330078,0,0,0,40000
1558902,4.6555304527282715,-8.171510696411133,-560.0,105.0,14.369857788085938,-16.576366424560547,0,0,0,40000
1558912,4.257355690002441,-8.061427116394043,-587.0,180.0,13.952713012695312,-14.319857597351074,0,0,0,40000
1558922,3.9798874855041504,-7.962211608886719,-602.0,213.0,13.597476959228516,-12.77779483795166,0,0,0,40000
1558932,3.5591845512390137,-7.809152603149414,-589.0,250.0,12.915298461914062,-10.365360260009766,0,0,0,40000
1558942,3.28367018699646,-7.6993489265441895,-588.0,230.0,12.48879623413086,-8.81408405303955,0,0,0,40000
1558952,2.8766415119171143,-7.559278964996338,-560.0,241.0,11.876899719238281,-6.462993621826172,0,0,0,40000
1558962,2.6235995292663574,-7.470419406890869,-529.0,178.0,11.568885803222656,-5.026470184326172,0,0,0,40000
1558972,2.2760391235351562,-7.357569217681885,-476.0,137.0,11.113822937011719,-3.0134525299072266,0,0,0,40000
1558982,2.066598653793335,-7.307627201080322,-421.0,79.0,11.033958435058594,-1.8213062286376953,0,0,0,40000
1558992,1.7971938848495483,-7.273129940032959,-347.0,7.0,11.045394897460938,-0.2618436813354492,0,0,0,40000
1559002,1.640533208847046,-7.284739017486572,-273.0,-40.0,11.333450317382812,0.6270685195922852,0,0,0,40000
1559012,1.4602620601654053,-7.349076747894287,-227.0,-91.0,11.938995361328125,1.6628904342651367,0,0,0,40000
1559022,1.3718955516815186,-7.402280807495117,-159.0,-120.0,12.47967529296875,2.150925636291504,0,0,0,40000
1559032,1.2861219644546509,-7.488686561584473,-96.0,-99.0,13.221733093261719,2.6261425018310547,0,0,0,40000
1559042,1.2566934823989868,-7.515810012817383,-15.0,-21.0,13.609695434570312,2.764735221862793,0,0,0,40000
1559052,1.2591034173965454,-7.518951416015625,37.0,-4.0,13.854110717773438,2.71267032623291,0,0,0,40000
1559062,1.2838075160980225,-7.490618705749512,106.0,85.0,13.909217834472656,2.5262513160705566,0,0,0,40000
1559072,1.358069658279419,-7.423873424530029,137.0,106.0,13.732242584228516,2.040947914123535,0,0,0,40000
1559082,1.4345970153808594,-7.363193035125732,176.0,152.0,13.58981704711914,1.5396642684936523,0,0,0,40000
1559092,1.5759106874465942,-7.266303539276123,199.0,163.0,13.227598190307617,0.6463136672973633,0,0,0,40000
1559102,1.6795800924301147,-7.201529026031494,222.0,150.0,13.0557861328125,-0.024840354919433594,0,0,0,40000
1559112,1.8337801694869995,-7.108767986297607,245.0,114.0,12.71352767944336,-1.003138542175293,0,0,0,40000
1559122,1.9507181644439697,-7.044000625610352,276.0,141.0,12.53702163696289,-1.7618989944458008,0,0,0,40000
1559132,2.136139392852783,-6.9571027755737305,269.0,108.0,12.225276947021484,-2.936319351196289,0,0,0,40000
1559142,2.2617223262786865,-6.90253210067749,268.0,121.0,12.105609893798828,-3.7561559677124023,0,0,0,40000
1559152,2.4521546363830566,-6.8118720054626465,267.0,128.0,11.767105102539062,-4.96998405456543,0,0,0,40000
1559162,2.5651419162750244,-6.748688220977783,233.0,152.0,11.591236114501953,-5.723496437072754,0,0,0,40000
1559172,2.7213683128356934,-6.654681205749512,214.0,140.0,11.227947235107422,-6.740699768066406,0,0,0,40000
1559182,2.815680742263794,-6.608122825622559,191.0,72.0,11.147377014160156,-7.389948844909668,0,0,0,40000
1559192,2.930241346359253,-6.559482097625732,143.0,25.0,11.052845001220703,-8.163972854614258,0,0,0,40000
1559202,2.987757682800293,-6.556690216064453,110.0,-27.0,11.232795715332031,-8.598008155822754,0,0,0,40000
1559212,3.050175428390503,-6.5722222328186035,84.0,-46.0,11.52292251586914,-9.063343048095703,0,0,0,40000
1559222,3.075126886367798,-6.590730667114258,18.0,-17.0,11.831478118896484,-9.305036544799805,0,0,0,40000
1559232,3.087939739227295,-6.583089828491211,23.0,42.0,11.98336410522461,-9.474397659301758,0,0,0,40000
1559242,3.089923143386841,-6.574275016784668,-37.0,47.0,12.127761840820312,-9.578983306884766,0,0,0,40000
1559252,3.061596393585205,-6.5173659324646,-47.0,109.0,11.982707977294922,-9.50128173828125,0,0,0,40000
1559262,3.030243158340454,-6.466859340667725,-75.0,111.0,11.874267578125,-9.404448509216309,0,0,0,40000
1559272,2.9640233516693115,-6.382963180541992,-100.0,111.0,11.563438415527344,-9.096882820129395,0,0,0,40000
1559282,2.904935598373413,-6.314877510070801,-127.0,151.0,11.34518051147461,-8.830231666564941,0,0,0,40000
1559292,2.8123393058776855,-6.209041118621826,-154.0,152.0,10.897747039794922,-8.360183715820312,0,0,0,40000
1559302,2.7379980087280273,-6.142451286315918,-168.0,146.0,10.683250427246094,-7.997186660766602,0,0,0,40000
1559312,2.616365432739258,-6.0504841804504395,-169.0,155.0,10.314128875732422,-7.3473310470581055,0,0,0,40000
1559322,2.524667739868164,-5.985951900482178,-190.0,165.0,10.107295989990234,-6.873997688293457,0,0,0,40000
1559332,2.3953936100006104,-5.874059677124023,-185.0,163.0,9.613506317138672,-6.171791076660156,0,0,0,40000
1559342,2.3122947216033936,-5.794007301330566,-179.0,157.0,9.307987213134766,-5.743520736694336,0,0,0,40000
1559352,2.1842496395111084,-5.694749355316162,-179.0,141.0,8.884502410888672,-5.042262077331543,0,0,0,40000
1559362,2.1032321453094482,-5.6311540603637695,-158.0,142.0,8.672630310058594,-4.620217323303223,0,0,0,40000
1559372,1.998989224433899,-5.555237770080566,-166.0,104.0,8.384597778320312,-4.056005954742432,0,0,0,40000
1559382,1.928560733795166,-5.528188705444336,-158.0,34.0,8.388435363769531,-3.692148208618164,0,0,0,40000
1559392,1.829503059387207,-5.544524669647217,-135.0,-40.0,8.652454376220703,-3.1538286209106445,0,0,0,40000
1559402,1.7719807624816895,-5.593547821044922,-93.0,-101.0,9.113761901855469,-2.8624916076660156,0,0,0,40000
1559412,1.7029287815093994,-5.6519317626953125,-88.0,-75.0,9.632955551147461,-2.5000953674316406,0,0,0,40000
1559422,1.670770287513733,-5.680500507354736,-58.0,-72.0,9.97445297241211,-2.3576364517211914,0,0,0,40000
1559432,1.6390655040740967,-5.704085826873779,-51.0,-32.0,10.28687858581543,-2.2168946266174316,0,0,0,40000
1559442,1.6234594583511353,-5.694403648376465,-33.0,49.0,10.399751663208008,-2.172133445739746,0,0,0,40000
1559452,1.6043901443481445,-5.651978969573975,-10.0,85.0,10.315343856811523,-2.1060218811035156,0,0,0,40000
1559462,1.5944558382034302,-5.604438304901123,-8.0,137.0,10.198841094970703,-2.0943737030029297,0,0,0,40000
1559472,1.5981981754302979,-5.491519927978516,27.0,185.0,9.687532424926758,-2.16464900970459,0,0,0,40000
1559482,1.611401915550232,-5.406609535217285,25.0,194.0,9.341279983520508,-2.2920379638671875,0,0,0,40000
1559492,1.6280235052108765,-5.267315864562988,12.0,204.0,8.665214538574219,-2.440467357635498,0,0,0,40000
1559502,1.6416118144989014,-5.178130149841309,53.0,167.0,8.2864990234375,-2.571051597595215,0,0,0,40000
1559512,1.6694815158843994,-5.059643268585205,19.0,162.0,7.728740692138672,-2.788107395172119,0,0,0,40000
1559522,1.6893612146377563,-4.999443054199219,33.0,130.0,7.518228530883789,-2.9578447341918945,0,0,0,40000
1559532,1.7233766317367554,-4.931197643280029,48.0,92.0,7.257404327392578,-3.213191032409668,0,0,0,40000
1559542,1.7396702766418457,-4.897785663604736,60.0,69.0,7.204286575317383,-3.362910270690918,0,0,0,40000
1559552,1.7792630195617676,-4.8455915451049805,44.0,75.0,7.037111282348633,-3.6534156799316406,0,0,0,40000
1559562,1.7996385097503662,-4.807059288024902,41.0,76.0,6.9506072998046875,-3.8293933868408203,0,0,0,40000
1559572,1.8264708518981934,-4.757394313812256,24.0,57.0,6.795848846435547,-4.044903755187988,0,0,0,40000
1559582,1.846828579902649,-4.7425856590271,65.0,23.0,6.849431991577148,-4.222179412841797,0,0,0,40000
1559592,1.8660876750946045,-4.74636697769165,34.0,-29.0,7.014308929443359,-4.393515586853027,0,0,0,40000
1559602,1.8707116842269897,-4.761502742767334,34.0,-32.0,7.247776031494141,-4.477300643920898,0,0,0,40000
1559612,1.8767740726470947,-4.780479907989502,6.0,-6.0,7.504886627197266,-4.569940567016602,0,0,0,40000
1559622,1.8874621391296387,-4.763657569885254,15.0,65.0,7.547130584716797,-4.690559387207031,0,0,0,40000
1559632,1.8959656953811646,-4.677254676818848,-1.0,142.0,7.1702117919921875,-4.7983927726745605,0,0,0,40000
1559642,1.8956354856491089,-4.611924648284912,-11.0,141.0,6.9174041748046875,-4.853271484375,0,0,0,40000
1559652,1.8873331546783447,-4.510472297668457,-34.0,144.0,6.445207595825195,-4.860280990600586,0,0,0,40000
1559662,1.8653873205184937,-4.455740451812744,-62.0,108.0,6.251117706298828,-4.78487491607666,0,0,0,40000
1559672,1.8261357545852661,-4.395188808441162,-64.0,79.0,6.020280838012695,-4.604648590087891,0,0,0,40000
1559682,1.790099024772644,-4.367739677429199,-59.0,54.0,5.986932754516602,-4.442547798156738,0,0,0,40000
1559692,1.7398836612701416,-4.358994960784912,-68.0,-7.0,6.065244674682617,-4.194018363952637,0,0,0,40000
1559702,1.7025251388549805,-4.364601135253906,-88.0,-7.0,6.229772567749023,-4.021431922912598,0,0,0,40000
1559712,1.6528961658477783,-4.348525524139404,-82.0,20.0,6.263969421386719,-3.7738900184631348,0,0,0,40000
1559722,1.6145102977752686,-4.336265563964844,-84.0,37.0,6.320690155029297,-3.592456817626953,0,0,0,40000
1559732,1.5508880615234375,-4.314633369445801,-81.0,60.0,6.320642471313477,-3.258011817932129,0,0,0,40000
1559742,1.5013972520828247,-4.284749507904053,-77.0,89.0,6.270240783691406,-3.0066747665405273,0,0,0,40000
1559752,1.4466402530670166,-4.213675498962402,-76.0,147.0,5.9712066650390625,-2.7221384048461914,0,0,0,40000
1559762,1.414040207862854,-4.156414985656738,-112.0,122.0,5.753023147583008,-2.5693845748901367,0,0,0,40000
1559772,1.3708306550979614,-4.065999984741211,-68.0,135.0,5.333671569824219,-2.3516383171081543,0,0,0,40000
1559782,1.3479975461959839,-3.993680953979492,-57.0,141.0,5.020444869995117,-2.255338668823242,0,0,0,40000
1559792,1.3092485666275024,-3.9017279148101807,-57.0,114.0,4.586782455444336,-2.062594413757324,0,0,0,40000
1559802,1.277424931526184,-3.8541407585144043,-50.0,106.0,4.417463302612305,-1.9103646278381348,0,0,0,40000
1559812,1.2345879077911377,-3.8216116428375244,-59.0,36.0,4.337190628051758,-1.6909494400024414,0,0,0,40000
1559822,1.2087496519088745,-3.8189170360565186,-56.0,13.0,4.435611724853516,-1.5724945068359375,0,0,0,40000
1559832,1.176059603691101,-3.8255481719970703,-54.0,-6.0,4.590021133422852,-1.4120020866394043,0,0,0,40000
1559842,1.152471899986267,-3.850799322128296,-50.0,-61.0,4.856719970703125,-1.3053474426269531,0,0,0,40000
1559852,1.1242141723632812,-3.8983631134033203,-31.0,-84.0,5.2584381103515625,-1.1698355674743652,0,0,0,40000
1559862,1.1098648309707642,-3.935917377471924,-30.0,-89.0,5.601373672485352,-1.117213249206543,0,0,0,40000
1559872,1.0894054174423218,-3.9727532863616943,-19.0,-41.0,5.941133499145508,-1.0273618698120117,0,0,0,40000
1559882,1.081700086593628,-3.990161418914795,-14.0,-25.0,6.16508674621582,-1.013664722442627,0,0,0,40000
1559892,1.0824294090270996,-4.00606632232666,23.0,-10.0,6.380527496337891,-1.0503978729248047,0,0,0,40000
1559902,1.0819072723388672,-3.993283748626709,3.0,56.0,6.423835754394531,-1.0797290802001953,0,0,0,40000
1559912,1.0896878242492676,-3.9263648986816406,-2.0,119.0,6.14103889465332,-1.159022331237793,0,0,0,40000
1559922,1.0985572338104248,-3.861940860748291,8.0,155.0,5.871158599853516,-1.2450861930847168,0,0,0,40000
1559932,1.108835220336914,-3.7435240745544434,10.0,163.0,5.274379730224609,-1.339935302734375,0,0,0,40000
1559942,1.1052322387695312,-3.664667844772339,9.0,151.0,4.9121246337890625,-1.3515081405639648,0,0,0,40000
1559952,1.1067932844161987,-3.549769401550293,26.0,166.0,4.330610275268555,-1.3939833641052246,0,0,0,40000
1559962,1.1164189577102661,-3.4882476329803467,23.0,130.0,4.066860198974609,-1.4851207733154297,0,0,0,40000
1559972,1.1307600736618042,-3.421257734298706,0.0,100.0,3.7682952880859375,-1.6049680709838867,0,0,0,40000
1559982,1.1440730094909668,-3.382175922393799,19.0,85.0,3.615457534790039,-1.7121410369873047,0,0,0,40000
1559992,1.162917971611023,-3.3296804428100586,17.0,68.0,3.4212608337402344,-1.8667726516723633,0,0,0,40000
1560002,1.1772857904434204,-3.285398244857788,34.0,94.0,3.2349720001220703,-1.981058120727539,0,0,0,40000
1560012,1.1979891061782837,-3.231750249862671,22.0,76.0,3.0303592681884766,-2.1480846405029297,0,0,0,40000
1560022,1.2129709720611572,-3.1951775550842285,42.0,76.0,2.8880481719970703,-2.2668890953063965,0,0,0,40000
1560032,1.2302937507629395,-3.1637632846832275,16.0,32.0,2.8138885498046875,-2.414793014526367,0,0,0,40000
1560042,1.2414618730545044,-3.1544203758239746,21.0,26.0,2.833648681640625,-2.511477470397949,0,0,0,40000
1560052,1.24812912940979,-3.1499857902526855,-9.0,22.0,2.920490264892578,-2.5963826179504395,0,0,0,40000
1560062,1.2535094022750854,-3.1414477825164795,8.0,9.0,2.9447708129882812,-2.6586732864379883,0,0,0,40000
1560072,1.2415000200271606,-3.154686689376831,-23.0,-39.0,3.1374168395996094,-2.6315665245056152,0,0,0,40000
1560082,1.225114345550537,-3.1688106060028076,-22.0,-47.0,3.2980308532714844,-2.562849998474121,0,0,0,40000
1560092,1.1947718858718872,-3.205246686935425,-28.0,-43.0,3.6314220428466797,-2.4243550300598145,0,0,0,40000
1560102,1.1770585775375366,-3.217284679412842,-33.0,-20.0,3.7807083129882812,-2.346557140350342,0,0,0,40000
1560112,1.1661649942398071,-3.2165353298187256,-47.0,38.0,3.8921337127685547,-2.323395252227783,0,0,0,40000
1560122,1.1585558652877808,-3.1761159896850586,-38.0,146.0,3.7264270782470703,-2.3056483268737793,0,0,0,40000
1560132,1.128342866897583,-3.056992292404175,-28.0,201.0,3.124055862426758,-2.1654539108276367,0,0,0,40000
1560142,1.1128971576690674,-2.943594217300415,-25.0,246.0,2.5157012939453125,-2.0996851921081543,0,0,0,40000
1560152,1.0862592458724976,-2.779735803604126,-36.0,220.0,1.6354827880859375,-1.979487419128418,0,0,0,40000
1560162,1.064774751663208,-2.683854103088379,-30.0,208.0,1.1257553100585938,-1.8763575553894043,0,0,0,40000
1560172,1.049295425415039,-2.566988945007324,-23.0,152.0,0.5189294815063477,-1.8215055465698242,0,0,0,40000
1560182,1.0369467735290527,-2.518609046936035,-32.0,100.0,0.2896709442138672,-1.7724547386169434,0,0,0,40000
1560192,1.03205406665802,-2.487116813659668,-27.0,59.0,0.17566490173339844,-1.7623882293701172,0,0,0,40000
1560202,1.0198414325714111,-2.4756195545196533,-15.0,-18.0,0.1809253692626953,-1.7316169738769531,0,0,0,40000
1560212,1.0184417963027954,-2.50101375579834,6.0,-78.0,0.4079570770263672,-1.7537946701049805,0,0,0,40000
1560222,1.01108717918396,-2.559473752975464,4.0,-89.0,0.8348302841186523,-1.7401032447814941,0,0,0,40000
1560232,1.0066730976104736,-2.5985541343688965,-6.0,-91.0,1.1467790603637695,-1.7439136505126953,0,0,0,40000
1560242,1.00766921043396,-2.664259910583496,-6.0,-85.0,1.6201715469360352,-1.7801222801208496,0,0,0,40000
1560252,1.012933611869812,-2.694206953048706,1.0,-50.0,1.8803157806396484,-1.8420114517211914,0,0,0,40000
1560262,1.0219722986221313,-2.7173221111297607,20.0,5.0,2.1003808975219727,-1.9267845153808594,0,0,0,40000
1560272,1.0284749269485474,-2.714916229248047,6.0,27.0,2.167440414428711,-1.996565818786621,0,0,0,40000
1560282,1.0385315418243408,-2.689643621444702,30.0,55.0,2.0968761444091797,-2.0879030227661133,0,0,0,40000
1560292,1.0413928031921387,-2.6614489555358887,30.0,61.0,2.007878303527832,-2.136288642883301,0,0,0,40000
1560302,1.063646674156189,-2.6019721031188965,43.0,112.0,1.7298803329467773,-2.3014354705810547,0,0,0,40000
1560312,1.069520354270935,-2.5597174167633057,20.0,80.0,1.5536136627197266,-2.368741989135742,0,0,0,40000
1560322,1.0799193382263184,-2.4921274185180664,5.0,83.0,1.2236623764038086,-2.463438034057617,0,0,0,40000
1560332,1.0910437107086182,-2.4621922969818115,23.0,58.0,1.1182422637939453,-2.562748432159424,0,0,0,40000
1560342,1.102459192276001,-2.4233314990997314,34.0,58.0,0.9582691192626953,-2.6641860008239746,0,0,0,40000
1560352,1.1263823509216309,-2.397921085357666,45.0,41.0,0.8780412673950195,-2.8412089347839355,0,0,0,40000
1560362,1.1464369297027588,-2.3799326419830322,11.0,7.0,0.8416671752929688,-2.995753526687622,0,0,0,40000
1560372,1.1553723812103271,-2.382610559463501,19.0,-27.0,0.9291515350341797,-3.083915948867798,0,0,0,40000
1560382,1.1715892553329468,-2.403899908065796,16.0,-49.0,1.1287345886230469,-3.2161529064178467,0,0,0,40000
1560392,1.1806740760803223,-2.4348740577697754,-3.0,-67.0,1.3872690200805664,-3.305962085723877,0,0,0,40000
1560402,1.1875746250152588,-2.485517978668213,8.0,-60.0,1.7651252746582031,-3.3828234672546387,0,0,0,40000
1560412,1.1767842769622803,-2.5258989334106445,-25.0,-92.0,2.082674026489258,-3.3535280227661133,0,0,0,40000
1560422,1.1514127254486084,-2.583897829055786,-24.0,-92.0,2.5074901580810547,-3.2361080646514893,0,0,0,40000
1560432,1.1319143772125244,-2.6265580654144287,-36.0,-101.0,2.841745376586914,-3.153315782546997,0,0,0,40000
1560442,1.0982580184936523,-2.6963987350463867,-64.0,-80.0,3.3408374786376953,-2.9847958087921143,0,0,0,40000
1560452,1.069419264793396,-2.7301838397979736,-70.0,-54.0,3.6250762939453125,-2.8441991806030273,0,0,0,40000
1560462,1.0300310850143433,-2.7569732666015625,-61.0,-29.0,3.8682212829589844,-2.6392407417297363,0,0,0,40000
1560472,0.9951744675636292,-2.7661163806915283,-66.0,8.0,4.005973815917969,-2.4603607654571533,0,0,0,40000
1560482,0.9394372701644897,-2.7653276920318604,-85.0,30.0,4.084258079528809,-2.154858112335205,0,0,0,40000
1560492,0.8994234204292297,-2.7592036724090576,-69.0,36.0,4.130352020263672,-1.9422388076782227,0,0,0,40000
1560502,0.8367351293563843,-2.7301175594329834,-80.0,50.0,4.038103103637695,-1.5919952392578125,0,0,0,40000
1560512,0.7990273833274841,-2.6877405643463135,-71.0,118.0,3.865030288696289,-1.3901655673980713,0,0,0,40000
1560522,0.7471931576728821,-2.588918685913086,-81.0,153.0,3.3510560989379883,-1.1022217273712158,0,0,0,40000
1560532,0.7212936282157898,-2.513017177581787,-53.0,170.0,2.9719629287719727,-0.9687740802764893,0,0,0,40000
1560542,0.6673370599746704,-2.4034290313720703,-77.0,145.0,2.387815475463867,-0.6657974720001221,0,0,0,40000
1560552,0.6407277584075928,-2.3410747051239014,-40.0,115.0,2.084671974182129,-0.5256521701812744,0,0,0,40000
1560562,0.6092178225517273,-2.274110794067383,-33.0,101.0,1.7518959045410156,-0.35521793365478516,0,0,0,40000
1560572,0.5883251428604126,-2.2372777462005615,-42.0,72.0,1.5984363555908203,-0.24777603149414062,0,0,0,40000
1560582,0.5695230960845947,-2.2015562057495117,-30.0,34.0,1.4505233764648438,-0.1522054672241211,0,0,0,40000
1560592,0.5600462555885315,-2.1921944618225098,-18.0,-1.0,1.460219383239746,-0.11225342750549316,0,0,0,40000
1560602,0.548582911491394,-2.197047710418701,-34.0,-11.0,1.5551509857177734,-0.060115814208984375,0,0,0,40000
1560612,0.5453208088874817,-2.209632396697998,-8.0,-74.0,1.6967849731445312,-0.056928396224975586,0,0,0,40000
1560622,0.5346198081970215,-2.272007465362549,-15.0,-106.0,2.13840389251709,-0.008900165557861328,0,0,0,40000
1560632,0.524856448173523,-2.331540822982788,-4.0,-134.0,2.5648040771484375,0.03381228446960449,0,0,0,40000
1560642,0.5203912854194641,-2.4319705963134766,-16.0,-132.0,3.239126205444336,0.044901371002197266,0,0,0,40000
1560652,0.5167228579521179,-2.4735560417175293,-20.0,-62.0,3.5623979568481445,0.051347970962524414,0,0,0,40000
1560662,0.49825626611709595,-2.5035758018493652,-36.0,-8.0,3.8174352645874023,0.14697265625,0,0,0,40000
1560672,0.4813310503959656,-2.492584228515625,-19.0,38.0,3.8263959884643555,0.23386836051940918,0,0,0,40000
1560682,0.4633502960205078,-2.451664447784424,-38.0,84.0,3.6550045013427734,0.3275606632232666,0,0,0,40000
1560692,0.4518338143825531,-2.4017281532287598,-25.0,155.0,3.428067207336426,0.382976770401001,0,0,0,40000
1560702,0.4326409101486206,-2.298964500427246,-6.0,142.0,2.881636619567871,0.4849879741668701,0,0,0,40000
1560712,0.4264490008354187,-2.231125831604004,-29.0,168.0,2.542384147644043,0.5092825889587402,0,0,0,40000
1560722,0.414767861366272,-2.134342908859253,-19.0,103.0,2.0267257690429688,0.5668489933013916,0,0,0,40000
1560732,0.4063514769077301,-2.0998003482818604,-15.0,40.0,1.8828248977661133,0.6050639152526855,0,0,0,40000
1560742,0.39592424035072327,-2.0759003162384033,-18.0,0.0,1.8018617630004883,0.6555871963500977,0,0,0,40000
1560752,0.3863775432109833,-2.080974817276001,-30.0,-15.0,1.894658088684082,0.7011325359344482,0,0,0,40000
1560762,0.37400057911872864,-2.108412742614746,-11.0,-66.0,2.1221046447753906,0.7640693187713623,0,0,0,40000
1560772,0.36717453598976135,-2.14042592048645,-17.0,-52.0,2.37801456451416,0.7939457893371582,0,0,0,40000
1560782,0.3602299392223358,-2.174234628677368,-2.0,-45.0,2.6457042694091797,0.8247849941253662,0,0,0,40000
1560792,0.3615684509277344,-2.1895809173583984,-5.0,-23.0,2.803297996520996,0.8059349060058594,0,0,0,40000
1560802,0.35740748047828674,-2.1998038291931152,12.0,-7.0,2.93057918548584,0.8201267719268799,0,0,0,40000
1560812,0.3602813482284546,-2.196943998336792,-2.0,26.0,2.979389190673828,0.7920749187469482,0,0,0,40000
1560822,0.35761454701423645,-2.1703803539276123,-8.0,41.0,2.885483741760254,0.7972774505615234,0,0,0,40000
1560832,0.35927462577819824,-2.144662380218506,23.0,82.0,2.795804023742676,0.7765750885009766,0,0,0,40000
1560842,0.3680966794490814,-2.073338508605957,14.0,123.0,2.431027412414551,0.7126848697662354,0,0,0,40000
1560852,0.3776300549507141,-2.0279557704925537,33.0,125.0,2.220107078552246,0.6442804336547852,0,0,0,40000
1560862,0.39627715945243835,-1.956864833831787,18.0,89.0,1.8530607223510742,0.5207138061523438,0,0,0,40000
1560872,0.4123944342136383,-1.9187140464782715,17.0,69.0,1.682154655456543,0.4118461608886719,0,0,0,40000
1560882,0.4239042103290558,-1.8747917413711548,15.0,29.0,1.475341796875,0.3301985263824463,0,0,0,40000
1560892,0.41914308071136475,-1.8654897212982178,9.0,-14.0,1.4755897521972656,0.34612083435058594,0,0,0,40000
1560902,0.4125663638114929,-1.8808434009552002,1.0,-35.0,1.623936653137207,0.37306976318359375,0,0,0,40000
1560912,0.4098333716392517,-1.9073290824890137,11.0,-37.0,1.8397226333618164,0.377133846282959,0,0,0,40000
1560922,0.4045635163784027,-1.9359209537506104,-2.0,-27.0,2.0690555572509766,0.39650559425354004,0,0,0,40000
1560932,0.40580183267593384,-1.9469044208526611,-13.0,-41.0,2.1932573318481445,0.3768885135650635,0,0,0,40000
1560942,0.4031921327114105,-1.9669126272201538,-9.0,-13.0,2.3721923828125,0.38039660453796387,0,0,0,40000
1560952,0.4050949513912201,-1.9642446041107178,0.0,15.0,2.4151554107666016,0.3568534851074219,0,0,0,40000
1560962,0.3963005542755127,-1.92705500125885,-8.0,67.0,2.2504072189331055,0.3975796699523926,0,0,0,40000
1560972,0.3917883634567261,-1.887369155883789,-6.0,81.0,2.069413185119629,0.4128427505493164,0,0,0,40000
1560982,0.37981072068214417,-1.8325607776641846,0.0,89.0,1.7961788177490234,0.47321176528930664,0,0,0,40000
1560992,0.3781202435493469,-1.7908718585968018,0.0,81.0,1.6002826690673828,0.4720149040222168,0,0,0,40000
1561002,0.3796910047531128,-1.729156732559204,-7.0,69.0,1.2826013565063477,0.45120763778686523,0,0,0,40000
1561012,0.38008666038513184,-1.7166157960891724,17.0,4.0,1.2589693069458008,0.43745851516723633,0,0,0,40000
1561022,0.37783631682395935,-1.7336910963058472,-14.0,-66.0,1.413060188293457,0.4395103454589844,0,0,0,40000
1561032,0.3715912699699402,-1.7828110456466675,3.0,-143.0,1.7606573104858398,0.46576881408691406,0,0,0,40000
1561042,0.37651875615119934,-1.8899043798446655,8.0,-186.0,2.458542823791504,0.4250004291534424,0,0,0,40000
1561052,0.38535913825035095,-1.9783326387405396,6.0,-180.0,3.0474328994750977,0.36052799224853516,0,0,0,40000
1561062,0.3915981948375702,-2.11106014251709,16.0,-201.0,3.905459403991699,0.31145501136779785,0,0,0,40000
1561072,0.3894314467906952,-2.1915838718414307,-12.0,-155.0,4.453397750854492,0.3127119541168213,0,0,0,40000
1561082,0.3888309597969055,-2.26161789894104,-4.0,-50.0,4.940873146057129,0.3046407699584961,0,0,0,40000
1561092,0.3774348795413971,-2.282202959060669,-52.0,-10.0,5.1326189041137695,0.3615436553955078,0,0,0,40000
1561102,0.38650310039520264,-2.2419474124908447,24.0,87.0,4.959033012390137,0.2958202362060547,0,0,0,40000
1561112,0.3859555423259735,-2.1863598823547363,21.0,141.0,4.6918182373046875,0.2875523567199707,0,0,0,40000
1561122,0.388931006193161,-2.070176839828491,2.0,194.0,4.058314323425293,0.25803112983703613,0,0,0,40000
1561132,0.3920592665672302,-1.9788875579833984,-18.0,231.0,3.571084976196289,0.22750616073608398,0,0,0,40000
1561142,0.39049404859542847,-1.8140472173690796,-18.0,239.0,2.638439178466797,0.22520184516906738,0,0,0,40000
1561152,0.3957642614841461,-1.7022855281829834,8.0,240.0,2.020279884338379,0.18178939819335938,0,0,0,40000
1561162,0.3974980115890503,-1.5446012020111084,6.0,219.0,1.122380256652832,0.15949487686157227,0,0,0,40000
1561172,0.3959079682826996,-1.4415802955627441,18.0,215.0,0.5487480163574219,0.15715479850769043,0,0,0,40000
1561182,0.406861275434494,-1.3295196294784546,9.0,126.0,-0.08259391784667969,0.07931923866271973,0,0,0,40000
1561192,0.4178912341594696,-1.2849485874176025,-8.0,64.0,-0.3109469413757324,0.0007083415985107422,0,0,0,40000
1561202,0.43313851952552795,-1.2708181142807007,18.0,-8.0,-0.3576078414916992,-0.10354781150817871,0,0,0,40000
1561212,0.43745094537734985,-1.2992804050445557,16.0,-69.0,-0.14821767807006836,-0.14250707626342773,0,0,0,40000
1561222,0.4444032609462738,-1.3759583234786987,4.0,-148.0,0.35202693939208984,-0.19750475883483887,0,0,0,40000
1561232,0.45593950152397156,-1.4475330114364624,37.0,-165.0,0.8240489959716797,-0.28026652336120605,0,0,0,40000
1561242,0.47241345047950745,-1.566672921180725,25.0,-171.0,1.5844650268554688,-0.3931570053100586,0,0,0,40000
1561252,0.48992326855659485,-1.6402366161346436,26.0,-153.0,2.074186325073242,-0.5126907825469971,0,0,0,40000
1561262,0.507567286491394,-1.7186616659164429,19.0,-84.0,2.5954904556274414,-0.6335897445678711,0,0,0,40000
1561272,0.5136680603027344,-1.7515544891357422,11.0,-41.0,2.845028877258301,-0.6855487823486328,0,0,0,40000
1561282,0.5300163626670837,-1.7547849416732788,3.0,15.0,2.9170541763305664,-0.799445629119873,0,0,0,40000
1561292,0.5403326749801636,-1.7260727882385254,15.0,82.0,2.796937942504883,-0.8774158954620361,0,0,0,40000
1561302,0.5482540130615234,-1.6423536539077759,17.0,120.0,2.3449225425720215,-0.9412946701049805,0,0,0,40000
1561312,0.553131103515625,-1.5897752046585083,4.0,123.0,2.077779769897461,-0.9871044158935547,0,0,0,40000
1561322,0.5571472644805908,-1.510107159614563,3.0,81.0,1.645914077758789,-1.0278842449188232,0,0,0,40000
1561332,0.5636835694313049,-1.4732595682144165,25.0,76.0,1.4694557189941406,-1.0839383602142334,0,0,0,40000
1561342,0.577427864074707,-1.4295563697814941,15.0,58.0,1.2505998611450195,-1.1835856437683105,0,0,0,40000
1561352,0.5827719569206238,-1.4163154363632202,9.0,29.0,1.2137689590454102,-1.2330713272094727,0,0,0,40000
1561362,0.5865437984466553,-1.418761968612671,14.0,-14.0,1.270878791809082,-1.2732508182525635,0,0,0,40000
1561372,0.5865409970283508,-1.4117172956466675,3.0,9.0,1.271066665649414,-1.290837287902832,0,0,0,40000
1561382,0.5842028260231018,-1.4204047918319702,-6.0,-31.0,1.365623950958252,-1.2944018840789795,0,0,0,40000
1561392,0.5775494575500488,-1.4356694221496582,-20.0,-23.0,1.5000762939453125,-1.271897315979004,0,0,0,40000
1561402,0.5649529099464417,-1.4688054323196411,-28.0,-65.0,1.7424626350402832,-1.213463544845581,0,0,0,40000
1561412,0.5578610897064209,-1.4966285228729248,-15.0,-68.0,1.9539575576782227,-1.1876931190490723,0,0,0,40000
1561422,0.5456305742263794,-1.5387699604034424,-12.0,-66.0,2.252460479736328,-1.1307861804962158,0,0,0,40000
1561432,0.530677855014801,-1.5683594942092896,-8.0,-44.0,2.476724624633789,-1.0571541786193848,0,0,0,40000
1561442,0.515401303768158,-1.5779484510421753,-30.0,11.0,2.5816516876220703,-0.9811978340148926,0,0,0,40000
1561452,0.5122708678245544,-1.5507081747055054,-21.0,63.0,2.4650869369506836,-0.9778234958648682,0,0,0,40000
1561462,0.4976300001144409,-1.4920984506607056,-19.0,101.0,2.1590261459350586,-0.9050376415252686,0,0,0,40000
1561472,0.48157283663749695,-1.4418798685073853,-26.0,103.0,1.9015560150146484,-0.8233315944671631,0,0,0,40000
1561482,0.44990625977516174,-1.364886999130249,-38.0,129.0,1.4814720153808594,-0.6472134590148926,0,0,0,40000
1561492,0.42537611722946167,-1.3195358514785767,-52.0,106.0,1.2494888305664062,-0.5131144523620605,0,0,0,40000
1561502,0.3978865146636963,-1.2485992908477783,-15.0,126.0,0.8622260093688965,-0.3603169918060303,0,0,0,40000
1561512,0.38615304231643677,-1.202987790107727,-25.0,92.0,0.6251897811889648,-0.30162525177001953,0,0,0,40000
1561522,0.37494903802871704,-1.123189091682434,-18.0,109.0,0.18103885650634766,-0.24573183059692383,0,0,0,40000
1561532,0.35915520787239075,-1.0822107791900635,-31.0,60.0,-0.031885623931884766,-0.16193270683288574,0,0,0,40000
1561542,0.33681508898735046,-1.0677237510681152,-51.0,-1.0,-0.08677339553833008,-0.038315653800964355,0,0,0,40000
1561552,0.31789886951446533,-1.089021921157837,-39.0,-80.0,0.07342290878295898,0.06543087959289551,0,0,0,40000
1561562,0.2888708710670471,-1.1567009687423706,-38.0,-97.0,0.5132708549499512,0.23056423664093018,0,0,0,40000
1561572,0.26673126220703125,-1.2172644138336182,-39.0,-139.0,0.912442684173584,0.3551359176635742,0,0,0,40000
1561582,0.24856871366500854,-1.3234063386917114,-22.0,-143.0,1.5877561569213867,0.45644986629486084,0,0,0,40000
1561592,0.24483318626880646,-1.3795677423477173,-31.0,-117.0,1.965468406677246,0.4714542627334595,0,0,0,40000
1561602,0.23108039796352386,-1.4461308717727661,-29.0,-81.0,2.407473087310791,0.5468524694442749,0,0,0,40000
1561612,0.22766076028347015,-1.478186011314392,21.0,-67.0,2.643765449523926,0.5605700016021729,0,0,0,40000
1561622,0.2235252410173416,-1.5119699239730835,-10.0,-57.0,2.8914175033569336,0.5786099433898926,0,0,0,40000
1561632,0.21306265890598297,-1.5209189653396606,-19.0,16.0,2.990680694580078,0.6348483562469482,0,0,0,40000
1561642,0.19906747341156006,-1.4851524829864502,-37.0,70.0,2.8211288452148438,0.7125935554504395,0,0,0,40000
1561652,0.18786469101905823,-1.4645726680755615,-19.0,59.0,2.7418384552001953,0.7740480899810791,0,0,0,40000
1561662,0.17180421948432922,-1.4236092567443848,-26.0,79.0,2.5393190383911133,0.865058422088623,0,0,0,40000
1561672,0.1588355004787445,-1.383267879486084,11.0,90.0,2.339284896850586,0.9379858374595642,0,0,0,40000
1561682,0.14939022064208984,-1.334847331047058,-16.0,57.0,2.0893006324768066,0.989948034286499,0,0,0,40000
1561692,0.14383189380168915,-1.3043006658554077,-38.0,43.0,1.945486068725586,1.0188747644424438,0,0,0,40000
1561702,0.1298731565475464,-1.2627615928649902,-17.0,74.0,1.7347211837768555,1.0986328125,0,0,0,40000
1561712,0.13154511153697968,-1.2348673343658447,17.0,58.0,1.6047449111938477,1.0847283601760864,0,0,0,40000
1561722,0.13533654808998108,-1.2093868255615234,7.0,28.0,1.4884014129638672,1.0579800605773926,0,0,0,40000
1561732,0.13627099990844727,-1.2102264165878296,-1.0,16.0,1.529733657836914,1.0482784509658813,0,0,0,40000
1561742,0.1386273205280304,-1.20621657371521,-9.0,-4.0,1.5418734550476074,1.0299599170684814,0,0,0,40000
1561752,0.1457958072423935,-1.2035188674926758,5.0,-32.0,1.5618133544921875,0.9826792478561401,0,0,0,40000
1561762,0.15173599123954773,-1.19796621799469,25.0,34.0,1.564643383026123,0.942663848400116,0,0,0,40000
1561772,0.1580469012260437,-1.1935330629348755,18.0,13.0,1.573904037475586,0.9001268148422241,0,0,0,40000
1561782,0.17725300788879395,-1.1872166395187378,38.0,25.0,1.571732521057129,0.7798247337341309,0,0,0,40000
1561792,0.19694527983665466,-1.186901330947876,45.0,-2.0,1.6054425239562988,0.6560095548629761,0,0,0,40000
1561802,0.24381397664546967,-1.1792962551116943,76.0,10.0,1.595334529876709,0.36814701557159424,0,0,0,40000
1561812,0.27154311537742615,-1.188308596611023,66.0,-50.0,1.6849055290222168,0.19395935535430908,0,0,0,40000
1561822,0.31580305099487305,-1.2356586456298828,68.0,-89.0,2.005439281463623,-0.08051228523254395,0,0,0,40000
1561832,0.3484330475330353,-1.2718026638031006,77.0,-77.0,2.2600107192993164,-0.28634750843048096,0,0,0,40000
1561842,0.39509811997413635,-1.3150919675827026,62.0,-49.0,2.5587735176086426,-0.5776584148406982,0,0,0,40000
1561852,0.4272940456867218,-1.3197999000549316,59.0,13.0,2.6265950202941895,-0.7832810878753662,0,0,0,40000
1561862,0.46815064549446106,-1.2988358736038208,45.0,49.0,2.5400753021240234,-1.042041540145874,0,0,0,40000
1561872,0.5013429522514343,-1.2781956195831299,36.0,58.0,2.454829216003418,-1.2558351755142212,0,0,0,40000
1561882,0.5392091274261475,-1.2321113348007202,50.0,69.0,2.215847969055176,-1.49873948097229,0,0,0,40000
1561892,0.5527226328849792,-1.210268259048462,28.0,35.0,2.1213603019714355,-1.5962382555007935,0,0,0,40000
1561902,0.5701383948326111,-1.1845066547393799,31.0,21.0,2.002530574798584,-1.7176308631896973,0,0,0,40000
1561912,0.5703383684158325,-1.1747006177902222,-8.0,35.0,1.9790687561035156,-1.7359657287597656,0,0,0,40000
1561922,0.5818860530853271,-1.1493332386016846,3.0,36.0,1.8616085052490234,-1.822561502456665,0,0,0,40000
1561932,0.5823773741722107,-1.1474018096923828,1.0,16.0,1.8844528198242188,-1.842970371246338,0,0,0,40000
1561942,0.5834389925003052,-1.1456879377365112,4.0,0.0,1.908562183380127,-1.866797685623169,0,0,0,40000
1561952,0.5809736847877502,-1.141777753829956,-16.0,3.0,1.9194121360778809,-1.8695162534713745,0,0,0,40000
1561962,0.5776841640472412,-1.1212302446365356,-15.0,32.0,1.8231754302978516,-1.8636560440063477,0,0,0,40000
1561972,0.5664573907852173,-1.0832464694976807,-33.0,66.0,1.6283068656921387,-1.813457727432251,0,0,0,40000
1561982,0.5511517524719238,-1.04756760597229,-46.0,73.0,1.4460978507995605,-1.7383321523666382,0,0,0,40000
1561992,0.5144742727279663,-0.9791551232337952,-57.0,110.0,1.0658926963806152,-1.5341730117797852,0,0,0,40000
1562002,0.4912315309047699,-0.9251785278320312,-50.0,124.0,0.7704658508300781,-1.409726619720459,0,0,0,40000
1562012,0.44271764159202576,-0.8703471422195435,-68.0,72.0,0.46812915802001953,-1.132542371749878,0,0,0,40000
1562022,0.4128626883029938,-0.8432291150093079,-80.0,48.0,0.33104991912841797,-0.9661827087402344,0,0,0,40000
1562032,0.3590911030769348,-0.8079429268836975,-87.0,37.0,0.14400339126586914,-0.6549804210662842,0,0,0,40000
1562042,0.32063913345336914,-0.7996090650558472,-82.0,25.0,0.11807441711425781,-0.43433237075805664,0,0,0,40000
1562052,0.2628895044326782,-0.7678685784339905,-72.0,49.0,-0.04894065856933594,-0.09637880325317383,0,0,0,40000
1562062,0.22724486887454987,-0.7527844905853271,-42.0,40.0,-0.11668157577514648,0.11027157306671143,0,0,0,40000
1562072,0.1877760887145996,-0.7373698949813843,-74.0,-21.0,-0.18706512451171875,0.3408646583557129,0,0,0,40000
1562082,0.15770068764686584,-0.7522683143615723,-72.0,-31.0,-0.07527494430541992,0.5162063241004944,0,0,0,40000
1562092,0.1232140064239502,-0.7770963907241821,-58.0,-32.0,0.09674215316772461,0.7190554141998291,0,0,0,40000
1562102,0.10278216004371643,-0.7919136881828308,-31.0,-27.0,0.2092266082763672,0.8383358120918274,0,0,0,40000
1562112,0.07716820389032364,-0.7983990907669067,-11.0,-18.0,0.27204179763793945,0.9894393682479858,0,0,0,40000
1562122,0.06333593279123306,-0.8030363917350769,-22.0,-15.0,0.3238987922668457,1.0703538656234741,0,0,0,40000
1562132,0.05259919911623001,-0.8212260007858276,-2.0,-28.0,0.4574308395385742,1.1330983638763428,0,0,0,40000
1562142,0.050959836691617966,-0.8356730341911316,-4.0,1.0,0.5690298080444336,1.141397476196289,0,0,0,40000
1562152,0.0498247966170311,-0.8340327143669128,-12.0,15.0,0.5842771530151367,1.1466789245605469,0,0,0,40000
1562162,0.05146179348230362,-0.8205516338348389,20.0,28.0,0.5281558036804199,1.1353487968444824,0,0,0,40000
1562172,0.07354743778705597,-0.7826715707778931,28.0,73.0,0.32497119903564453,1.0009098052978516,0,0,0,40000
1562182,0.08487316220998764,-0.7284895181655884,41.0,107.0,0.02239990234375,0.9305334091186523,0,0,0,40000
1562192,0.10912209749221802,-0.659687340259552,49.0,113.0,-0.36975860595703125,0.7820686101913452,0,0,0,40000
1562202,0.13737066090106964,-0.6149941682815552,48.0,85.0,-0.6189544200897217,0.608779788017273,0,0,0,40000
1562212,0.17416606843471527,-0.5799550414085388,41.0,22.0,-0.8114933967590332,0.3831973075866699,0,0,0,40000
1562222,0.1971484273672104,-0.5815032124519348,48.0,-34.0,-0.7848215103149414,0.2396613359451294,0,0,0,40000
1562232,0.23796488344669342,-0.6076069474220276,67.0,-44.0,-0.6102776527404785,-0.011862874031066895,0,0,0,40000
1562242,0.26890310645103455,-0.624897301197052,57.0,-39.0,-0.4880084991455078,-0.20522630214691162,0,0,0,40000
1562252,0.31187325716018677,-0.654567301273346,58.0,-38.0,-0.29067468643188477,-0.47184622287750244,0,0,0,40000
1562262,0.34335750341415405,-0.6673564314842224,62.0,-32.0,-0.19408559799194336,-0.6706715822219849,0,0,0,40000
1562272,0.3744264841079712,-0.7159979939460754,45.0,-83.0,0.1185293197631836,-0.8679852485656738,0,0,0,40000
1562282,0.4052126109600067,-0.7523707151412964,57.0,-75.0,0.35889339447021484,-1.0644829273223877,0,0,0,40000
1562292,0.4366532266139984,-0.8160237073898315,33.0,-86.0,0.7644753456115723,-1.2659635543823242,0,0,0,40000
1562302,0.4544655680656433,-0.8467621207237244,33.0,-33.0,0.9739899635314941,-1.386267900466919,0,0,0,40000
1562312,0.4649510681629181,-0.8594161868095398,16.0,2.0,1.0756607055664062,-1.463058352470398,0,0,0,40000
1562322,0.469328910112381,-0.8419165015220642,16.0,51.0,0.9961323738098145,-1.5033681392669678,0,0,0,40000
1562332,0.4895061254501343,-0.8057115077972412,15.0,65.0,0.803555965423584,-1.6388471126556396,0,0,0,40000
1562342,0.48776957392692566,-0.7796794772148132,-4.0,59.0,0.6710610389709473,-1.6431024074554443,0,0,0,40000
1562352,0.48227453231811523,-0.7466977834701538,-18.0,58.0,0.4960002899169922,-1.6246789693832397,0,0,0,40000
1562362,0.4774017632007599,-0.711050808429718,-7.0,56.0,0.3038804531097412,-1.6098394393920898,0,0,0,40000
1562372,0.4722047448158264,-0.6809518337249756,-25.0,67.0,0.14415192604064941,-1.5928984880447388,0,0,0,40000
1562382,0.4666000008583069,-0.6533066630363464,4.0,65.0,-0.00179290771484375,-1.573296070098877,0,0,0,40000
1562392,0.4691344201564789,-0.616283118724823,6.0,26.0,-0.20509934425354004,-1.602527141571045,0,0,0,40000
1562402,0.4633026123046875,-0.6108193397521973,-5.0,18.0,-0.2195148468017578,-1.5815017223358154,0,0,0,40000
1562412,0.46152979135513306,-0.5968303084373474,-2.0,26.0,-0.28537845611572266,-1.5847581624984741,0,0,0,40000
1562422,0.4573599398136139,-0.5879678726196289,-20.0,9.0,-0.3208329677581787,-1.5735440254211426,0,0,0,40000
1562432,0.443075567483902,-0.5745906829833984,-37.0,9.0,-0.383730411529541,-1.501373291015625,0,0,0,40000
1562442,0.43459373712539673,-0.5693396329879761,-3.0,3.0,-0.3980741500854492,-1.4636043310165405,0,0,0,40000
1562452,0.41917502880096436,-0.5768149495124817,-19.0,0.0,-0.3359818458557129,-1.3838499784469604,0,0,0,40000
1562462,0.41077712178230286,-0.5803526043891907,-12.0,-24.0,-0.29741787910461426,-1.3458973169326782,0,0,0,40000
1562472,0.3995969295501709,-0.609622061252594,-32.0,-68.0,-0.10398483276367188,-1.2909879684448242,0,0,0,40000
1562482,0.39139336347579956,-0.6420291662216187,-4.0,-68.0,0.10930395126342773,-1.2535934448242188,0,0,0,40000
1562492,0.3944713771343231,-0.6795463562011719,-2.0,-44.0,0.35441160202026367,-1.2838618755340576,0,0,0,40000
1562502,0.38273221254348755,-0.7084356546401978,0.0,-35.0,0.5486743450164795,-1.2250343561172485,0,0,0,40000
1562512,0.375057578086853,-0.7481561899185181,9.0,-50.0,0.8088915348052979,-1.1903175115585327,0,0,0,40000
1562522,0.37804698944091797,-0.7623307704925537,17.0,3.0,0.9166924953460693,-1.2195528745651245,0,0,0,40000
1562532,0.39488908648490906,-0.7478745579719543,26.0,34.0,0.8526172637939453,-1.3321906328201294,0,0,0,40000
1562542,0.4104924201965332,-0.7215451598167419,31.0,52.0,0.7165977954864502,-1.437955379486084,0,0,0,40000
1562552,0.42552027106285095,-0.6635023355484009,37.0,116.0,0.3890976905822754,-1.5406806468963623,0,0,0,40000
1562562,0.44475454092025757,-0.6107125282287598,22.0,110.0,0.09132742881774902,-1.669220209121704,0,0,0,40000
1562572,0.46106651425361633,-0.5321388840675354,43.0,115.0,-0.3632357120513916,-1.7806744575500488,0,0,0,40000
1562582,0.4711415767669678,-0.47445109486579895,41.0,154.0,-0.6944079399108887,-1.8551394939422607,0,0,0,40000
1562592,0.4966835677623749,-0.39088645577430725,37.0,93.0,-1.1832551956176758,-2.0229787826538086,0,0,0,40000
1562602,0.5154658555984497,-0.34968215227127075,36.0,103.0,-1.4194724559783936,-2.1509206295013428,0,0,0,40000
1562612,0.5397806167602539,-0.296940416097641,8.0,33.0,-1.7265746593475342,-2.3127658367156982,0,0,0,40000
1562622,0.5502884984016418,-0.2825247645378113,18.0,5.0,-1.8044196367263794,-2.392183303833008,0,0,0,40000
1562632,0.5616772770881653,-0.28312912583351135,22.0,-2.0,-1.7922961711883545,-2.4771780967712402,0,0,0,40000
1562642,0.5606245398521423,-0.3098002076148987,3.0,-83.0,-1.6233376264572144,-2.4877028465270996,0,0,0,40000
1562652,0.5386002063751221,-0.37695592641830444,-32.0,-89.0,-1.209925651550293,-2.3720450401306152,0,0,0,40000
1562662,0.5129491090774536,-0.4220549464225769,-61.0,-87.0,-0.9272215366363525,-2.2338640689849854,0,0,0,40000
1562672,0.47807618975639343,-0.47477105259895325,-71.0,-75.0,-0.5973179340362549,-2.0394325256347656,0,0,0,40000
1562682,0.44652026891708374,-0.512863278388977,-78.0,-65.0,-0.35384488105773926,-1.8638405799865723,0,0,0,40000
1562692,0.3938332200050354,-0.5389531850814819,-68.0,-39.0,-0.1813831329345703,-1.5601043701171875,0,0,0,40000
1562702,0.35433873534202576,-0.5573722720146179,-66.0,-13.0,-0.05434703826904297,-1.3342385292053223,0,0,0,40000
1562712,0.3047226369380951,-0.5602049827575684,-98.0,5.0,-0.020555496215820312,-1.0463835000991821,0,0,0,40000
1562722,0.26061052083969116,-0.5532575845718384,-82.0,23.0,-0.045546770095825195,-0.7900405526161194,0,0,0,40000
1562732,0.20396365225315094,-0.5279027819633484,-73.0,44.0,-0.18146133422851562,-0.4569129943847656,0,0,0,40000
1562742,0.17693687975406647,-0.5028574466705322,-41.0,49.0,-0.3163304328918457,-0.3003542423248291,0,0,0,40000
1562752,0.1442590206861496,-0.47883981466293335,-34.0,16.0,-0.4458601474761963,-0.10897564888000488,0,0,0,40000
1562762,0.13121215999126434,-0.4826159179210663,-30.0,-36.0,-0.4088010787963867,-0.03477203845977783,0,0,0,40000
1562772,0.12544183433055878,-0.4969843626022339,-16.0,-19.0,-0.3078145980834961,-0.003942608833312988,0,0,0,40000
1562782,0.11656000465154648,-0.5050543546676636,-29.0,-4.0,-0.2443370819091797,0.04570770263671875,0,0,0,40000
1562792,0.10470278561115265,-0.5072118043899536,-12.0,3.0,-0.2162024974822998,0.11358469724655151,0,0,0,40000
1562802,0.10424040257930756,-0.5047122240066528,1.0,2.0,-0.21604228019714355,0.11319398880004883,0,0,0,40000
1562812,0.11378554254770279,-0.5030540227890015,13.0,16.0,-0.2108016014099121,0.0526430606842041,0,0,0,40000
1562822,0.12731653451919556,-0.49109506607055664,20.0,45.0,-0.2676379680633545,-0.03220236301422119,0,0,0,40000
1562832,0.1465078443288803,-0.4543783366680145,30.0,45.0,-0.47385239601135254,-0.15150868892669678,0,0,0,40000
1562842,0.16213081777095795,-0.44228383898735046,27.0,-1.0,-0.5330460071563721,-0.24993371963500977,0,0,0,40000
1562852,0.18453159928321838,-0.435337096452713,27.0,13.0,-0.5615391731262207,-0.38964396715164185,0,0,0,40000
1562862,0.1969878077507019,-0.441043883562088,31.0,-5.0,-0.5141627788543701,-0.47015172243118286,0,0,0,40000
1562872,0.2200188785791397,-0.44029808044433594,33.0,-12.0,-0.5055079460144043,-0.6146524548530579,0,0,0,40000
1562882,0.2345876842737198,-0.4496849477291107,29.0,-62.0,-0.43586134910583496,-0.7089338898658752,0,0,0,40000
1562892,0.25582629442214966,-0.5069575905799866,33.0,-96.0,-0.07777738571166992,-0.8437551259994507,0,0,0,40000
1562902,0.2730325162410736,-0.5475318431854248,25.0,-92.0,0.18161344528198242,-0.9549849033355713,0,0,0,40000
1562912,0.2940301299095154,-0.5941967964172363,16.0,-78.0,0.47886037826538086,-1.0895843505859375,0,0,0,40000
1562922,0.30014142394065857,-0.6234402060508728,-1.0,-38.0,0.6726996898651123,-1.1352100372314453,0,0,0,40000
1562932,0.30240488052368164,-0.6320042610168457,-11.0,-6.0,0.7429852485656738,-1.1578856706619263,0,0,0,40000
1562942,0.295270174741745,-0.6252615451812744,-11.0,23.0,0.7213704586029053,-1.1240235567092896,0,0,0,40000
1562952,0.28882700204849243,-0.5949281454086304,-24.0,52.0,0.5575931072235107,-1.094153642654419,0,0,0,40000
1562962,0.27678054571151733,-0.5691869258880615,-38.0,83.0,0.4205508232116699,-1.0303311347961426,0,0,0,40000
1562972,0.2537059187889099,-0.4922775626182556,-53.0,115.0,-0.025145292282104492,-0.899834394454956,0,0,0,40000
1562982,0.23144353926181793,-0.42610812187194824,-54.0,152.0,-0.4085536003112793,-0.7734798192977905,0,0,0,40000
1562992,0.18958327174186707,-0.33370110392570496,-63.0,117.0,-0.9519557952880859,-0.5285418629646301,19.999625708435246,0.12235817298410956,0,40000
1563002,0.15890643000602722,-0.28638023138046265,-52.0,99.0,-1.9638261795043945,120.1281509399414,19.302189097387664,5.236935749910316,0,40000
1563012,0.12246175110340118,-0.23728129267692566,-52.0,56.0,-33.03401184082031,116.74549102783203,17.303605630736595,10.029218921528278,0,40000
1563022,0.11727502942085266,-0.211080864071846,20.0,43.0,-62.1816291809082,105.32463836669922,14.188328584473322,14.095791286019285,0,40000
1563032,0.16981203854084015,-0.20641767978668213,89.0,-31.0,-86.97708129882812,86.77643585205078,10.157200770450974,17.22879196312818,0,40000
1563042,0.2577529549598694,-0.2637457847595215,215.0,-223.0,-105.90328216552734,62.40848922729492,5.444701382669405,19.24461552885788,0,40000
1563052,0.46808096766471863,-0.5144407749176025,342.0,-495.0,-117.03543853759766,33.080169677734375,0.35567304509772696,19.996837167036965,0,40000
1563062,0.6544745564460754,-0.8433043360710144,460.0,-888.0,-120.14533233642578,1.4820547103881836,-4.844954622780121,19.404288564727167,0,40000
1563072,1.0004702806472778,-1.6219409704208374,533.0,-1301.0,-112.47262573242188,-31.875146865844727,-9.61037616723214,17.539688421528375,0,40000
1563082,1.2683888673782349,-2.342754602432251,560.0,-1724.0,-97.44731903076172,-62.3411750793457,-9.61037616723214,17.539688421528375,0,40000
1563092,1.677809238433838,-3.692441463470459,580.0,-2105.0,-70.62467956542969,-91.08794403076172,-13.927843562888132,14.353228685132681,0,40000
1563102,1.9482519626617432,-4.7176432609558105,560.0,-2305.0,-40.55404281616211,-112.42943572998047,-17.12907425807964,10.324476503009407,0,40000
1563112,2.284719228744507,-6.299865245819092,421.0,-2313.0,-2.927396774291992,-127.43913269042969,-19.193655032592293,5.621708502745807,0,40000
1563122,2.4493677616119385,-7.3098554611206055,274.0,-2132.0,33.52470779418945,-133.8728790283203,-19.991793316317736,0.5728874214306957,0,40000
1563132,2.5719082355499268,-8.632765769958496,48.0,-1802.0,72.1928482055664,-132.24903869628906,-19.4869494904902,-4.500977622148734,0,40000
1563142,2.555053234100342,-9.318172454833984,-87.0,-1258.0,105.62628173828125,-122.07071685791016,-17.70074217449898,-9.310409575948476,0,40000
1563152,2.37746000289917,-9.925628662109375,-334.0,-610.0,135.0674285888672,-103.87420654296875,-14.75066441777175,-13.506217058609803,0,40000
1563162,2.1320507526397705,-9.974650382995605,-603.0,284.0,156.22677612304688,-78.90473175048828,-10.75356039886344,-16.863005033148628,0,40000
1563172,1.601717233657837,-9.39695930480957,-870.0,1239.0,166.7659149169922,-47.865631103515625,-6.0524563254308195,-19.06220796310733,0,40000
1563182,1.145663857460022,-8.568490982055664,-1110.0,2210.0,168.16539001464844,-13.936100959777832,-0.8218863267638848,-19.983105435989636,0,40000
1563192,0.30774927139282227,-6.686229228973389,-1256.0,3086.0,155.00588989257812,21.731229782104492,4.287025873615854,-19.535132688542156,0,40000
1563202,-0.32958295941352844,-5.064393520355225,-1379.0,3818.0,135.53143310546875,54.864158630371094,9.14518355709719,-17.78666966317751,0,40000
1563212,-1.358422875404358,-2.245893955230713,-1529.0,4300.0,119.25627136230469,61.339683532714844,13.455580094296947,-14.796870085459283,0,40000
1563222,-2.0794527530670166,-0.1997128129005432,-1615.0,4576.0,89.5150375366211,91.98554229736328,16.829480975787494,-10.805950679399142,0,40000
1563232,-3.1850342750549316,2.985579013824463,-1644.0,4688.0,46.73077392578125,119.44947052001953,19.02493373932507,-6.1686219056034375,0,40000
1563242,-3.9297473430633545,5.113757133483887,-1607.0,4677.0,6.194896221160889,137.7701873779297,19.97102048153421,-1.076262480132565,0,40000
1563252,-5.044634819030762,8.237198829650879,-1518.0,4522.0,-43.27766418457031,150.8732147216797,19.586876159872638,4.04404281602122,0,40000
1563262,-5.784001350402832,10.197052955627441,-1445.0,4223.0,-86.16252899169922,153.7568359375,17.899855174316286,8.921613348408593,0,40000
1563272,-6.83112096786499,12.901166915893555,-1312.0,3841.0,-132.27578735351562,150.6469268798828,14.918010030894987,13.321147725256884,0,40000
1563282,-7.488399982452393,14.487642288208008,-1203.0,3341.0,-168.98095703125,137.3817596435547,11.03775810577707,16.678366106976803,0,40000
1563292,-8.38376522064209,16.499467849731445,-1010.0,2799.0,-202.14747619628906,120.06803131103516,6.450422385358845,18.931245364488348,0,40000
1563302,-8.911421775817871,17.556894302368164,-881.0,2133.0,-223.07809448242188,96.19210815429688,1.4434422622793843,19.947843854298284,0,40000
1563312,-9.57878303527832,18.668149948120117,-699.0,1399.0,-236.98590087890625,70.50759887695312,-3.697903751270534,19.655164915266912,0,40000
1563322,-9.928373336791992,19.0717716217041,-542.0,639.0,-238.81068420410156,41.970741271972656,-8.579367124169595,18.066390335335885,0,40000
1563332,-10.299604415893555,19.146806716918945,-402.0,-177.0,-230.8550262451172,14.986225128173828,-12.895327903419297,15.287593606035442,0,40000
1563342,-10.439656257629395,18.81517791748047,-259.0,-1059.0,-213.25335693359375,-10.092708587646484,-16.377325905481868,11.479686240731166,0,40000
1563352,-10.495144844055176,17.735450744628906,-115.0,-1955.0,-184.86459350585938,-30.786632537841797,-18.800370135242762,6.822468964962171,0,40000
1563362,-10.440857887268066,16.59856605529785,0.0,-2891.0,-150.87261962890625,-45.87158966064453,-19.91756951410809,1.8139527696916389,0,40000
1563372,-10.248899459838867,14.323197364807129,136.0,-3676.0,-107.7424087524414,-54.000511169433594,-19.725331250712504,-3.3032267632823413,0,40000
