timestamp,motor.m1,motor.m2,motor.m3,motor.m4,roll,pitch,yawdot,thrust
1557993,7257.0,39977.0,65535.0,39977.0,0,0,0,40000
1558003,7436.0,39798.0,65535.0,39798.0,0,0,0,40000
1558013,7650.0,39584.0,65535.0,39584.0,0,0,0,40000
1558023,7788.0,39446.0,65535.0,39446.0,0,0,0,40000
1558033,7793.0,39441.0,65535.0,39441.0,0,0,0,40000
1558043,7879.0,39355.0,65535.0,39355.0,0,0,0,40000
1558053,7717.0,39517.0,65535.0,39517.0,0,0,0,40000
1558063,7596.0,39638.0,65535.0,39638.0,0,0,0,40000
1558073,7434.0,39800.0,65535.0,39800.0,0,0,0,40000
1558083,7184.0,40050.0,65535.0,40050.0,0,0,0,40000
1558093,6968.0,40266.0,65535.0,40266.0,0,0,0,40000
1558103,12631.0,34603.0,65535.0,47075.0,0,0,0,40000
1558113,16726.0,30508.0,60814.0,51952.0,0,0,0,40000
1558123,30010.0,17224.0,45828.0,65535.0,0,0,0,40000
1558133,31668.0,15566.0,42890.0,65535.0,0,0,0,40000
1558143,36214.0,11020.0,36214.0,65535.0,0,0,0,40000
1558153,35690.0,11544.0,35690.0,65535.0,0,0,0,40000
1558163,38479.0,16429.0,30805.0,65535.0,0,0,0,40000
1558173,38390.0,16816.0,30418.0,65535.0,0,0,0,40000
1558183,43541.0,22801.0,24433.0,65535.0,0,0,0,40000
1558193,44969.0,23507.0,23727.0,65535.0,0,0,0,40000
1558203,52084.0,30776.0,16458.0,60682.0,0,0,0,40000
1558213,51947.0,29745.0,17489.0,60819.0,0,0,0,40000
1558223,56347.0,36811.0,14127.0,52715.0,0,0,0,40000
1558233,46285.0,47235.0,25861.0,40619.0,0,0,0,40000
1558243,44493.0,58065.0,29433.0,28009.0,0,0,0,40000
1558253,34958.0,65535.0,39180.0,20068.0,0,0,0,40000
1558263,33783.0,65535.0,41095.0,13451.0,0,0,0,40000
1558273,32829.0,65535.0,42567.0,14405.0,0,0,0,40000
1558283,37015.0,65535.0,39073.0,10219.0,0,0,0,40000
1558293,34626.0,65535.0,40638.0,12608.0,0,0,0,40000
1558303,37409.0,65535.0,37587.0,9825.0,0,0,0,40000
1558313,34476.0,65535.0,40466.0,12758.0,0,0,0,40000
1558323,36548.0,65535.0,38408.0,10686.0,0,0,0,40000
1558333,33106.0,65535.0,41086.0,14128.0,0,0,0,40000
1558343,32643.0,65535.0,41797.0,14591.0,0,0,0,40000
1558353,30111.0,65535.0,44709.0,17123.0,0,0,0,40000
1558363,31249.0,65535.0,44583.0,15985.0,0,0,0,40000
1558373,30206.0,64976.0,46248.0,18570.0,0,0,0,40000
1558383,36756.0,59628.0,40638.0,22978.0,0,0,0,40000
1558393,40705.0,50541.0,37905.0,30849.0,0,0,0,40000
1558403,46391.0,39847.0,32611.0,41151.0,0,0,0,40000
1558413,46602.0,36604.0,33114.0,43680.0,0,0,0,40000
1558423,49993.0,24399.0,30501.0,55107.0,0,0,0,40000
1558433,44649.0,26363.0,36051.0,52937.0,0,0,0,40000
1558443,48571.0,22459.0,32449.0,56521.0,0,0,0,40000
1558453,42770.0,25808.0,37752.0,53670.0,0,0,0,40000
1558463,38720.0,20490.0,41476.0,59314.0,0,0,0,40000
1558473,31590.0,27144.0,47348.0,53918.0,0,0,0,40000
1558483,28508.0,27182.0,50632.0,53678.0,0,0,0,40000
1558493,26659.0,36129.0,51577.0,45635.0,0,0,0,40000
1558503,19038.0,35016.0,59056.0,46890.0,0,0,0,40000
1558513,16357.0,38347.0,60977.0,44319.0,0,0,0,40000
1558523,12404.0,36970.0,65472.0,45154.0,0,0,0,40000
1558533,13602.0,40342.0,64072.0,41984.0,0,0,0,40000
1558543,13103.0,39485.0,64633.0,42779.0,0,0,0,40000
1558553,16916.0,39916.0,61184.0,41984.0,0,0,0,40000
1558563,16305.0,37119.0,61831.0,44745.0,0,0,0,40000
1558573,20876.0,33520.0,58372.0,47232.0,0,0,0,40000
1558583,22063.0,33573.0,56843.0,47521.0,0,0,0,40000
1558593,26880.0,32804.0,53014.0,47302.0,0,0,0,40000
1558603,29528.0,31694.0,49560.0,49218.0,0,0,0,40000
1558613,31040.0,30746.0,49220.0,48994.0,0,0,0,40000
1558623,34518.0,32366.0,44588.0,48528.0,0,0,0,40000
1558633,36646.0,33848.0,43360.0,46146.0,0,0,0,40000
1558643,36905.0,36895.0,42379.0,43821.0,0,0,0,40000
1558653,36819.0,37381.0,43405.0,42395.0,0,0,0,40000
1558663,36520.0,39052.0,43362.0,41066.0,0,0,0,40000
1558673,36067.0,41639.0,45345.0,36949.0,0,0,0,40000
1558683,38665.0,44999.0,41851.0,34485.0,0,0,0,40000
1558693,36986.0,46370.0,44432.0,32212.0,0,0,0,40000
1558703,37862.0,47124.0,43702.0,31312.0,0,0,0,40000
1558713,36285.0,46559.0,45421.0,31735.0,0,0,0,40000
1558723,37655.0,49581.0,44001.0,28763.0,0,0,0,40000
1558733,38925.0,48771.0,43091.0,29213.0,0,0,0,40000
1558743,40775.0,48793.0,41027.0,29405.0,0,0,0,40000
1558753,40326.0,45524.0,41272.0,32878.0,0,0,0,40000
1558763,40581.0,45799.0,40303.0,33317.0,0,0,0,40000
1558773,40025.0,44431.0,41137.0,34407.0,0,0,0,40000
1558783,40156.0,45676.0,40326.0,33842.0,0,0,0,40000
1558793,40627.0,44001.0,39893.0,35479.0,0,0,0,40000
1558803,40713.0,44711.0,39219.0,35357.0,0,0,0,40000
1558813,38982.0,41962.0,41182.0,37874.0,0,0,0,40000
1558823,38084.0,40978.0,41904.0,39034.0,0,0,0,40000
1558833,37435.0,40347.0,42039.0,40179.0,0,0,0,40000
1558843,37561.0,39483.0,42137.0,40819.0,0,0,0,40000
1558853,35626.0,40618.0,43740.0,40016.0,0,0,0,40000
1558863,34522.0,38824.0,44560.0,42094.0,0,0,0,40000
1558873,33101.0,38809.0,45831.0,42259.0,0,0,0,40000
1558883,31333.0,38047.0,47289.0,43331.0,0,0,0,40000
1558893,31454.0,38608.0,47118.0,42820.0,0,0,0,40000
1558903,30381.0,39427.0,48153.0,42039.0,0,0,0,40000
1558913,29685.0,39505.0,48611.0,42199.0,0,0,0,40000
1558923,28401.0,38839.0,50171.0,42589.0,0,0,0,40000
1558933,28669.0,39541.0,49633.0,42157.0,0,0,0,40000
1558943,28643.0,36763.0,49789.0,44805.0,0,0,0,40000
1558953,29681.0,38883.0,49317.0,42119.0,0,0,0,40000
1558963,28430.0,38202.0,50350.0,43018.0,0,0,0,40000
1558973,31080.0,37176.0,47970.0,43774.0,0,0,0,40000
1558983,30409.0,37773.0,48145.0,43673.0,0,0,0,40000
1558993,31435.0,37577.0,47717.0,43271.0,0,0,0,40000
1559003,32238.0,36674.0,46304.0,44784.0,0,0,0,40000
1559013,32906.0,37080.0,46860.0,43154.0,0,0,0,40000
1559023,33181.0,37669.0,45543.0,43607.0,0,0,0,40000
1559033,34042.0,37556.0,46090.0,42312.0,0,0,0,40000
1559043,33280.0,38582.0,46148.0,41990.0,0,0,0,40000
1559053,34483.0,38685.0,45943.0,40889.0,0,0,0,40000
1559063,33868.0,41648.0,45166.0,39318.0,0,0,0,40000
1559073,34441.0,41455.0,46269.0,37835.0,0,0,0,40000
1559083,34483.0,41749.0,44609.0,39159.0,0,0,0,40000
1559093,35328.0,40576.0,45660.0,38436.0,0,0,0,40000
1559103,34511.0,41881.0,45119.0,38489.0,0,0,0,40000
1559113,36542.0,41156.0,44452.0,37850.0,0,0,0,40000
1559123,36556.0,42976.0,43364.0,37104.0,0,0,0,40000
1559133,36002.0,42042.0,44108.0,37848.0,0,0,0,40000
1559143,35827.0,42395.0,44539.0,37239.0,0,0,0,40000
1559153,35406.0,42076.0,44286.0,38232.0,0,0,0,40000
1559163,36373.0,42045.0,44581.0,37001.0,0,0,0,40000
1559173,36348.0,42434.0,43476.0,37742.0,0,0,0,40000
1559183,36983.0,41709.0,43745.0,37563.0,0,0,0,40000
1559193,36927.0,40497.0,42341.0,40235.0,0,0,0,40000
1559203,36576.0,40664.0,44064.0,38696.0,0,0,0,40000
1559213,36201.0,41107.0,42975.0,39717.0,0,0,0,40000
1559223,35026.0,40300.0,44756.0,39918.0,0,0,0,40000
1559233,34802.0,41418.0,44170.0,39610.0,0,0,0,40000
1559243,35030.0,39828.0,45874.0,39268.0,0,0,0,40000
1559253,34369.0,41333.0,44417.0,39881.0,0,0,0,40000
1559263,34389.0,39957.0,46091.0,39563.0,0,0,0,40000
1559273,33053.0,41449.0,45821.0,39677.0,0,0,0,40000
1559283,33976.0,40364.0,46206.0,39454.0,0,0,0,40000
1559293,32274.0,41216.0,46960.0,39550.0,0,0,0,40000
1559303,33221.0,39965.0,46529.0,40285.0,0,0,0,40000
1559313,32725.0,40615.0,46335.0,40325.0,0,0,0,40000
1559323,32817.0,40701.0,46679.0,39803.0,0,0,0,40000
1559333,32242.0,40218.0,47116.0,40424.0,0,0,0,40000
1559343,32721.0,39383.0,46683.0,41213.0,0,0,0,40000
1559353,33014.0,39568.0,47140.0,40278.0,0,0,0,40000
1559363,32751.0,41011.0,46371.0,39867.0,0,0,0,40000
1559373,32398.0,39960.0,47222.0,40420.0,0,0,0,40000
1559383,34289.0,38629.0,45097.0,41985.0,0,0,0,40000
1559393,34574.0,37808.0,45118.0,42500.0,0,0,0,40000
1559403,34221.0,39719.0,45127.0,40933.0,0,0,0,40000
1559413,34996.0,39800.0,44308.0,40896.0,0,0,0,40000
1559423,35755.0,38787.0,43901.0,41557.0,0,0,0,40000
1559433,34295.0,38801.0,45511.0,41393.0,0,0,0,40000
1559443,33831.0,40199.0,45873.0,40097.0,0,0,0,40000
1559453,34361.0,40723.0,45373.0,39543.0,0,0,0,40000
1559463,34347.0,40949.0,45573.0,39131.0,0,0,0,40000
1559473,33767.0,41691.0,46007.0,38535.0,0,0,0,40000
1559483,33364.0,41642.0,46362.0,38632.0,0,0,0,40000
1559493,32792.0,41502.0,46836.0,38870.0,0,0,0,40000
1559503,35212.0,41264.0,44390.0,39134.0,0,0,0,40000
1559513,33762.0,41396.0,46140.0,38702.0,0,0,0,40000
1559523,34175.0,41271.0,45397.0,39157.0,0,0,0,40000
1559533,35070.0,40134.0,45204.0,39592.0,0,0,0,40000
1559543,36013.0,41239.0,43763.0,38985.0,0,0,0,40000
1559553,34846.0,40352.0,45410.0,39392.0,0,0,0,40000
1559563,34484.0,41030.0,44806.0,39680.0,0,0,0,40000
1559573,35517.0,40597.0,44465.0,39421.0,0,0,0,40000
1559583,35865.0,41253.0,43775.0,39107.0,0,0,0,40000
1559593,36615.0,39867.0,43097.0,40421.0,0,0,0,40000
1559603,35687.0,40245.0,43413.0,40655.0,0,0,0,40000
1559613,36142.0,39850.0,44046.0,39962.0,0,0,0,40000
1559623,34685.0,40905.0,44991.0,39419.0,0,0,0,40000
1559633,33978.0,40810.0,46274.0,38938.0,0,0,0,40000
1559643,34325.0,41501.0,45347.0,38827.0,0,0,0,40000
1559653,34180.0,40844.0,46044.0,38932.0,0,0,0,40000
1559663,33965.0,40611.0,45695.0,39729.0,0,0,0,40000
1559673,33049.0,40303.0,46361.0,40287.0,0,0,0,40000
1559683,34871.0,40053.0,44871.0,40205.0,0,0,0,40000
1559693,35887.0,38789.0,43871.0,41453.0,0,0,0,40000
1559703,34817.0,40537.0,44499.0,40147.0,0,0,0,40000
1559713,34024.0,40334.0,45432.0,40210.0,0,0,0,40000
1559723,34110.0,40106.0,45546.0,40238.0,0,0,0,40000
1559733,33805.0,39947.0,46025.0,40223.0,0,0,0,40000
1559743,33814.0,40870.0,45494.0,39822.0,0,0,0,40000
1559753,32706.0,42136.0,46988.0,38170.0,0,0,0,40000
1559763,32914.0,39214.0,47036.0,40836.0,0,0,0,40000
1559773,33382.0,39880.0,46586.0,40152.0,0,0,0,40000
1559783,33521.0,40383.0,45951.0,40145.0,0,0,0,40000
1559793,33861.0,40719.0,46223.0,39197.0,0,0,0,40000
1559803,33959.0,41285.0,45489.0,39267.0,0,0,0,40000
1559813,34718.0,39076.0,45056.0,41150.0,0,0,0,40000
1559823,33679.0,40259.0,45313.0,40749.0,0,0,0,40000
1559833,34053.0,39771.0,46083.0,40093.0,0,0,0,40000
1559843,35132.0,39340.0,44758.0,40770.0,0,0,0,40000
1559853,35676.0,38818.0,43782.0,41724.0,0,0,0,40000
1559863,35023.0,39507.0,44281.0,41189.0,0,0,0,40000
1559873,34402.0,39534.0,45556.0,40508.0,0,0,0,40000
1559883,34952.0,39204.0,45162.0,40682.0,0,0,0,40000
1559893,35375.0,40055.0,43915.0,40655.0,0,0,0,40000
1559903,35307.0,40627.0,44721.0,39345.0,0,0,0,40000
1559913,33556.0,41460.0,46260.0,38724.0,0,0,0,40000
1559923,33803.0,41119.0,46277.0,38801.0,0,0,0,40000
1559933,33378.0,41024.0,45866.0,39732.0,0,0,0,40000
1559943,34727.0,40545.0,45313.0,39415.0,0,0,0,40000
1559953,34186.0,41872.0,45318.0,38624.0,0,0,0,40000
1559963,34479.0,41209.0,44777.0,39535.0,0,0,0,40000
1559973,34132.0,40592.0,45844.0,39432.0,0,0,0,40000
1559983,34608.0,40580.0,45054.0,39758.0,0,0,0,40000
1559993,34222.0,40874.0,45974.0,38930.0,0,0,0,40000
1560003,33969.0,42085.0,45127.0,38819.0,0,0,0,40000
1560013,34691.0,40533.0,45905.0,38871.0,0,0,0,40000
1560023,34370.0,41692.0,44774.0,39164.0,0,0,0,40000
1560033,35437.0,39847.0,45797.0,38919.0,0,0,0,40000
1560043,34321.0,41679.0,44397.0,39603.0,0,0,0,40000
1560053,34684.0,40018.0,45912.0,39386.0,0,0,0,40000
1560063,34892.0,40444.0,44082.0,40582.0,0,0,0,40000
1560073,35220.0,39450.0,45066.0,40264.0,0,0,0,40000
1560083,35239.0,40091.0,43633.0,41037.0,0,0,0,40000
1560093,35478.0,40496.0,44194.0,39832.0,0,0,0,40000
1560103,35158.0,40806.0,43832.0,40204.0,0,0,0,40000
1560113,33594.0,40562.0,46502.0,39342.0,0,0,0,40000
1560123,32491.0,41225.0,47033.0,39251.0,0,0,0,40000
1560133,33367.0,42275.0,46935.0,37423.0,0,0,0,40000
1560143,32947.0,42455.0,46385.0,38213.0,0,0,0,40000
1560153,32733.0,40645.0,47565.0,39057.0,0,0,0,40000
1560163,32632.0,42258.0,46400.0,38710.0,0,0,0,40000
1560173,34085.0,41259.0,46275.0,38381.0,0,0,0,40000
1560183,34374.0,41578.0,45104.0,38944.0,0,0,0,40000
1560193,34005.0,40837.0,46347.0,38811.0,0,0,0,40000
1560203,34621.0,41055.0,44613.0,39711.0,0,0,0,40000
1560213,35682.0,39730.0,44114.0,40474.0,0,0,0,40000
1560223,35940.0,40492.0,43514.0,40054.0,0,0,0,40000
1560233,36009.0,40519.0,43917.0,39555.0,0,0,0,40000
1560243,34425.0,40539.0,45193.0,39843.0,0,0,0,40000
1560253,35277.0,39913.0,44773.0,40037.0,0,0,0,40000
1560263,35015.0,40531.0,44655.0,39799.0,0,0,0,40000
1560273,34231.0,41367.0,45439.0,38963.0,0,0,0,40000
1560283,34294.0,41302.0,45722.0,38682.0,0,0,0,40000
1560293,34849.0,42267.0,44893.0,37991.0,0,0,0,40000
1560303,34427.0,42351.0,44933.0,38289.0,0,0,0,40000
1560313,33866.0,42654.0,46410.0,37070.0,0,0,0,40000
1560323,34215.0,41313.0,45073.0,39399.0,0,0,0,40000
1560333,34312.0,40932.0,45874.0,38882.0,0,0,0,40000
1560343,35454.0,42126.0,43532.0,38888.0,0,0,0,40000
1560353,34251.0,40437.0,46209.0,39103.0,0,0,0,40000
1560363,34698.0,40938.0,44624.0,39740.0,0,0,0,40000
1560373,35643.0,40333.0,44445.0,39579.0,0,0,0,40000
1560383,35904.0,39464.0,43732.0,40900.0,0,0,0,40000
1560393,35212.0,39356.0,44936.0,40496.0,0,0,0,40000
1560403,34785.0,39733.0,44587.0,40895.0,0,0,0,40000
1560413,34657.0,40005.0,45217.0,40121.0,0,0,0,40000
1560423,36310.0,39046.0,43732.0,40912.0,0,0,0,40000
1560433,35370.0,40058.0,43754.0,40818.0,0,0,0,40000
1560443,34588.0,40372.0,45222.0,39818.0,0,0,0,40000
1560453,34455.0,40373.0,45303.0,39869.0,0,0,0,40000
1560463,34439.0,39841.0,45211.0,40509.0,0,0,0,40000
1560473,34620.0,40114.0,45158.0,40108.0,0,0,0,40000
1560483,34440.0,40554.0,45132.0,39874.0,0,0,0,40000
1560493,33542.0,40784.0,46586.0,39088.0,0,0,0,40000
1560503,33788.0,41142.0,45840.0,39230.0,0,0,0,40000
1560513,33478.0,40680.0,46074.0,39768.0,0,0,0,40000
1560523,34180.0,41196.0,45716.0,38908.0,0,0,0,40000
1560533,32807.0,41131.0,46551.0,39511.0,0,0,0,40000
1560543,33766.0,39970.0,46312.0,39952.0,0,0,0,40000
1560553,33837.0,40151.0,45315.0,40697.0,0,0,0,40000
1560563,34271.0,40597.0,45571.0,39561.0,0,0,0,40000
1560573,33870.0,40540.0,45800.0,39790.0,0,0,0,40000
1560583,34315.0,39887.0,45561.0,40237.0,0,0,0,40000
1560593,34872.0,40034.0,44640.0,40454.0,0,0,0,40000
1560603,34956.0,40194.0,44886.0,39964.0,0,0,0,40000
1560613,35425.0,38735.0,44501.0,41339.0,0,0,0,40000
1560623,35757.0,38951.0,44311.0,40981.0,0,0,0,40000
1560633,35915.0,39949.0,43663.0,40473.0,0,0,0,40000
1560643,35641.0,39699.0,43961.0,40699.0,0,0,0,40000
1560653,35100.0,38938.0,44502.0,41460.0,0,0,0,40000
1560663,33899.0,39973.0,46037.0,40091.0,0,0,0,40000
1560673,34438.0,41150.0,44828.0,39584.0,0,0,0,40000
1560683,34109.0,41119.0,45845.0,38927.0,0,0,0,40000
1560693,31953.0,41517.0,47569.0,38961.0,0,0,0,40000
1560703,33257.0,40915.0,46065.0,39763.0,0,0,0,40000
1560713,33157.0,39895.0,47181.0,39767.0,0,0,0,40000
1560723,33361.0,39937.0,46447.0,40255.0,0,0,0,40000
1560733,33934.0,40420.0,46126.0,39520.0,0,0,0,40000
1560743,34386.0,40906.0,44928.0,39780.0,0,0,0,40000
1560753,35239.0,39537.0,44949.0,40275.0,0,0,0,40000
1560763,35201.0,38963.0,44415.0,41421.0,0,0,0,40000
1560773,33966.0,39358.0,46120.0,40556.0,0,0,0,40000
1560783,33880.0,40246.0,44888.0,40986.0,0,0,0,40000
1560793,35467.0,39153.0,44969.0,40411.0,0,0,0,40000
1560803,35291.0,40539.0,44053.0,40117.0,0,0,0,40000
1560813,34855.0,40177.0,45495.0,39473.0,0,0,0,40000
1560823,33329.0,41157.0,45589.0,39925.0,0,0,0,40000
1560833,34234.0,41274.0,46128.0,38364.0,0,0,0,40000
1560843,34027.0,41311.0,45055.0,39607.0,0,0,0,40000
1560853,33722.0,41174.0,46782.0,38322.0,0,0,0,40000
1560863,34321.0,40569.0,45203.0,39907.0,0,0,0,40000
1560873,34329.0,39917.0,45937.0,39817.0,0,0,0,40000
1560883,34771.0,39563.0,44435.0,41231.0,0,0,0,40000
1560893,35557.0,39699.0,44471.0,40273.0,0,0,0,40000
1560903,35266.0,40302.0,44410.0,40022.0,0,0,0,40000
1560913,34859.0,40287.0,44841.0,40013.0,0,0,0,40000
1560923,34315.0,41145.0,45369.0,39171.0,0,0,0,40000
1560933,35817.0,38571.0,44531.0,41081.0,0,0,0,40000
1560943,34883.0,39297.0,45041.0,40779.0,0,0,0,40000
1560953,34289.0,40917.0,45209.0,39585.0,0,0,0,40000
1560963,33996.0,41000.0,45854.0,39150.0,0,0,0,40000
1560973,33963.0,40273.0,45639.0,40125.0,0,0,0,40000
1560983,34053.0,40753.0,45779.0,39415.0,0,0,0,40000
1560993,34075.0,39899.0,45415.0,40611.0,0,0,0,40000
1561003,33718.0,40260.0,46012.0,40010.0,0,0,0,40000
1561013,34931.0,39413.0,44397.0,41259.0,0,0,0,40000
1561023,35274.0,39070.0,44140.0,41516.0,0,0,0,40000
1561033,36535.0,38593.0,42739.0,42133.0,0,0,0,40000
1561043,35918.0,38310.0,43282.0,42490.0,0,0,0,40000
1561053,36353.0,37663.0,43491.0,42493.0,0,0,0,40000
1561063,37695.0,38285.0,41799.0,42221.0,0,0,0,40000
1561073,36201.0,38683.0,43837.0,41279.0,0,0,0,40000
1561083,34012.0,40304.0,45414.0,40270.0,0,0,0,40000
1561093,33164.0,38856.0,47000.0,40980.0,0,0,0,40000
1561103,32597.0,39727.0,47059.0,40617.0,0,0,0,40000
1561113,34552.0,41010.0,45370.0,39068.0,0,0,0,40000
1561123,33263.0,41949.0,46229.0,38559.0,0,0,0,40000
1561133,32671.0,41065.0,47251.0,39013.0,0,0,0,40000
1561143,32354.0,40394.0,47188.0,40064.0,0,0,0,40000
1561153,33660.0,40878.0,46704.0,38758.0,0,0,0,40000
1561163,33224.0,41616.0,46362.0,38798.0,0,0,0,40000
1561173,33758.0,42210.0,45758.0,38274.0,0,0,0,40000
1561183,33547.0,40755.0,46111.0,39587.0,0,0,0,40000
1561193,34140.0,39116.0,45860.0,40884.0,0,0,0,40000
1561203,35163.0,39201.0,44325.0,41311.0,0,0,0,40000
1561213,35669.0,40127.0,43941.0,40263.0,0,0,0,40000
1561223,36302.0,39382.0,43178.0,41138.0,0,0,0,40000
1561233,36952.0,39342.0,43046.0,40660.0,0,0,0,40000
1561243,35920.0,39128.0,43520.0,41432.0,0,0,0,40000
1561253,35713.0,38935.0,44123.0,41229.0,0,0,0,40000
1561263,34859.0,39935.0,44835.0,40371.0,0,0,0,40000
1561273,35173.0,40509.0,44829.0,39489.0,0,0,0,40000
1561283,33417.0,40799.0,45697.0,40087.0,0,0,0,40000
1561293,34863.0,40103.0,45939.0,39095.0,0,0,0,40000
1561303,33911.0,41621.0,45051.0,39417.0,0,0,0,40000
1561313,34384.0,40852.0,46084.0,38680.0,0,0,0,40000
1561323,35037.0,40973.0,43815.0,40175.0,0,0,0,40000
1561333,35288.0,40706.0,44964.0,39042.0,0,0,0,40000
1561343,34277.0,41463.0,45047.0,39213.0,0,0,0,40000
1561353,34649.0,40593.0,45361.0,39397.0,0,0,0,40000
1561363,34876.0,40940.0,44280.0,39904.0,0,0,0,40000
1561373,35818.0,40018.0,44612.0,39552.0,0,0,0,40000
1561383,35263.0,40255.0,44359.0,40123.0,0,0,0,40000
1561393,34594.0,40256.0,45588.0,39562.0,0,0,0,40000
1561403,34439.0,39429.0,44383.0,41749.0,0,0,0,40000
1561413,35919.0,38323.0,44531.0,41227.0,0,0,0,40000
1561423,35531.0,40199.0,43647.0,40623.0,0,0,0,40000
1561433,36161.0,39979.0,43875.0,39985.0,0,0,0,40000
1561443,34201.0,40611.0,44781.0,40407.0,0,0,0,40000
1561453,34624.0,39418.0,45602.0,40356.0,0,0,0,40000
1561463,34114.0,41028.0,45762.0,39096.0,0,0,0,40000
1561473,34581.0,40719.0,45499.0,39201.0,0,0,0,40000
1561483,33371.0,41783.0,46011.0,38835.0,0,0,0,40000
1561493,33760.0,40868.0,45830.0,39542.0,0,0,0,40000
1561503,33912.0,41618.0,46178.0,38292.0,0,0,0,40000
1561513,33645.0,40565.0,45633.0,40157.0,0,0,0,40000
1561523,33980.0,40432.0,45868.0,39720.0,0,0,0,40000
1561533,34456.0,40300.0,45018.0,40226.0,0,0,0,40000
1561543,35244.0,38376.0,45392.0,40988.0,0,0,0,40000
1561553,35301.0,38705.0,43687.0,42307.0,0,0,0,40000
1561563,35152.0,39064.0,45146.0,40638.0,0,0,0,40000
1561573,35540.0,39042.0,43838.0,41580.0,0,0,0,40000
1561583,36295.0,38961.0,43797.0,40947.0,0,0,0,40000
1561593,34338.0,39286.0,44542.0,41834.0,0,0,0,40000
1561603,34772.0,38366.0,45558.0,41304.0,0,0,0,40000
1561613,34933.0,39931.0,44257.0,40879.0,0,0,0,40000
1561623,36460.0,38200.0,43896.0,41444.0,0,0,0,40000
1561633,33695.0,40531.0,45427.0,40347.0,0,0,0,40000
1561643,33782.0,39364.0,46094.0,40760.0,0,0,0,40000
1561653,33840.0,40490.0,45684.0,39986.0,0,0,0,40000
1561663,33622.0,40260.0,46736.0,39382.0,0,0,0,40000
1561673,35084.0,41548.0,44264.0,39104.0,0,0,0,40000
1561683,35073.0,40279.0,45009.0,39639.0,0,0,0,40000
1561693,33551.0,39063.0,45781.0,41605.0,0,0,0,40000
1561703,33413.0,38973.0,46617.0,40997.0,0,0,0,40000
1561713,34446.0,39970.0,45056.0,40528.0,0,0,0,40000
1561723,35154.0,39440.0,44572.0,40834.0,0,0,0,40000
1561733,34118.0,40188.0,45614.0,40080.0,0,0,0,40000
1561743,34373.0,39431.0,45355.0,40841.0,0,0,0,40000
1561753,35475.0,38201.0,44569.0,41755.0,0,0,0,40000
1561763,34964.0,40472.0,44844.0,39720.0,0,0,0,40000
1561773,35369.0,40059.0,44635.0,39937.0,0,0,0,40000
1561783,34408.0,41374.0,45084.0,39134.0,0,0,0,40000
1561793,35604.0,39496.0,44658.0,40242.0,0,0,0,40000
1561803,35074.0,40514.0,44400.0,40012.0,0,0,0,40000
1561813,36251.0,39539.0,43295.0,40915.0,0,0,0,40000
1561823,35989.0,39941.0,43469.0,40601.0,0,0,0,40000
1561833,35915.0,40087.0,44139.0,39859.0,0,0,0,40000
1561843,35452.0,40496.0,44212.0,39840.0,0,0,0,40000
1561853,34873.0,40695.0,44499.0,39933.0,0,0,0,40000
1561863,33946.0,40242.0,45828.0,39984.0,0,0,0,40000
1561873,33912.0,39876.0,46292.0,39920.0,0,0,0,40000
1561883,34433.0,40649.0,45383.0,39535.0,0,0,0,40000
1561893,35337.0,40017.0,44233.0,40413.0,0,0,0,40000
1561903,35255.0,40217.0,44415.0,40113.0,0,0,0,40000
1561913,34786.0,40394.0,45514.0,39306.0,0,0,0,40000
1561923,33931.0,40095.0,45601.0,40373.0,0,0,0,40000
1561933,34875.0,40595.0,44723.0,39807.0,0,0,0,40000
1561943,36304.0,40100.0,43494.0,40102.0,0,0,0,40000
1561953,35695.0,40185.0,44181.0,39939.0,0,0,0,40000
1561963,33859.0,40821.0,45341.0,39979.0,0,0,0,40000
1561973,34387.0,39959.0,45555.0,40099.0,0,0,0,40000
1561983,33467.0,40143.0,46019.0,40371.0,0,0,0,40000
1561993,34610.0,40360.0,45230.0,39800.0,0,0,0,40000
1562003,33742.0,39582.0,45972.0,40704.0,0,0,0,40000
1562013,34146.0,40814.0,45854.0,39186.0,0,0,0,40000
1562023,34411.0,39423.0,45093.0,41073.0,0,0,0,40000
1562033,34462.0,38434.0,45504.0,41600.0,0,0,0,40000
1562043,33061.0,40113.0,46639.0,40187.0,0,0,0,40000
1562053,33132.0,39878.0,46470.0,40520.0,0,0,0,40000
1562063,34322.0,40928.0,45494.0,39256.0,0,0,0,40000
1562073,35017.0,39689.0,44317.0,40977.0,0,0,0,40000
1562083,35083.0,39367.0,44651.0,40899.0,0,0,0,40000
1562093,33909.0,39991.0,45525.0,40575.0,0,0,0,40000
1562103,34126.0,39288.0,45976.0,40610.0,0,0,0,40000
1562113,34714.0,40006.0,44578.0,40702.0,0,0,0,40000
1562123,35089.0,39163.0,45195.0,40553.0,0,0,0,40000
1562133,34602.0,39968.0,44746.0,40684.0,0,0,0,40000
1562143,34621.0,39883.0,45369.0,40127.0,0,0,0,40000
1562153,34098.0,40446.0,45378.0,40078.0,0,0,0,40000
1562163,34989.0,40329.0,45523.0,39159.0,0,0,0,40000
1562173,33473.0,41675.0,45985.0,38867.0,0,0,0,40000
1562183,34937.0,40841.0,45089.0,39133.0,0,0,0,40000
1562193,34643.0,41665.0,45065.0,38627.0,0,0,0,40000
1562203,34497.0,41081.0,45605.0,38817.0,0,0,0,40000
1562213,34602.0,41056.0,44862.0,39480.0,0,0,0,40000
1562223,35574.0,39736.0,44318.0,40372.0,0,0,0,40000
1562233,35778.0,41146.0,43904.0,39172.0,0,0,0,40000
1562243,35272.0,40706.0,44378.0,39644.0,0,0,0,40000
1562253,34888.0,40272.0,44994.0,39846.0,0,0,0,40000
1562263,35651.0,40221.0,44113.0,40015.0,0,0,0,40000
1562273,36511.0,40023.0,43233.0,40233.0,0,0,0,40000
1562283,35550.0,40684.0,44086.0,39680.0,0,0,0,40000
1562293,35976.0,40758.0,43472.0,39794.0,0,0,0,40000
1562303,35178.0,40488.0,44896.0,39438.0,0,0,0,40000
1562313,34565.0,41535.0,44637.0,39263.0,0,0,0,40000
1562323,35019.0,40963.0,44979.0,39039.0,0,0,0,40000
1562333,33825.0,40443.0,45683.0,40049.0,0,0,0,40000
1562343,34678.0,40338.0,45548.0,39436.0,0,0,0,40000
1562353,34484.0,40392.0,45232.0,39892.0,0,0,0,40000
1562363,35732.0,40340.0,43868.0,40060.0,0,0,0,40000
1562373,33820.0,40316.0,46022.0,39842.0,0,0,0,40000
1562383,33383.0,41567.0,46229.0,38821.0,0,0,0,40000
1562393,35038.0,39964.0,45020.0,39978.0,0,0,0,40000
1562403,34290.0,41208.0,45062.0,39440.0,0,0,0,40000
1562413,35347.0,40817.0,44859.0,38977.0,0,0,0,40000
1562423,33973.0,41703.0,45637.0,38687.0,0,0,0,40000
1562433,34836.0,40478.0,45106.0,39580.0,0,0,0,40000
1562443,34917.0,39171.0,44381.0,41531.0,0,0,0,40000
1562453,34871.0,40031.0,45183.0,39915.0,0,0,0,40000
1562463,34902.0,41192.0,44796.0,39110.0,0,0,0,40000
1562473,34776.0,39854.0,44852.0,40518.0,0,0,0,40000
1562483,35612.0,40258.0,43790.0,40340.0,0,0,0,40000
1562493,35826.0,38484.0,44212.0,41478.0,0,0,0,40000
1562503,35090.0,40242.0,44910.0,39758.0,0,0,0,40000
1562513,35167.0,40717.0,44379.0,39737.0,0,0,0,40000
1562523,35038.0,40716.0,44620.0,39626.0,0,0,0,40000
1562533,34306.0,41694.0,45192.0,38808.0,0,0,0,40000
1562543,34518.0,40746.0,45466.0,39270.0,0,0,0,40000
1562553,34808.0,42358.0,45030.0,37804.0,0,0,0,40000
1562563,34213.0,40909.0,45201.0,39677.0,0,0,0,40000
1562573,34799.0,40915.0,45391.0,38895.0,0,0,0,40000
1562583,33763.0,42519.0,45675.0,38043.0,0,0,0,40000
1562593,34767.0,41401.0,45401.0,38431.0,0,0,0,40000
1562603,34273.0,42191.0,45091.0,38445.0,0,0,0,40000
1562613,35049.0,40361.0,45279.0,39311.0,0,0,0,40000
1562623,35135.0,40109.0,44137.0,40619.0,0,0,0,40000
1562633,35477.0,39457.0,44631.0,40435.0,0,0,0,40000
1562643,35595.0,40123.0,43743.0,40539.0,0,0,0,40000
1562653,35470.0,39796.0,44746.0,39988.0,0,0,0,40000
1562663,35132.0,41040.0,44428.0,39400.0,0,0,0,40000
1562673,34201.0,39481.0,45297.0,41021.0,0,0,0,40000
1562683,33205.0,40031.0,46103.0,40661.0,0,0,0,40000
1562693,35368.0,38244.0,44752.0,41636.0,0,0,0,40000
1562703,34300.0,40720.0,45302.0,39678.0,0,0,0,40000
1562713,33416.0,39802.0,46120.0,40662.0,0,0,0,40000
1562723,33847.0,40205.0,46263.0,39685.0,0,0,0,40000
1562733,34341.0,39721.0,45581.0,40357.0,0,0,0,40000
1562743,33924.0,39932.0,45852.0,40292.0,0,0,0,40000
1562753,34251.0,40465.0,45287.0,39997.0,0,0,0,40000
1562763,35325.0,39467.0,44459.0,40749.0,0,0,0,40000
1562773,34732.0,40652.0,44760.0,39856.0,0,0,0,40000
1562783,34680.0,40594.0,45256.0,39470.0,0,0,0,40000
1562793,34046.0,41798.0,45310.0,38846.0,0,0,0,40000
1562803,35712.0,40986.0,44170.0,39132.0,0,0,0,40000
1562813,35054.0,40930.0,44588.0,39428.0,0,0,0,40000
1562823,34027.0,40513.0,46119.0,39341.0,0,0,0,40000
1562833,34575.0,40683.0,45295.0,39447.0,0,0,0,40000
1562843,35627.0,40919.0,44157.0,39297.0,0,0,0,40000
1562853,34578.0,40740.0,45128.0,39554.0,0,0,0,40000
1562863,34896.0,40788.0,44932.0,39384.0,0,0,0,40000
1562873,34934.0,40388.0,44408.0,40270.0,0,0,0,40000
1562883,36349.0,39967.0,43361.0,40323.0,0,0,0,40000
1562893,36303.0,40637.0,43123.0,39937.0,0,0,0,40000
1562903,35854.0,40118.0,44108.0,39920.0,0,0,0,40000
1562913,35629.0,40147.0,43669.0,40555.0,0,0,0,40000
1562923,34382.0,40682.0,45338.0,39598.0,0,0,0,40000
1562933,34266.0,40534.0,45388.0,39812.0,0,0,0,40000
1562943,34848.0,40858.0,44870.0,39424.0,0,0,0,40000
1562953,34539.0,40295.0,45357.0,39809.0,0,0,0,40000
1562963,33609.0,41189.0,46529.0,38673.0,0,0,0,40000
1562973,33375.0,41261.0,46447.0,38917.0,0,0,0,40000
1562983,32944.0,41560.0,46586.0,38910.0,0,0,0,40000
1562993,33392.0,40072.0,46490.0,40046.0,19.999625708435246,0.12235817298410956,0,40000
1563003,19446.0,27788.0,60128.0,52638.0,19.302189097387664,5.236935749910316,0,40000
1563013,16817.0,30417.0,63077.0,49689.0,17.303605630736595,10.029218921528278,0,40000
1563023,13847.0,35139.0,65271.0,45743.0,14.188328584473322,14.095791286019285,0,40000
1563033,13419.0,40117.0,65535.0,39983.0,10.157200770450974,17.22879196312818,0,40000
1563043,17094.0,44350.0,62470.0,36086.0,5.444701382669405,19.24461552885788,0,40000
1563053,23242.0,47056.0,56910.0,32792.0,0.35567304509772696,19.996837167036965,0,40000
1563063,30289.0,50171.0,48867.0,30673.0,-4.844954622780121,19.404288564727167,0,40000
1563073,41282.0,49772.0,39214.0,29732.0,-9.61037616723214,17.539688421528375,0,40000
1563083,45540.0,50224.0,33708.0,30528.0,-13.927843562888132,14.353228685132681,0,40000
1563093,59124.0,45078.0,21254.0,34544.0,-17.12907425807964,10.324476503009407,0,40000
1563103,63365.0,46003.0,15959.0,34673.0,-17.12907425807964,10.324476503009407,0,40000
1563113,65535.0,41591.0,9997.0,37237.0,-19.991793316317736,0.5728874214306957,0,40000
1563123,65535.0,41529.0,8859.0,39161.0,-19.4869494904902,-4.500977622148734,0,40000
1563133,65535.0,35660.0,11574.0,44294.0,-17.70074217449898,-9.310409575948476,0,40000
1563143,65535.0,36480.0,11986.0,44130.0,-17.70074217449898,-9.310409575948476,0,40000
1563153,62549.0,33347.0,16833.0,47271.0,-14.75066441777175,-13.506217058609803,0,40000
1563163,44733.0,13541.0,33693.0,65535.0,-10.75356039886344,-16.863005033148628,0,40000
1563173,33946.0,13288.0,43898.0,65535.0,-6.0524563254308195,-19.06220796310733,0,40000
1563183,23133.0,24101.0,55103.0,57663.0,-0.8218863267638848,-19.983105435989636,0,40000
1563193,8692.0,38542.0,65535.0,43646.0,4.287025873615854,-19.535132688542156,0,40000
1563203,6144.0,41090.0,65535.0,41090.0,9.14518355709719,-17.78666966317751,0,40000
1563213,6611.0,40623.0,65535.0,40623.0,13.455580094296947,-14.796870085459283,0,40000
1563223,7078.0,40156.0,65535.0,40156.0,16.829480975787494,-10.805950679399142,0,40000
1563233,7620.0,39614.0,65535.0,39614.0,19.02493373932507,-6.1686219056034375,0,40000
1563243,7974.0,39260.0,65535.0,39260.0,19.97102048153421,-1.076262480132565,0,40000
1563253,8946.0,38288.0,65535.0,38288.0,19.586876159872638,4.04404281602122,0,40000
1563263,9013.0,38221.0,65535.0,38221.0,17.899855174316286,8.921613348408593,0,40000
1563273,9682.0,37552.0,65535.0,37552.0,14.918010030894987,13.321147725256884,0,40000
1563283,9644.0,37590.0,65535.0,37590.0,11.03775810577707,16.678366106976803,0,40000
1563293,9834.0,37400.0,65535.0,37400.0,6.450422385358845,18.931245364488348,0,40000
1563303,9441.0,37793.0,65535.0,37793.0,1.4434422622793843,19.947843854298284,0,40000
1563313,9256.0,37978.0,65535.0,37978.0,-3.697903751270534,19.655164915266912,0,40000
1563323,10760.0,40364.0,65535.0,36474.0,-8.579367124169595,18.066390335335885,0,40000
1563333,14080.0,44800.0,65535.0,33154.0,-12.895327903419297,15.287593606035442,0,40000
1563343,17824.0,49060.0,63706.0,29410.0,-16.377325905481868,11.479686240731166,0,40000
1563353,26847.0,46393.0,53255.0,33505.0,-18.800370135242762,6.822468964962171,0,40000
1563363,38450.0,40360.0,40778.0,40412.0,-19.91756951410809,1.8139527696916389,0,40000
1563373,53763.0,31017.0,24245.0,50975.0,-19.725331250712504,-3.3032267632823413,0,40000
1563383,58022.0,27450.0,19784.0,54744.0,-18.231313103528382,-8.223090813137985,0,40000
1563393,57394.0,26768.0,20466.0,55372.0,-15.530069771010687,-12.602259039852342,0,40000
1563403,55582.0,24968.0,22266.0,57184.0,-11.825054661119061,-16.129726664192,0,40000
1563413,53178.0,22254.0,24980.0,59588.0,-7.259134766338978,-18.63611983338079,0,40000
1563423,49640.0,18266.0,28968.0,63126.0,-2.150954922956438,-19.883998413785125,0,40000
1563433,47457.0,15039.0,32195.0,65309.0,3.0290561392815327,-19.76928979263243,0,40000
1563443,38026.0,15630.0,41284.0,65060.0,7.969407730395675,-18.343623972015717,0,40000
1563453,28144.0,19090.0,52062.0,60704.0,7.969407730395675,-18.343623972015717,0,40000
1563463,18802.0,28432.0,60998.0,51768.0,15.959957942147136,-12.053204656227095,0,40000
1563473,8324.0,38910.0,65535.0,39766.0,15.959957942147136,-12.053204656227095,0,40000
1563483,7259.0,39975.0,65535.0,39975.0,18.5501189514995,-7.476167927837035,0,40000
1563493,7276.0,39958.0,65535.0,39958.0,19.844964082239535,-2.4854377028247483,0,40000
1563503,6699.0,40535.0,65535.0,40535.0,19.812969649014917,2.7287787904507157,0,40000
1563513,9462.0,43582.0,65535.0,37772.0,18.459192934891792,7.697934540670045,0,40000
1563523,17111.0,52031.0,60735.0,30123.0,15.873897789690798,12.166321094005763,0,40000
1563533,9032.0,44926.0,65535.0,38202.0,12.182579913273939,15.861423222923419,0,40000
1563543,31365.0,65535.0,43719.0,15869.0,7.728010103135184,18.44662190878971,0,40000
1563553,37558.0,65535.0,37558.0,9676.0,2.7220115035141204,19.813900508853294,0,40000
1563563,19603.0,59959.0,52807.0,27631.0,-2.5439321392564906,19.837550485653665,0,40000
1563573,28271.0,65535.0,45027.0,18963.0,-7.490282370324986,18.54442422974622,0,40000
1563583,29290.0,65535.0,40880.0,17944.0,-11.953031622820232,16.03511880292315,0,40000
1563593,36080.0,65535.0,36080.0,11154.0,-15.637109983317188,12.469193693645229,0,40000
1563603,35016.0,65535.0,35016.0,12218.0,-18.296219048464682,8.077646224649737,0,40000
1563613,39197.0,65535.0,32787.0,14447.0,-19.755402630706907,3.1183436145907124,0,40000
1563623,46462.0,65535.0,24610.0,22624.0,-19.892796044879486,-2.0680100378932207,0,40000
1563633,58453.0,54313.0,14059.0,33175.0,-18.662614964846508,-7.190744236439455,0,40000
1563643,63720.0,49046.0,10070.0,37164.0,-16.21181127147143,-11.71226601893041,0,40000
1563653,65535.0,42305.0,4929.0,42305.0,-12.680360404879917,-15.466365442545113,0,40000
1563663,65535.0,41629.0,5605.0,41629.0,-8.269711067045858,-18.210213586544757,0,40000
1563673,65535.0,36449.0,10785.0,45681.0,-2.8028417850331966,-19.802628056095784,0,40000
1563683,61049.0,28971.0,18263.0,51717.0,2.3525569150754473,-19.861154950337877,0,40000
1563693,53705.0,25467.0,25847.0,54981.0,7.340026562903832,-18.604408350062258,0,40000
1563703,42583.0,27037.0,38121.0,52259.0,11.840513405842625,-16.11838212371394,0,40000
1563713,26885.0,29851.0,53073.0,50191.0,15.560682529647407,-12.564440266542956,0,40000
1563723,16802.0,32376.0,64238.0,46584.0,18.25332199717221,-8.174119895594206,0,40000
1563733,7586.0,39648.0,65535.0,39648.0,18.25332199717221,-8.174119895594206,0,40000
1563743,8005.0,39229.0,65535.0,39229.0,19.734400161110816,-3.2486074372181992,0,40000
1563753,7483.0,39751.0,65535.0,39751.0,18.767656543073397,6.91195109077273,0,40000
1563763,8229.0,39005.0,65535.0,39005.0,18.767656543073397,6.91195109077273,0,40000
1563773,7633.0,39601.0,65535.0,39601.0,16.34962581438086,11.519103078353407,0,40000
1563783,8382.0,38852.0,65535.0,38852.0,12.846528614882544,15.328623635114928,0,40000
1563793,25585.0,57241.0,55525.0,21649.0,8.498197363515102,18.104713241881104,0,40000
1563803,33201.0,63539.0,49227.0,14033.0,3.6030514517875263,19.672773577606485,0,40000
1563813,36351.0,65535.0,45211.0,10883.0,-1.5726227082570015,19.938075579590787,0,40000
1563823,40750.0,65535.0,40750.0,6484.0,-6.727979354753209,18.83439125116643,0,40000
1563833,40569.0,65535.0,40569.0,6665.0,-11.3382427368526,16.47556529045997,0,40000
1563843,50890.0,61876.0,30308.0,16926.0,-15.158414463446842,13.046933392731244,0,40000
1563853,63982.0,48784.0,16560.0,30674.0,-17.981209359449693,8.756489591819243,0,40000
1563863,65535.0,38490.0,8744.0,41530.0,-19.617153818250944,3.8945187213675503,0,40000
1563873,56244.0,40408.0,23348.0,40000.0,-19.963658991955743,-1.2051222564141288,0,40000
1563883,61865.0,36847.0,17983.0,43305.0,-19.01095012747121,-6.211583956673393,0,40000
1563893,63055.0,31079.0,16155.0,49711.0,-16.807365947811082,-10.840315950024726,0,40000
1563903,60181.0,28359.0,18875.0,52585.0,-13.486406066876931,-14.768779617805432,0,40000
1563913,54675.0,22627.0,24607.0,58091.0,-9.29269208946105,-17.710050077017513,0,40000
1563923,52376.0,19878.0,27356.0,60390.0,-4.335006139600793,-19.52454152520933,0,40000
1563933,46797.0,15261.0,31973.0,65535.0,0.8131451543231325,-19.98346303717153,0,40000
1563943,36947.0,18991.0,42575.0,61487.0,5.947279827606251,-19.09528378035131,0,40000
1563953,24155.0,23079.0,54513.0,58253.0,10.70956933296343,-16.890977612395595,0,40000
1563963,17539.0,29695.0,61959.0,50807.0,14.64108973160111,-13.624921705140347,0,40000
1563973,6757.0,40477.0,65535.0,40477.0,17.62173223122217,-9.459098961904662,0,40000
1563983,7338.0,39896.0,65535.0,39896.0,19.490476604155575,-4.485679629985198,0,40000
1563993,7169.0,40065.0,65535.0,40065.0,19.989585104614555,0.6453583077422086,0,40000
1564003,7330.0,39904.0,65535.0,39904.0,19.168402062889157,5.7072201951060855,0,40000
1564013,7414.0,39820.0,65535.0,39820.0,17.088545112906285,10.391420784674574,0,40000
1564023,7854.0,39380.0,65535.0,39380.0,13.865271496245885,14.41368260838955,0,40000
1564033,7478.0,39756.0,65535.0,39756.0,9.717921503841966,17.480331851688796,0,40000
1564043,7691.0,39543.0,65535.0,39543.0,4.940703863866968,19.380130168024415,0,40000
1564053,9185.0,41989.0,65535.0,38049.0,-0.13709845918582364,19.99953009479195,0,40000
1564063,14492.0,47014.0,65535.0,32742.0,-5.3045650556282755,19.283713064931437,0,40000
1564073,17911.0,51947.0,60819.0,29323.0,-5.3045650556282755,19.283713064931437,0,40000
1564083,22030.0,56350.0,56416.0,25204.0,-10.03917103609816,17.29783353220766,0,40000
1564093,27725.0,62943.0,49823.0,19509.0,-14.19829173778364,14.085755632154948,0,40000
1564103,30444.0,65535.0,46852.0,16790.0,-17.40622733966989,9.850038060826385,0,40000
1564113,65535.0,45417.0,8869.0,38365.0,-19.369427193994003,4.982498387010837,0,40000
1564123,65535.0,38952.0,8282.0,44712.0,-19.998082422783416,-0.276946586115586,0,40000
1564133,63192.0,34256.0,12978.0,49574.0,-19.27196910882158,-5.34707458977587,0,40000
1564143,56399.0,26747.0,20487.0,56367.0,-17.279638155157,-10.070457051536563,0,40000
1564153,51088.0,20836.0,26398.0,61678.0,-14.10683935607959,-14.177344017190386,0,40000
1564163,43569.0,13165.0,34069.0,65535.0,-10.039585635469308,-17.297592903871866,0,40000
1564173,39481.0,7753.0,39481.0,65535.0,-5.3183141769783955,-19.27992568229843,0,40000
1564183,55230.0,22942.0,24292.0,57536.0,-0.2024101031957727,-19.998975727524755,0,40000
1564193,49680.0,17184.0,30050.0,63086.0,4.956727825722244,-19.376038017657553,0,40000
1564203,38558.0,21076.0,41576.0,58790.0,9.720644732862253,-17.478817636713227,0,40000
1564213,26869.0,25147.0,53351.0,54633.0,13.84781492538715,-14.43045466339245,0,40000
1564223,15475.0,31759.0,65299.0,47467.0,17.06540201121204,-10.429384171451355,0,40000
1564233,7083.0,40151.0,65535.0,40151.0,19.158971508791602,-5.738798717964566,0,40000
1564243,7383.0,39851.0,65535.0,39851.0,19.98912774615191,-0.6593723894885177,0,40000
1564253,6982.0,40252.0,65535.0,40252.0,19.493241397586026,4.473649496265697,0,40000
1564263,7343.0,39891.0,65535.0,39891.0,17.667266773314644,9.373776440716533,0,40000
1564273,6818.0,40416.0,65535.0,40416.0,14.701441977360524,13.55977889887228,0,40000
1564283,6911.0,40323.0,65535.0,40323.0,10.750933097784865,16.864680178614535,0,40000
1564293,9821.0,43419.0,65535.0,37413.0,6.103035683914385,19.04607454151295,0,40000
1564303,14623.0,48965.0,63801.0,32611.0,1.0767411542254703,19.97099467945443,0,40000
1564313,20572.0,54758.0,58008.0,26662.0,-4.184191224773956,19.557416593060665,0,40000
1564323,24501.0,59729.0,53037.0,22733.0,-9.024325849417668,17.84829243831275,0,40000
1564333,30254.0,65412.0,47354.0,16980.0,-13.456378055315332,14.796144417801143,0,40000
1564343,32413.0,65535.0,44461.0,14821.0,-16.831423218004634,10.802925180543209,0,40000
1564353,37603.0,65535.0,39693.0,12157.0,-19.03477852775901,6.138176145987054,0,40000
1564363,47677.0,64323.0,28903.0,19097.0,-19.969887485836622,1.0970842278630666,0,40000
1564373,59622.0,53144.0,17060.0,30174.0,-19.589368362202503,-4.031953269810998,0,40000
1564383,65535.0,46385.0,10685.0,36549.0,-19.589368362202503,-4.031953269810998,0,40000
1564393,65535.0,39010.0,8224.0,43110.0,-17.921932227919996,-8.877181152699464,0,40000
1564403,65535.0,35070.0,12164.0,46828.0,-15.07681481018517,-13.141143602418365,0,40000
1564413,61549.0,30149.0,17085.0,51217.0,-11.199831161199485,-16.569966263110643,0,40000
1564423,56335.0,24309.0,22925.0,56431.0,-1.539766010503334,-19.940639925360937,0,40000
1564433,51026.0,18744.0,28490.0,61740.0,-1.539766010503334,-19.940639925360937,0,40000
1564443,43963.0,16387.0,35913.0,63737.0,3.5896121244378416,-19.675230234894048,0,40000
1564453,25848.0,21386.0,53834.0,58932.0,8.573087767297924,-18.069370939083814,0,40000
1564463,10474.0,36760.0,65535.0,43914.0,12.935040814410069,-15.254006658237229,0,40000
1564473,7338.0,39896.0,65535.0,39896.0,16.39882759796954,-11.44894988250331,0,40000
1564483,6656.0,40578.0,65535.0,40578.0,18.766330848042482,-6.915549616755644,0,40000
1564493,7040.0,40194.0,65535.0,40194.0,19.908014814928993,-1.915971327699798,0,40000
1564503,6935.0,40299.0,65535.0,40299.0,19.744101917439927,3.1891126467631956,0,40000
1564513,7306.0,39928.0,65535.0,39928.0,18.290357577989745,8.09090969355567,0,40000
1564523,10704.0,43574.0,65535.0,36530.0,15.632027942234688,12.47556421221878,0,40000
1564533,7358.0,39876.0,65535.0,39876.0,11.942459761199064,16.042993949139955,0,40000
1564543,24524.0,56518.0,56248.0,22710.0,7.453931684707797,18.559065236151014,0,40000
1564553,8603.0,41325.0,65535.0,38631.0,2.477827071836803,19.84591577635239,0,40000
1564563,14301.0,46099.0,65535.0,32933.0,-2.6608541729085085,19.822206110080568,0,40000
1564573,17426.0,50780.0,61986.0,29808.0,-7.611464494051228,18.495015767925086,0,40000
1564583,22529.0,54469.0,58297.0,24705.0,-12.13119277390324,15.90075978946911,0,40000
1564593,25901.0,59861.0,52905.0,21333.0,-15.7975515225315,12.265291105104792,0,40000
1564603,35236.0,60102.0,44406.0,20256.0,-18.453375686190437,7.711869149844003,0,40000
1564613,45726.0,54096.0,32502.0,27676.0,-19.80856199533314,2.7605926314912166,0,40000
1564623,59423.0,41155.0,19205.0,40217.0,-19.85903241015204,-2.3704075034750707,0,40000
1564633,62643.0,36317.0,15467.0,45573.0,-18.605463732024646,-7.337350974044754,0,40000
1564643,64364.0,33376.0,13858.0,48402.0,-16.122779891925166,-11.834524433053218,0,40000
1564653,63174.0,32090.0,15144.0,49592.0,-12.58130955955718,-15.547046335770505,0,40000
1564663,60145.0,28407.0,18827.0,52621.0,-8.013132014628608,-18.324565897071995,0,40000
1564673,54817.0,23443.0,23791.0,57949.0,-3.0645891682291286,-19.763812719968094,0,40000
1564683,49439.0,17205.0,30029.0,63327.0,2.2374351310397973,-19.874453049943007,0,40000
1564693,42447.0,18437.0,36265.0,62851.0,7.2359018311902945,-18.645152847037135,0,40000
1564703,30287.0,20225.0,49395.0,60093.0,11.740031703259914,-16.191715647405996,0,40000
1564713,18182.0,29052.0,60862.0,51904.0,11.740031703259914,-16.191715647405996,0,40000
1564723,8897.0,38337.0,65535.0,41865.0,18.184956314887287,-8.325104433317392,0,40000
1564733,6804.0,40430.0,65535.0,40430.0,19.706535478631878,-3.4135698952010785,0,40000
1564743,6823.0,40411.0,65535.0,40411.0,19.92714408238569,1.7055581842437508,0,40000
1564753,7169.0,40065.0,65535.0,40065.0,19.92714408238569,1.7055581842437508,0,40000
1564763,7039.0,40195.0,65535.0,40195.0,18.793861524248875,6.840377840979087,0,40000
1564773,9901.0,42559.0,65535.0,37333.0,16.403422703745395,11.442365297535737,0,40000
1564783,17507.0,50875.0,61891.0,29727.0,8.556951570793023,18.077018001183237,0,40000
1564793,7346.0,39888.0,65535.0,39888.0,8.556951570793023,18.077018001183237,0,40000
1564803,10462.0,43714.0,65535.0,36772.0,3.5982182027686727,19.67365816937115,0,40000
1564813,14879.0,47939.0,64827.0,32355.0,-1.530326400347994,19.941366580763663,0,40000
1564823,19514.0,53790.0,58976.0,27720.0,-6.555932383372899,18.894966276356318,0,40000
1564833,24915.0,59135.0,53631.0,22319.0,-11.156801330741278,16.598969367595377,0,40000
1564843,29294.0,64610.0,48156.0,17940.0,-15.054351021045356,13.166871888765026,0,40000
1564853,32826.0,65535.0,44672.0,14408.0,-17.974277712624083,8.770709247801184,0,40000
1564863,45592.0,60514.0,31142.0,22752.0,-19.616009489368558,3.9002784148061354,0,40000
1564873,53629.0,53149.0,23143.0,30079.0,-19.962560414747962,-1.2231850585817456,0,40000
1564883,65535.0,41279.0,9693.0,41695.0,-18.993118313437872,-6.265896323093041,0,40000
1564893,65535.0,38696.0,8538.0,43538.0,-16.76253325104378,-10.90951323422139,0,40000
1564903,65535.0,35505.0,11729.0,46185.0,-13.41047625408719,-14.837760162455908,0,40000
1564913,62006.0,30706.0,16528.0,50760.0,-9.177675082145488,-17.769926282530434,0,40000
1564923,57798.0,26222.0,21012.0,54968.0,-4.361559588551181,-19.51862694852067,0,40000
1564933,52835.0,20221.0,27013.0,59931.0,0.7513538965482004,-19.9858816998936,0,40000
1564943,44238.0,17674.0,35600.0,62488.0,5.843871028743493,-19.12718409487953,0,40000
1564953,32643.0,21489.0,46739.0,59129.0,10.523302402348712,-17.007648472046977,0,40000
1564963,20033.0,27201.0,59557.0,53209.0,14.5166355444554,-13.757444983333718,0,40000
1564973,11926.0,35308.0,65535.0,45310.0,17.625754915253584,-9.451601116605275,0,40000
1564983,7237.0,39997.0,65535.0,39997.0,19.451575895700024,-4.651472366232193,0,40000
1564993,6630.0,40604.0,65535.0,40604.0,19.99490513464933,0.45140741727827804,0,40000
1565003,6916.0,40318.0,65535.0,40318.0,19.227359079435743,5.505330401569003,0,40000
1565013,7353.0,39881.0,65535.0,39881.0,17.12424688425561,10.332481243489486,0,40000
1565023,7115.0,40119.0,65535.0,40119.0,13.924488942350814,14.356483124162056,0,40000
1565033,6990.0,40244.0,65535.0,40244.0,9.83198885918263,17.416428884042464,0,40000
1565043,7099.0,40135.0,65535.0,40135.0,5.070423039949466,19.346596863426644,0,40000
1565053,11011.0,42653.0,65535.0,36223.0,5.070423039949466,19.346596863426644,0,40000
1565063,14741.0,47879.0,64887.0,32493.0,-5.101137285367766,19.338521101569032,0,40000
1565073,18190.0,50758.0,62008.0,29044.0,-5.101137285367766,19.338521101569032,0,40000
1565083,23031.0,56873.0,55893.0,24203.0,-9.85671254092941,17.402448617521756,0,40000
1565093,43983.0,65535.0,36143.0,11091.0,-14.09153975041922,14.192551125937685,0,40000
1565103,56226.0,56540.0,21466.0,25768.0,-19.282600146589523,5.3086091951419565,0,40000
1565113,65535.0,45888.0,11672.0,35562.0,-19.282600146589523,5.3086091951419565,0,40000
1565123,65535.0,37367.0,9867.0,44731.0,-19.99880282642053,0.21882758042400052,0,40000
1565133,63165.0,31849.0,15385.0,49601.0,-19.380958842334863,-4.937452212601366,0,40000
1565143,64846.0,34936.0,12298.0,47920.0,-17.43812569989252,-9.79345557373637,0,40000
1565153,62998.0,31646.0,15588.0,49768.0,-14.265063115371417,-14.01813020036802,0,40000
1565163,59753.0,28505.0,18729.0,53013.0,-10.240290894818358,-17.179535569668356,0,40000
1565173,56246.0,23958.0,23276.0,56520.0,-5.469028679363303,-19.23771621851985,0,40000
1565183,48361.0,17385.0,29849.0,64405.0,-0.40635710294500005,-19.995871421493142,0,40000
1565193,41067.0,18815.0,39265.0,60853.0,4.689926737258698,-19.442340064898207,0,40000
1565203,30345.0,20181.0,48571.0,60903.0,9.574096231448905,-17.55951825509333,0,40000
1565213,21931.0,25303.0,58515.0,54251.0,13.747351364474664,-14.526194631137109,0,40000
1565223,11768.0,35466.0,65535.0,46120.0,16.97978106910421,-10.568208686683391,0,40000
1565233,7410.0,39824.0,65535.0,39824.0,19.161308270131,-5.730991657384385,0,40000
1565243,7286.0,39948.0,65535.0,39948.0,19.992004770637998,-0.5654602114981552,0,40000
1565253,7302.0,39932.0,65535.0,39932.0,19.47776633901419,4.540552658296752,0,40000
1565263,6569.0,40665.0,65535.0,40665.0,17.694489818413462,9.322286740176056,0,40000
1565273,7128.0,40106.0,65535.0,40106.0,14.744026314170336,13.513463214404098,0,40000
1565283,7488.0,39746.0,65535.0,39746.0,10.839208098582642,16.808080431614446,0,40000
1565293,7886.0,41308.0,65535.0,39348.0,6.1502651115479665,19.030875940367956,0,40000
1565303,11994.0,45806.0,65535.0,35240.0,1.1062980702449619,19.9693791736191,0,40000
1565313,16693.0,50627.0,62139.0,30541.0,-4.016222824219813,19.592599475981125,0,40000
1565323,22971.0,56187.0,56579.0,24263.0,-8.873100093740666,17.923953099873348,0,40000
1565333,26289.0,61665.0,51101.0,20945.0,-13.151349231771656,15.06791337192974,0,40000
1565343,31686.0,65535.0,46048.0,15548.0,-16.568288311000362,11.202313263052805,0,40000
1565353,36122.0,65535.0,40738.0,15956.0,-16.568288311000362,11.202313263052805,0,40000
1565363,50838.0,59264.0,26898.0,23000.0,-18.896929622491157,6.550271051079966,0,40000
1565373,59473.0,50541.0,17231.0,32755.0,-19.626754713128157,-3.8458418364126317,0,40000
1565383,65535.0,40079.0,8087.0,42493.0,-19.626754713128157,-3.8458418364126317,0,40000
1565393,65535.0,37304.0,9930.0,44890.0,-18.00611184260272,-8.705167219053413,0,40000
1565403,65535.0,35679.0,11555.0,45871.0,-15.197124088211421,-13.001823696985904,0,40000
1565413,62276.0,30670.0,16564.0,50490.0,-11.387553494979517,-16.44152138334466,0,40000
1565423,39522.0,7712.0,39522.0,65535.0,-6.740617911191706,-18.829871751430534,0,40000
1565433,40122.0,7112.0,40122.0,65535.0,-1.7404220166782538,-19.924129371289013,0,40000
1565443,39378.0,7856.0,39378.0,65535.0,3.3859349449199305,-19.711302456934956,0,40000
1565453,26102.0,21132.0,53632.0,59134.0,8.293927860784795,-18.199196703154175,0,40000
1565463,13301.0,33933.0,65535.0,46761.0,12.656249213457025,-15.486102022357608,0,40000
1565473,7145.0,40089.0,65535.0,40089.0,16.198817788300076,-11.730230273163997,0,40000
1565483,6402.0,40832.0,65535.0,40832.0,18.649225572861127,-7.225398641773522,0,40000
1565493,6842.0,40392.0,65535.0,40392.0,19.881028167862603,-2.1782375877423914,0,40000
1565503,6614.0,40620.0,65535.0,40620.0,19.78321356304071,2.93674328451129,0,40000
1565513,6950.0,40284.0,65535.0,40284.0,18.38166315843136,7.88127271003658,0,40000
1565523,6962.0,40272.0,65535.0,40272.0,15.731472630570282,12.349929913712796,0,40000
1565533,7174.0,40060.0,65535.0,40060.0,12.083403331193638,15.937106510772225,0,40000
1565543,7118.0,40116.0,65535.0,40116.0,7.6433705179312454,18.48185291375352,0,40000
1565553,10481.0,42813.0,65535.0,36753.0,2.7228425909592033,19.813786317230196,0,40000
1565563,15607.0,48449.0,64317.0,31627.0,-2.412646240763591,19.85394515246099,0,40000
1565573,20118.0,52626.0,60140.0,27116.0,-7.461826778311465,18.555892356081234,0,40000
1565583,23839.0,57111.0,55655.0,23395.0,-11.925918816435914,16.055293842959706,0,40000
1565593,27973.0,61357.0,51409.0,19261.0,-15.620883220721534,12.489515899528708,0,40000
1565603,31383.0,65535.0,47033.0,15851.0,-18.321924044621657,8.01917073662326,0,40000
1565613,37963.0,63401.0,40295.0,18341.0,-19.76939868252562,3.028345378478855,0,40000
1565623,52726.0,53530.0,24952.0,28792.0,-19.889663217615993,-2.0979268552104893,0,40000
1565633,57989.0,46011.0,20063.0,35937.0,-18.703415524170367,-7.08394295080239,0,40000
1565643,65535.0,34798.0,12436.0,46850.0,-16.279960892192054,-11.617352252070923,0,40000
1565653,63295.0,32271.0,14963.0,49471.0,-12.795940980723685,-15.370878127740006,0,40000
1565663,60065.0,28615.0,18619.0,52701.0,-8.451194600025717,-18.126701570680094,0,40000
1565673,55358.0,23868.0,23366.0,57408.0,-3.4698818363576667,-19.69669820151883,0,40000
1565683,50584.0,18126.0,29108.0,62182.0,1.6783321040849066,-19.929455620974647,0,40000
1565693,45362.0,13832.0,33402.0,65535.0,6.903291096407984,-18.77084366879268,0,40000
1565703,36783.0,13057.0,42227.0,65535.0,11.453862549533525,-16.395396692254607,0,40000
1565713,27817.0,19417.0,51197.0,61569.0,15.256254166272516,-12.932389911153022,0,40000
1565723,17947.0,29287.0,61491.0,51275.0,18.052434809237162,-8.608693133004712,0,40000
1565733,9137.0,38097.0,65535.0,43499.0,18.052434809237162,-8.608693133004712,0,40000
1565743,6804.0,40430.0,65535.0,40430.0,19.65103127300774,-3.7198077782691725,0,40000
1565753,6812.0,40422.0,65535.0,40422.0,19.942225386877773,1.5190940125507602,0,40000
1565763,6934.0,40300.0,65535.0,40300.0,18.90687722155399,6.5215024134843915,0,40000
1565773,9602.0,43360.0,65535.0,37632.0,16.636978575231772,11.10004251736357,0,40000
1565783,15905.0,49223.0,63543.0,31329.0,13.27818529518117,14.956262743975667,0,40000
1565793,23317.0,56029.0,56737.0,23917.0,8.970489606024866,17.875410938722492,0,40000
1565803,30505.0,63311.0,49455.0,16729.0,4.128039942087906,19.569345575070386,0,40000
1565813,36123.0,65535.0,43185.0,11111.0,-0.985303497832462,19.97571468101102,0,40000
1565823,39756.0,65535.0,39756.0,7478.0,-6.053712764113116,19.061808984711128,0,40000
1565833,39542.0,65535.0,39542.0,7692.0,-10.696610966578756,16.899186780128417,0,40000
1565843,27964.0,61218.0,51548.0,19270.0,-14.644926327882754,13.620797805227362,0,40000
1565853,31735.0,62645.0,46527.0,19093.0,-17.66344583366932,9.380974431317354,0,40000
1565863,48076.0,55172.0,30136.0,26616.0,-19.47165431489671,4.5666922647759325,0,40000
1565873,56228.0,48812.0,22034.0,32926.0,-19.992671318664875,-0.5413811446983474,0,40000
1565883,65535.0,38877.0,9655.0,42509.0,-19.192543022339773,-5.625503740611758,0,40000
1565893,65535.0,36038.0,11196.0,45726.0,-17.131424700130673,-10.320575940506068,0,40000
1565903,64425.0,32995.0,14239.0,48341.0,-13.94537840946156,-14.33619269600278,0,40000
1565913,61018.0,29544.0,17690.0,51748.0,-9.844718297310454,-17.40923667616133,0,40000
1565923,57993.0,25875.0,21359.0,54773.0,-5.1095959343693025,-19.336287890582224,0,40000
1565933,53795.0,21735.0,25499.0,58971.0,-0.02840260347868596,-19.999979832292723,0,40000
1565943,46744.0,16660.0,32308.0,64288.0,5.24815397077348,-19.299141947222797,0,40000
1565953,33811.0,17971.0,45133.0,63085.0,9.978473901259115,-17.332918352138243,0,40000
1565963,20160.0,27074.0,58780.0,53986.0,14.057737695308965,-14.22603285845669,0,40000
1565973,12416.0,34818.0,65535.0,46296.0,17.285789945016287,-10.059893934668194,0,40000
1565983,6683.0,40551.0,65535.0,40551.0,19.280690313405298,-5.315541462406167,0,40000
1565993,6572.0,40662.0,65535.0,40662.0,19.999462076151392,-0.14668559773279616,0,40000
1566003,6895.0,40339.0,65535.0,40339.0,19.373778711980474,4.965551169730524,0,40000
1566013,6970.0,40264.0,65535.0,40264.0,17.457164754029453,9.75947738102158,0,40000
1566023,6995.0,40239.0,65535.0,40239.0,14.386320551653055,13.893659740510596,0,40000
1566033,6980.0,40254.0,65535.0,40254.0,10.265089160405731,17.164729666642604,0,40000
1566043,7940.0,40244.0,65535.0,39294.0,5.550017931336212,19.21450756490643,0,40000
1566053,11759.0,45339.0,65535.0,35475.0,0.4908245704581798,19.993976373924085,0,40000
1566063,17691.0,50313.0,62453.0,29543.0,-4.787029343118936,19.41865984222697,0,40000
1566073,21982.0,55884.0,56882.0,25252.0,-4.787029343118936,19.41865984222697,0,40000
1566083,27618.0,60906.0,51860.0,19616.0,-13.734986341420779,14.537886717160259,0,40000
1566093,30290.0,65416.0,47350.0,16944.0,-13.734986341420779,14.537886717160259,0,40000
1566103,34605.0,65535.0,43883.0,12629.0,-16.969323999074202,10.584991403607482,0,40000
1566113,41363.0,63483.0,35299.0,19855.0,-19.104845260984902,5.9164928423706185,0,40000
1566123,55727.0,53689.0,22583.0,28001.0,-19.981902811883373,0.8506233105478334,0,40000
1566133,65535.0,37342.0,9892.0,46246.0,-19.51671722948188,-4.370097090963206,0,40000
1566143,60652.0,29466.0,17768.0,52114.0,-17.770751115667437,-9.176077854127247,0,40000
1566153,51977.0,21885.0,25349.0,60789.0,-14.856629359708943,-13.389569226387913,0,40000
1566163,44859.0,13107.0,34127.0,65535.0,-10.929493627282694,-16.749512501896497,0,40000
1566173,39186.0,8048.0,39186.0,65535.0,-6.13669336643042,-19.035256618349248,0,40000
1566183,39871.0,7363.0,39871.0,65535.0,-1.0748264541454207,-19.97109781893497,0,40000
1566193,47867.0,18211.0,30769.0,63153.0,4.040639118808441,-19.58757860256226,0,40000
1566203,38690.0,17100.0,41170.0,63040.0,8.904233360607595,-17.90850714771733,0,40000
1566213,24629.0,23393.0,54487.0,57491.0,13.163353442056922,-15.057427607645607,0,40000
1566223,15770.0,31464.0,63592.0,49174.0,16.553371790470088,-11.224343293327637,0,40000
1566233,9056.0,38178.0,65535.0,43158.0,18.865233067953792,-6.641007550950592,0,40000
1566243,7147.0,40087.0,65535.0,40087.0,19.933743109662444,-1.6266178524733426,0,40000
1566253,6500.0,40734.0,65535.0,40734.0,19.682608916213358,3.5489302967793543,0,40000
1566263,7094.0,40140.0,65535.0,40140.0,18.113106547060433,8.480293109016722,0,40000
1566273,6877.0,40357.0,65535.0,40357.0,15.367350506881412,12.800177279969665,0,40000
1566283,7280.0,39954.0,65535.0,39954.0,11.623107055970712,16.275852738503254,0,40000
1566293,6695.0,40539.0,65535.0,40539.0,6.947812514393713,18.75441018173683,0,40000
1566303,8774.0,41202.0,65535.0,38460.0,1.8308995719150836,19.916018848092133,0,40000
1566313,14748.0,48054.0,64712.0,32486.0,-3.3181185671718154,19.72283167230785,0,40000
1566323,20612.0,53014.0,59752.0,26622.0,-8.352881111303,18.172214425887606,0,40000
1566333,22667.0,56657.0,56109.0,24567.0,-12.803215765147122,15.364819103103303,0,40000
1566343,27084.0,60560.0,52206.0,20150.0,-16.33082964392052,11.545735279368166,0,40000
1566353,31352.0,64856.0,47192.0,16600.0,-18.737535886753236,6.993193039852011,0,40000
1566363,47159.0,57579.0,31393.0,23869.0,-19.901390360741143,1.9835981723624265,0,40000
1566373,53867.0,49657.0,24155.0,32321.0,-19.901390360741143,1.9835981723624265,0,40000
1566383,65206.0,36620.0,12744.0,45430.0,-19.733874320269585,-3.2518001648017463,0,40000
1566393,64948.0,33570.0,13664.0,47818.0,-18.226283782741856,-8.234232172519864,0,40000
1566403,62329.0,31799.0,15435.0,50437.0,-15.520701729927247,-12.613794742686808,0,40000
1566413,59205.0,27771.0,19463.0,53561.0,-11.789845547715016,-16.15548024544688,0,40000
1566423,54579.0,23017.0,24217.0,58187.0,-7.230427050594166,-18.647276601853584,0,40000
1566433,48786.0,16608.0,30626.0,63980.0,-2.2375542209573345,-19.874439642623287,0,40000
1566443,48187.0,17901.0,30339.0,63573.0,3.0741813929346478,-19.76232295969617,0,40000
1566453,30016.0,18458.0,48864.0,62662.0,8.00215029076142,-18.329364165842385,0,40000
1566463,24375.0,23263.0,54775.0,57587.0,12.40847667660768,-15.685334123507959,0,40000
1566473,15900.0,31334.0,63190.0,49576.0,15.995278934112807,-12.006292176185248,0,40000
1566483,8142.0,39092.0,65535.0,42506.0,18.525830942730533,-7.53615206065854,0,40000
1566493,6986.0,40248.0,65535.0,40248.0,19.832218103269895,-2.585174095556023,0,40000
1566503,6511.0,40723.0,65535.0,40723.0,19.837428514641285,2.5448830869996297,0,40000
1566513,7239.0,39995.0,65535.0,39995.0,18.463433803597905,7.687757291964812,0,40000
1566523,6699.0,40535.0,65535.0,40535.0,15.888685141044556,12.147003107299756,0,40000
1566533,7304.0,39930.0,65535.0,39930.0,12.258853159146973,15.802547871228622,0,40000
1566543,7110.0,40124.0,65535.0,40124.0,7.847555112582613,18.396083244945878,0,40000
1566553,9418.0,42436.0,65535.0,37816.0,2.882913852835371,19.79112952100334,0,40000
1566563,13434.0,46420.0,65535.0,33800.0,-2.398250592161592,19.855689212344068,0,40000
1566573,18848.0,52240.0,60526.0,28386.0,-7.354182358947588,18.598817215923816,0,40000
1566583,23622.0,57074.0,55692.0,23612.0,-11.911868305998212,16.065721068802212,0,40000
1566593,27793.0,62113.0,50653.0,19441.0,-15.641367929363632,12.46385210511882,0,40000
1566603,30840.0,65422.0,47344.0,16394.0,-18.336788475650206,7.985122942025492,0,40000
1566613,39856.0,61978.0,37700.0,20466.0,-19.768326822114442,3.0353343562234834,0,40000
1566623,50314.0,54492.0,27582.0,27612.0,-19.890240728668786,-2.0924444450463633,0,40000
1566633,61412.0,43832.0,16112.0,38644.0,-18.70740264861497,-7.0734069685402385,0,40000
1566643,64451.0,36353.0,13013.0,46183.0,-16.291160923996973,-11.601641079969426,0,40000
1566653,63000.0,31888.0,15346.0,49766.0,-12.79778296943549,-15.369344523018116,0,40000
1566663,59359.0,27715.0,19519.0,53407.0,-8.458797062760556,-18.123155140621442,0,40000
1566673,55464.0,24166.0,23068.0,57302.0,-3.5728695677461224,-19.678277441175425,0,40000
1566683,50573.0,18831.0,28403.0,62193.0,1.560197399834763,-19.939051734562227,0,40000
1566693,45564.0,13576.0,33658.0,65535.0,6.589774851112046,-18.883190075081362,0,40000
1566703,31533.0,16689.0,47563.0,64215.0,11.230095615924922,-16.549469854263727,0,40000
1566713,14667.0,32567.0,65027.0,47739.0,11.230095615924922,-16.549469854263727,0,40000
1566723,13597.0,33637.0,64809.0,47957.0,15.06507606428494,-13.154599316486573,0,40000
1566733,6791.0,40443.0,65535.0,40443.0,19.58199125032557,-4.067630596818347,0,40000
1566743,6756.0,40478.0,65535.0,40478.0,19.58199125032557,-4.067630596818347,0,40000
1566753,6706.0,40528.0,65535.0,40528.0,19.971450960813396,1.0682445973772257,0,40000
1566763,6934.0,40300.0,65535.0,40300.0,19.046623015720154,6.101323765957619,0,40000
1566773,6946.0,40288.0,65535.0,40288.0,16.803922411501404,10.845653119487132,0,40000
1566783,13424.0,46100.0,65535.0,33810.0,13.483573940941751,14.771365332262166,0,40000
1566793,20837.0,54031.0,58735.0,26397.0,9.28770405225646,17.712666468877543,0,40000
1566803,28740.0,61846.0,50920.0,18494.0,4.440587068283511,19.500799637168555,0,40000
1566813,11445.0,44211.0,65535.0,35789.0,-0.6981789032711038,19.987809940536934,0,40000
1566823,15604.0,48808.0,63958.0,31630.0,-5.802367682870968,19.139815288366147,0,40000
1566833,20699.0,54039.0,58727.0,26535.0,-10.52595197992414,17.006008788552684,0,40000
1566843,25024.0,59490.0,53276.0,22210.0,-14.503851680671003,13.770921771076072,0,40000
1566853,29846.0,63986.0,48780.0,17388.0,-17.53012039465677,9.627817974434226,0,40000
1566863,38371.0,58889.0,39715.0,23025.0,-19.403823971340962,4.846814963376859,0,40000
1566873,50253.0,50931.0,27453.0,31363.0,-19.99709591994732,-0.34081485945628176,0,40000
1566883,57895.0,42911.0,19693.0,39501.0,-19.227952761654702,-5.50325654459024,0,40000
1566893,65413.0,34509.0,12725.0,47353.0,-17.193571054633857,-10.216707610050156,0,40000
1566903,63636.0,32314.0,14920.0,49130.0,-14.030092167089256,-14.253298347504717,0,40000
1566913,60116.0,28944.0,18290.0,52650.0,-9.960708470018185,-17.34313370689703,0,40000
1566923,55285.0,23707.0,23527.0,57481.0,-5.2113701093177935,-19.309107218711823,0,40000
1566933,51435.0,19545.0,27689.0,61331.0,-0.1254740116492484,-19.999606402937047,0,40000
