timestamp,motor.m1,motor.m2,motor.m3,motor.m4,roll,pitch,yawdot,thrust
1378399,7308.0,39926.0,65535.0,39926.0,0,0,0,40000
1378409,7447.0,39787.0,65535.0,39787.0,0,0,0,40000
1378419,7664.0,39570.0,65535.0,39570.0,0,0,0,40000
1378429,7782.0,39452.0,65535.0,39452.0,0,0,0,40000
1378439,7792.0,39442.0,65535.0,39442.0,0,0,0,40000
1378449,7806.0,39428.0,65535.0,39428.0,0,0,0,40000
1378459,7757.0,39477.0,65535.0,39477.0,0,0,0,40000
1378469,7528.0,39706.0,65535.0,39706.0,0,0,0,40000
1378479,7397.0,39837.0,65535.0,39837.0,0,0,0,40000
1378489,6995.0,40239.0,65535.0,40239.0,0,0,0,40000
1378499,6683.0,40551.0,65535.0,40551.0,0,0,0,40000
1378509,11423.0,35811.0,65535.0,46121.0,0,0,0,40000
1378519,23010.0,24224.0,53856.0,58910.0,0,0,0,40000
1378529,27190.0,20044.0,48480.0,64286.0,0,0,0,40000
1378539,36861.0,10373.0,36861.0,65535.0,0,0,0,40000
1378549,35948.0,11286.0,35948.0,65535.0,0,0,0,40000
1378559,36630.0,13368.0,33866.0,65535.0,0,0,0,40000
1378569,34593.0,12641.0,34593.0,65535.0,0,0,0,40000
1378579,41252.0,19966.0,27268.0,65535.0,0,0,0,40000
1378589,42563.0,22553.0,24681.0,65535.0,0,0,0,40000
1378599,49369.0,28907.0,18327.0,63397.0,0,0,0,40000
1378609,47470.0,26680.0,20554.0,65296.0,0,0,0,40000
1378619,50912.0,29210.0,18024.0,61854.0,0,0,0,40000
1378629,57506.0,38166.0,12660.0,51668.0,0,0,0,40000
1378639,47574.0,48158.0,24134.0,40134.0,0,0,0,40000
1378649,43240.0,58360.0,29850.0,28550.0,0,0,0,40000
1378659,33826.0,64734.0,40762.0,20678.0,0,0,0,40000
1378669,35362.0,65535.0,39646.0,11872.0,0,0,0,40000
1378679,34390.0,65535.0,40702.0,12844.0,0,0,0,40000
1378689,37507.0,65535.0,37507.0,9727.0,0,0,0,40000
1378699,34990.0,65535.0,40288.0,12244.0,0,0,0,40000
1378709,37331.0,65535.0,37827.0,9903.0,0,0,0,40000
1378719,33529.0,65535.0,40621.0,13705.0,0,0,0,40000
1378729,36543.0,65535.0,37819.0,10691.0,0,0,0,40000
1378739,33953.0,65535.0,40089.0,13281.0,0,0,0,40000
1378749,36031.0,65535.0,38637.0,11203.0,0,0,0,40000
1378759,31904.0,65535.0,41836.0,15330.0,0,0,0,40000
1378769,32125.0,65535.0,43419.0,15109.0,0,0,0,40000
1378779,29443.0,65535.0,45789.0,17791.0,0,0,0,40000
1378789,32202.0,63660.0,44854.0,19284.0,0,0,0,40000
1378799,36812.0,55782.0,40728.0,26678.0,0,0,0,40000
1378809,44613.0,46281.0,34483.0,34623.0,0,0,0,40000
1378819,44129.0,39629.0,35525.0,40717.0,0,0,0,40000
1378829,50203.0,28469.0,30861.0,50467.0,0,0,0,40000
1378839,48119.0,28553.0,32559.0,50769.0,0,0,0,40000
1378849,51032.0,20346.0,30396.0,58226.0,0,0,0,40000
1378859,46144.0,24036.0,34198.0,55622.0,0,0,0,40000
1378869,43777.0,19705.0,37045.0,59473.0,0,0,0,40000
1378879,36829.0,25035.0,42859.0,55277.0,0,0,0,40000
1378889,32785.0,24183.0,46563.0,56469.0,0,0,0,40000
1378899,26569.0,30409.0,51929.0,51093.0,0,0,0,40000
1378909,21247.0,30653.0,56407.0,51693.0,0,0,0,40000
1378919,19788.0,35200.0,57856.0,47156.0,0,0,0,40000
1378929,14276.0,36602.0,63154.0,45968.0,0,0,0,40000
1378939,12767.0,40909.0,64413.0,41911.0,0,0,0,40000
1378949,10247.0,38925.0,65535.0,43289.0,0,0,0,40000
1378959,12330.0,39240.0,65272.0,43158.0,0,0,0,40000
1378969,12037.0,38465.0,65535.0,42869.0,0,0,0,40000
1378979,16300.0,38746.0,61812.0,43142.0,0,0,0,40000
1378989,18391.0,35545.0,61537.0,44527.0,0,0,0,40000
1378999,21905.0,34879.0,57369.0,45847.0,0,0,0,40000
1379009,25588.0,31740.0,54090.0,48582.0,0,0,0,40000
1379019,28906.0,32806.0,50174.0,48114.0,0,0,0,40000
1379029,31838.0,32032.0,48168.0,47962.0,0,0,0,40000
1379039,32978.0,34022.0,46832.0,46168.0,0,0,0,40000
1379049,36567.0,32089.0,43447.0,47897.0,0,0,0,40000
1379059,36071.0,35779.0,43407.0,44743.0,0,0,0,40000
1379069,38987.0,37415.0,40685.0,42913.0,0,0,0,40000
1379079,37564.0,38304.0,42944.0,41188.0,0,0,0,40000
1379089,38283.0,40273.0,42239.0,39205.0,0,0,0,40000
1379099,35620.0,42730.0,45608.0,36042.0,0,0,0,40000
1379109,37675.0,46041.0,43285.0,32999.0,0,0,0,40000
1379119,36831.0,46371.0,44997.0,31801.0,0,0,0,40000
1379129,36348.0,49224.0,45510.0,28918.0,0,0,0,40000
1379139,36092.0,48380.0,45854.0,29674.0,0,0,0,40000
1379149,37230.0,49302.0,44520.0,28948.0,0,0,0,40000
1379159,35975.0,49195.0,45465.0,29365.0,0,0,0,40000
1379169,38660.0,47636.0,42768.0,30936.0,0,0,0,40000
1379179,38377.0,46085.0,42927.0,32611.0,0,0,0,40000
1379189,39576.0,45260.0,41554.0,33610.0,0,0,0,40000
1379199,40131.0,43763.0,40267.0,35839.0,0,0,0,40000
1379209,40383.0,43401.0,40203.0,36013.0,0,0,0,40000
1379219,39084.0,42258.0,41160.0,37498.0,0,0,0,40000
1379229,39918.0,39738.0,39844.0,40500.0,0,0,0,40000
1379239,38913.0,40021.0,41223.0,39843.0,0,0,0,40000
1379249,36355.0,40231.0,42753.0,40661.0,0,0,0,40000
1379259,33854.0,39916.0,46520.0,39710.0,0,0,0,40000
1379269,33343.0,40791.0,45411.0,40455.0,0,0,0,40000
1379279,31942.0,40618.0,47378.0,40062.0,0,0,0,40000
1379289,29881.0,41099.0,48663.0,40357.0,0,0,0,40000
1379299,29975.0,39769.0,48731.0,41525.0,0,0,0,40000
1379309,29443.0,39637.0,49043.0,41877.0,0,0,0,40000
1379319,29354.0,39260.0,49496.0,41890.0,0,0,0,40000
1379329,28872.0,38304.0,49572.0,43252.0,0,0,0,40000
1379339,30396.0,38652.0,48290.0,42662.0,0,0,0,40000
1379349,28127.0,36863.0,50733.0,44277.0,0,0,0,40000
1379359,28589.0,36003.0,50149.0,45259.0,0,0,0,40000
1379369,29457.0,36789.0,48899.0,44855.0,0,0,0,40000
1379379,29967.0,37473.0,49129.0,43431.0,0,0,0,40000
1379389,31366.0,36912.0,47926.0,43796.0,0,0,0,40000
1379399,30810.0,37130.0,48056.0,44004.0,0,0,0,40000
1379409,31296.0,37390.0,47924.0,43390.0,0,0,0,40000
1379419,33199.0,37437.0,45957.0,43407.0,0,0,0,40000
1379429,33565.0,37769.0,46115.0,42551.0,0,0,0,40000
1379439,34489.0,38595.0,45027.0,41889.0,0,0,0,40000
1379449,34295.0,39495.0,45503.0,40707.0,0,0,0,40000
1379459,34424.0,40272.0,45380.0,39924.0,0,0,0,40000
1379469,35907.0,39711.0,44521.0,39861.0,0,0,0,40000
1379479,33932.0,42112.0,45850.0,38106.0,0,0,0,40000
1379489,34753.0,42603.0,46025.0,36619.0,0,0,0,40000
1379499,34830.0,43458.0,45362.0,36350.0,0,0,0,40000
1379509,34463.0,44443.0,46023.0,35071.0,0,0,0,40000
1379519,34659.0,44045.0,45443.0,35853.0,0,0,0,40000
1379529,36397.0,43941.0,43961.0,35701.0,0,0,0,40000
1379539,34485.0,42991.0,46009.0,36515.0,0,0,0,40000
1379549,35457.0,43097.0,44581.0,36865.0,0,0,0,40000
1379559,37784.0,42940.0,42614.0,36662.0,0,0,0,40000
1379569,38760.0,42124.0,41178.0,37938.0,0,0,0,40000
1379579,36808.0,40428.0,43794.0,38970.0,0,0,0,40000
1379589,36906.0,41420.0,42646.0,39028.0,0,0,0,40000
1379599,37395.0,39691.0,42977.0,39937.0,0,0,0,40000
1379609,37493.0,40517.0,42413.0,39577.0,0,0,0,40000
1379619,36109.0,41653.0,43825.0,38413.0,0,0,0,40000
1379629,35069.0,41663.0,44539.0,38729.0,0,0,0,40000
1379639,33880.0,40938.0,45880.0,39302.0,0,0,0,40000
1379649,33501.0,41969.0,46395.0,38135.0,0,0,0,40000
1379659,33721.0,41465.0,45713.0,39101.0,0,0,0,40000
1379669,33065.0,41629.0,46495.0,38811.0,0,0,0,40000
1379679,32931.0,40549.0,46357.0,40163.0,0,0,0,40000
1379689,33618.0,39684.0,46104.0,40594.0,0,0,0,40000
1379699,33114.0,40046.0,45788.0,41052.0,0,0,0,40000
1379709,32982.0,40226.0,46170.0,40622.0,0,0,0,40000
1379719,32697.0,39657.0,46707.0,40939.0,0,0,0,40000
1379729,32889.0,39197.0,46343.0,41571.0,0,0,0,40000
1379739,33584.0,39402.0,46184.0,40830.0,0,0,0,40000
1379749,31640.0,41138.0,47442.0,39780.0,0,0,0,40000
1379759,33903.0,39955.0,45869.0,40273.0,0,0,0,40000
1379769,33981.0,39517.0,45473.0,41029.0,0,0,0,40000
1379779,33273.0,38495.0,46195.0,42037.0,0,0,0,40000
1379789,34204.0,39408.0,45156.0,41232.0,0,0,0,40000
1379799,33939.0,38279.0,45525.0,42257.0,0,0,0,40000
1379809,34002.0,39480.0,45544.0,40974.0,0,0,0,40000
1379819,33623.0,40877.0,45725.0,39775.0,0,0,0,40000
1379829,34021.0,39339.0,46167.0,40473.0,0,0,0,40000
1379839,33661.0,41675.0,45585.0,39079.0,0,0,0,40000
1379849,33965.0,42111.0,45909.0,38015.0,0,0,0,40000
1379859,34370.0,41482.0,45662.0,38486.0,0,0,0,40000
1379869,34803.0,41627.0,44827.0,38743.0,0,0,0,40000
1379879,33767.0,41443.0,45817.0,38973.0,0,0,0,40000
1379889,35610.0,41294.0,44392.0,38704.0,0,0,0,40000
1379899,36167.0,41811.0,43807.0,38215.0,0,0,0,40000
1379909,34423.0,42211.0,45409.0,37957.0,0,0,0,40000
1379919,34018.0,42596.0,46022.0,37364.0,0,0,0,40000
1379929,35147.0,42335.0,44861.0,37657.0,0,0,0,40000
1379939,35409.0,41215.0,44623.0,38753.0,0,0,0,40000
1379949,34751.0,41915.0,44955.0,38379.0,0,0,0,40000
1379959,35642.0,40258.0,44336.0,39764.0,0,0,0,40000
1379969,35950.0,40828.0,43754.0,39468.0,0,0,0,40000
1379979,36103.0,39937.0,43563.0,40397.0,0,0,0,40000
1379989,34758.0,41210.0,44860.0,39172.0,0,0,0,40000
1379999,35392.0,40828.0,44378.0,39402.0,0,0,0,40000
1380009,35211.0,40575.0,44653.0,39561.0,0,0,0,40000
1380019,34682.0,41154.0,44522.0,39642.0,0,0,0,40000
1380029,34619.0,40417.0,45499.0,39465.0,0,0,0,40000
1380039,33514.0,40694.0,46038.0,39754.0,0,0,0,40000
1380049,32836.0,41118.0,46870.0,39176.0,0,0,0,40000
1380059,32775.0,40367.0,46723.0,40135.0,0,0,0,40000
1380069,34107.0,40711.0,45731.0,39451.0,0,0,0,40000
1380079,32861.0,40311.0,46719.0,40109.0,0,0,0,40000
1380089,32691.0,39897.0,46279.0,41133.0,0,0,0,40000
1380099,34415.0,39261.0,45353.0,40971.0,0,0,0,40000
1380109,33085.0,39733.0,46113.0,41069.0,0,0,0,40000
1380119,33624.0,39804.0,46104.0,40468.0,0,0,0,40000
1380129,34777.0,39127.0,44471.0,41625.0,0,0,0,40000
1380139,34429.0,38879.0,45205.0,41487.0,0,0,0,40000
1380149,34096.0,39592.0,45942.0,40370.0,0,0,0,40000
1380159,33946.0,39282.0,45672.0,41100.0,0,0,0,40000
1380169,33334.0,39992.0,46276.0,40398.0,0,0,0,40000
1380179,32656.0,40542.0,47142.0,39660.0,0,0,0,40000
1380189,31822.0,41744.0,47936.0,38498.0,0,0,0,40000
1380199,31227.0,41737.0,48357.0,38679.0,0,0,0,40000
1380209,32174.0,41364.0,47696.0,38766.0,0,0,0,40000
1380219,31965.0,42391.0,47421.0,38223.0,0,0,0,40000
1380229,33559.0,41347.0,46435.0,38659.0,0,0,0,40000
1380239,31878.0,41318.0,47172.0,39632.0,0,0,0,40000
1380249,33940.0,41202.0,46286.0,38572.0,0,0,0,40000
1380259,33147.0,40687.0,46607.0,39559.0,0,0,0,40000
1380269,34558.0,40820.0,45808.0,38814.0,0,0,0,40000
1380279,35174.0,40596.0,44792.0,39438.0,0,0,0,40000
1380289,34976.0,40346.0,45104.0,39574.0,0,0,0,40000
1380299,34002.0,40620.0,46028.0,39350.0,0,0,0,40000
1380309,33413.0,40649.0,46115.0,39823.0,0,0,0,40000
1380319,33891.0,41745.0,46425.0,37939.0,0,0,0,40000
1380329,33241.0,42021.0,45993.0,38745.0,0,0,0,40000
1380339,33867.0,42299.0,46491.0,37343.0,0,0,0,40000
1380349,32977.0,41469.0,46037.0,39517.0,0,0,0,40000
1380359,33911.0,41541.0,46337.0,38211.0,0,0,0,40000
1380369,32561.0,41171.0,46859.0,39409.0,0,0,0,40000
1380379,33636.0,40644.0,47076.0,38644.0,0,0,0,40000
1380389,33246.0,42136.0,46150.0,38468.0,0,0,0,40000
1380399,32565.0,42697.0,47443.0,37295.0,0,0,0,40000
1380409,32188.0,42200.0,47220.0,38392.0,0,0,0,40000
1380419,32534.0,41636.0,47574.0,38256.0,0,0,0,40000
1380429,32496.0,41462.0,46956.0,39086.0,0,0,0,40000
1380439,32876.0,41528.0,46756.0,38840.0,0,0,0,40000
1380449,33579.0,40481.0,45789.0,40151.0,0,0,0,40000
1380459,35237.0,40047.0,44683.0,40033.0,0,0,0,40000
1380469,33761.0,40367.0,45609.0,40263.0,0,0,0,40000
1380479,35105.0,38827.0,44947.0,41121.0,0,0,0,40000
1380489,35014.0,39038.0,44638.0,41310.0,0,0,0,40000
1380499,35520.0,38888.0,44440.0,41152.0,0,0,0,40000
1380509,34926.0,38982.0,44970.0,41122.0,0,0,0,40000
1380519,34322.0,39678.0,45050.0,40950.0,0,0,0,40000
1380529,32884.0,40186.0,46914.0,40016.0,0,0,0,40000
1380539,32489.0,41645.0,46745.0,39121.0,0,0,0,40000
1380549,33096.0,41826.0,46860.0,38218.0,0,0,0,40000
1380559,33148.0,42302.0,46282.0,38268.0,0,0,0,40000
1380569,32773.0,42051.0,46951.0,38225.0,0,0,0,40000
1380579,33569.0,41965.0,45905.0,38561.0,0,0,0,40000
1380589,34090.0,40736.0,46344.0,38830.0,0,0,0,40000
1380599,33834.0,43194.0,45430.0,37542.0,0,0,0,40000
1380609,34453.0,41009.0,45747.0,38791.0,0,0,0,40000
1380619,34918.0,40492.0,44564.0,40026.0,0,0,0,40000
1380629,35162.0,40048.0,45270.0,39520.0,0,0,0,40000
1380639,35484.0,39960.0,43666.0,40890.0,0,0,0,40000
1380649,37083.0,39605.0,43355.0,39957.0,0,0,0,40000
1380659,37181.0,40123.0,41937.0,40759.0,0,0,0,40000
1380669,35194.0,39608.0,45130.0,40068.0,0,0,0,40000
1380679,34106.0,41094.0,44810.0,39990.0,0,0,0,40000
1380689,34704.0,40778.0,45240.0,39278.0,0,0,0,40000
1380699,34094.0,41262.0,45610.0,39034.0,0,0,0,40000
1380709,33772.0,41574.0,46374.0,38280.0,0,0,0,40000
1380719,33044.0,43788.0,46170.0,36998.0,0,0,0,40000
1380729,33604.0,42704.0,46738.0,36954.0,0,0,0,40000
1380739,33449.0,43063.0,46325.0,37163.0,0,0,0,40000
1380749,32780.0,42100.0,47248.0,37872.0,0,0,0,40000
1380759,33304.0,42354.0,46000.0,38342.0,0,0,0,40000
1380769,34842.0,40298.0,45014.0,39846.0,0,0,0,40000
1380779,33916.0,40962.0,45904.0,39218.0,0,0,0,40000
1380789,34811.0,41091.0,45021.0,39077.0,0,0,0,40000
1380799,35188.0,40616.0,44072.0,40124.0,0,0,0,40000
1380809,34565.0,40393.0,45141.0,39901.0,0,0,0,40000
1380819,34513.0,40789.0,45267.0,39431.0,0,0,0,40000
1380829,34674.0,41050.0,44876.0,39400.0,0,0,0,40000
1380839,34660.0,41048.0,44828.0,39464.0,0,0,0,40000
1380849,35904.0,40044.0,43870.0,40182.0,0,0,0,40000
1380859,34344.0,40328.0,45874.0,39454.0,0,0,0,40000
1380869,34171.0,40735.0,45897.0,39197.0,0,0,0,40000
1380879,34199.0,41815.0,45547.0,38439.0,0,0,0,40000
1380889,34427.0,42063.0,45289.0,38221.0,0,0,0,40000
1380899,33730.0,41862.0,46128.0,38280.0,0,0,0,40000
1380909,33247.0,41507.0,46093.0,39153.0,0,0,0,40000
1380919,34105.0,41863.0,45357.0,38675.0,0,0,0,40000
1380929,33335.0,40941.0,46217.0,39507.0,0,0,0,40000
1380939,34500.0,40770.0,45416.0,39314.0,0,0,0,40000
1380949,35486.0,41202.0,43994.0,39318.0,0,0,0,40000
1380959,36120.0,40314.0,43766.0,39800.0,0,0,0,40000
1380969,36321.0,40007.0,43361.0,40311.0,0,0,0,40000
1380979,36654.0,38838.0,43392.0,41116.0,0,0,0,40000
1380989,36257.0,38479.0,43251.0,42013.0,0,0,0,40000
1380999,36094.0,39336.0,44126.0,40444.0,0,0,0,40000
1381009,35121.0,40745.0,44249.0,39885.0,0,0,0,40000
1381019,34821.0,40929.0,45167.0,39083.0,0,0,0,40000
1381029,34314.0,41112.0,44980.0,39594.0,0,0,0,40000
1381039,34267.0,42071.0,45629.0,38033.0,0,0,0,40000
1381049,33635.0,41747.0,45999.0,38619.0,0,0,0,40000
1381059,32990.0,41068.0,46886.0,39056.0,0,0,0,40000
1381069,33740.0,41944.0,46028.0,38288.0,0,0,0,40000
1381079,34421.0,41967.0,45271.0,38341.0,0,0,0,40000
1381089,33515.0,41339.0,46385.0,38761.0,0,0,0,40000
1381099,33361.0,41889.0,46305.0,38445.0,0,0,0,40000
1381109,34950.0,41824.0,44882.0,38344.0,0,0,0,40000
1381119,34871.0,40807.0,44921.0,39401.0,0,0,0,40000
1381129,33600.0,41232.0,46550.0,38618.0,0,0,0,40000
1381139,34610.0,40224.0,44884.0,40282.0,0,0,0,40000
1381149,35260.0,40764.0,44108.0,39868.0,0,0,0,40000
1381159,35935.0,40127.0,43313.0,40625.0,0,0,0,40000
1381169,35300.0,39294.0,44788.0,40618.0,0,0,0,40000
1381179,34526.0,40646.0,44396.0,40432.0,0,0,0,40000
1381189,34682.0,40176.0,45252.0,39890.0,0,0,0,40000
1381199,34648.0,40546.0,44908.0,39898.0,0,0,0,40000
1381209,34703.0,40201.0,45733.0,39363.0,0,0,0,40000
1381219,33015.0,40375.0,46423.0,40187.0,0,0,0,40000
1381229,34157.0,40185.0,45855.0,39803.0,0,0,0,40000
1381239,34550.0,39472.0,45216.0,40762.0,0,0,0,40000
1381249,34464.0,40080.0,45388.0,40068.0,0,0,0,40000
1381259,33111.0,40871.0,45951.0,40067.0,0,0,0,40000
1381269,33678.0,40796.0,46056.0,39470.0,0,0,0,40000
1381279,34365.0,41073.0,45065.0,39497.0,0,0,0,40000
1381289,33281.0,41261.0,46301.0,39157.0,0,0,0,40000
1381299,33162.0,41422.0,46498.0,38918.0,0,0,0,40000
1381309,33807.0,40747.0,45657.0,39789.0,0,0,0,40000
1381319,33997.0,41983.0,46141.0,37879.0,0,0,0,40000
1381329,32957.0,41695.0,46601.0,38747.0,0,0,0,40000
1381339,32054.0,40920.0,47730.0,39296.0,0,0,0,40000
1381349,33685.0,40999.0,46483.0,38833.0,0,0,0,40000
1381359,33954.0,40832.0,45760.0,39454.0,0,0,0,40000
1381369,34127.0,40747.0,45321.0,39805.0,0,0,0,40000
1381379,34897.0,40243.0,45041.0,39819.0,0,0,0,40000
1381389,34470.0,38950.0,45186.0,41394.0,0,0,0,40000
1381399,34706.0,39164.0,45116.0,41014.0,0,0,0,40000
1381409,33703.0,39751.0,45119.0,41427.0,0,0,0,40000
1381419,34474.0,38880.0,46364.0,40282.0,0,0,0,40000
1381429,33696.0,39578.0,45486.0,41240.0,0,0,0,40000
1381439,33984.0,39518.0,46336.0,40162.0,0,0,0,40000
1381449,32887.0,40223.0,46243.0,40647.0,0,0,0,40000
1381459,34388.0,39154.0,46050.0,40408.0,0,0,0,40000
1381469,33209.0,38191.0,46115.0,42485.0,0,0,0,40000
1381479,34041.0,39063.0,45595.0,41301.0,0,0,0,40000
1381489,32649.0,40165.0,46407.0,40779.0,0,0,0,40000
1381499,34391.0,39857.0,45647.0,40105.0,0,0,0,40000
1381509,34185.0,39375.0,45259.0,41181.0,0,0,0,40000
1381519,33253.0,40157.0,46499.0,40091.0,0,0,0,40000
1381529,31488.0,41232.0,47810.0,39470.0,0,0,0,40000
1381539,33705.0,40367.0,46661.0,39267.0,0,0,0,40000
1381549,32668.0,41068.0,46660.0,39604.0,0,0,0,40000
1381559,33165.0,40685.0,47209.0,38941.0,0,0,0,40000
1381569,33219.0,41277.0,46137.0,39367.0,0,0,0,40000
1381579,33694.0,40478.0,46104.0,39724.0,0,0,0,40000
1381589,34533.0,39363.0,45297.0,40807.0,0,0,0,40000
1381599,33610.0,40104.0,45942.0,40344.0,0,0,0,40000
1381609,36221.0,39257.0,43261.0,41261.0,0,0,0,40000
1381619,35946.0,40514.0,44142.0,39398.0,0,0,0,40000
1381629,35643.0,40157.0,44279.0,39921.0,0,0,0,40000
1381639,35736.0,40542.0,44080.0,39642.0,0,0,0,40000
1381649,34937.0,39855.0,44595.0,40613.0,0,0,0,40000
1381659,34902.0,40176.0,45156.0,39766.0,0,0,0,40000
1381669,33710.0,40412.0,45868.0,40010.0,0,0,0,40000
1381679,34170.0,40574.0,45802.0,39454.0,0,0,0,40000
1381689,33331.0,40763.0,46091.0,39815.0,0,0,0,40000
1381699,33096.0,42628.0,46378.0,37898.0,0,0,0,40000
1381709,31739.0,42513.0,48191.0,37557.0,0,0,0,40000
1381719,32435.0,41977.0,47445.0,38143.0,0,0,0,40000
1381729,33929.0,41397.0,45879.0,38795.0,0,0,0,40000
1381739,33780.0,41852.0,46006.0,38362.0,0,0,0,40000
1381749,33333.0,41307.0,46519.0,38841.0,0,0,0,40000
1381759,34601.0,39963.0,45359.0,40077.0,0,0,0,40000
1381769,35582.0,39088.0,44058.0,41272.0,0,0,0,40000
1381779,35091.0,38257.0,44895.0,41757.0,0,0,0,40000
1381789,35124.0,39228.0,44320.0,41328.0,0,0,0,40000
1381799,35276.0,38054.0,44428.0,42242.0,0,0,0,40000
1381809,34474.0,38704.0,45188.0,41634.0,0,0,0,40000
1381819,33956.0,39566.0,45394.0,41084.0,0,0,0,40000
1381829,33124.0,39968.0,46502.0,40406.0,0,0,0,40000
1381839,33658.0,40244.0,46060.0,40038.0,0,0,0,40000
1381849,33728.0,40550.0,46260.0,39462.0,0,0,0,40000
1381859,32108.0,41996.0,47470.0,38426.0,0,0,0,40000
1381869,32056.0,42060.0,47340.0,38544.0,0,0,0,40000
1381879,33806.0,41376.0,46272.0,38546.0,0,0,0,40000
1381889,33357.0,40847.0,46573.0,39223.0,0,0,0,40000
1381899,32836.0,40420.0,46618.0,40126.0,0,0,0,40000
1381909,34810.0,40168.0,45164.0,39858.0,0,0,0,40000
1381919,35105.0,39533.0,44699.0,40663.0,0,0,0,40000
1381929,34798.0,39664.0,45206.0,40332.0,0,0,0,40000
1381939,34988.0,40732.0,44040.0,40240.0,0,0,0,40000
1381949,35368.0,39018.0,44670.0,40944.0,0,0,0,40000
1381959,34426.0,39866.0,45334.0,40374.0,0,0,0,40000
1381969,34583.0,40123.0,44813.0,40481.0,0,0,0,40000
1381979,34339.0,39407.0,45683.0,40571.0,0,0,0,40000
1381989,34831.0,39953.0,44403.0,40813.0,0,0,0,40000
1381999,34836.0,39496.0,45586.0,40082.0,0,0,0,40000
1382009,33922.0,38880.0,45406.0,41792.0,0,0,0,40000
1382019,33923.0,40199.0,45831.0,40047.0,0,0,0,40000
1382029,34820.0,39450.0,45156.0,40574.0,0,0,0,40000
1382039,33520.0,40540.0,45974.0,39966.0,0,0,0,40000
1382049,33939.0,39251.0,46487.0,40323.0,0,0,0,40000
1382059,34190.0,39480.0,45034.0,41296.0,0,0,0,40000
1382069,35885.0,38323.0,44101.0,41691.0,0,0,0,40000
1382079,34235.0,40135.0,45067.0,40563.0,0,0,0,40000
1382089,35061.0,39933.0,44529.0,40477.0,0,0,0,40000
1382099,34180.0,39212.0,45482.0,41126.0,0,0,0,40000
1382109,34499.0,39501.0,45313.0,40687.0,0,0,0,40000
1382119,33489.0,39433.0,45761.0,41317.0,0,0,0,40000
1382129,33425.0,38699.0,46695.0,41181.0,0,0,0,40000
1382139,32661.0,39397.0,46795.0,41147.0,0,0,0,40000
1382149,34280.0,39554.0,46004.0,40162.0,0,0,0,40000
1382159,33862.0,40266.0,45416.0,40456.0,0,0,0,40000
1382169,34006.0,39602.0,46092.0,40300.0,0,0,0,40000
1382179,32230.0,40400.0,47150.0,40220.0,0,0,0,40000
1382189,33198.0,39898.0,46692.0,40212.0,0,0,0,40000
1382199,32443.0,40023.0,46879.0,40655.0,0,0,0,40000
1382209,33569.0,39363.0,46639.0,40429.0,0,0,0,40000
1382219,32477.0,40107.0,46729.0,40687.0,0,0,0,40000
1382229,34256.0,39698.0,45698.0,40348.0,0,0,0,40000
1382239,33406.0,40076.0,46018.0,40500.0,0,0,0,40000
1382249,32740.0,41000.0,47436.0,38824.0,0,0,0,40000
1382259,33067.0,40865.0,46499.0,39569.0,0,0,0,40000
1382269,34835.0,40135.0,45535.0,39495.0,0,0,0,40000
1382279,33890.0,40010.0,45524.0,40576.0,0,0,0,40000
1382289,33604.0,40176.0,46504.0,39716.0,0,0,0,40000
1382299,33070.0,39842.0,46262.0,40826.0,0,0,0,40000
1382309,33506.0,40406.0,46398.0,39690.0,0,0,0,40000
1382319,33002.0,40648.0,46478.0,39872.0,0,0,0,40000
1382329,34644.0,40728.0,45530.0,39098.0,0,0,0,40000
1382339,34572.0,41902.0,44630.0,38896.0,0,0,0,40000
1382349,32641.0,40471.0,47683.0,39205.0,0,0,0,40000
1382359,31907.0,41127.0,47345.0,39621.0,0,0,0,40000
1382369,33221.0,41105.0,46833.0,38841.0,0,0,0,40000
1382379,32465.0,41193.0,47059.0,39283.0,0,0,0,40000
1382389,32087.0,40951.0,48053.0,38909.0,0,0,0,40000
1382399,32973.0,40489.0,46387.0,40151.0,0,0,0,40000
1382409,33136.0,39592.0,46874.0,40398.0,0,0,0,40000
1382419,32264.0,40832.0,47536.0,39368.0,0,0,0,40000
1382429,32518.0,39592.0,47330.0,40560.0,0,0,0,40000
1382439,34129.0,39179.0,45061.0,41631.0,0,0,0,40000
1382449,34196.0,37792.0,46010.0,42002.0,0,0,0,40000
1382459,33940.0,38302.0,45216.0,42542.0,0,0,0,40000
1382469,35410.0,38324.0,44526.0,41740.0,0,0,0,40000
1382479,33096.0,38712.0,45904.0,42288.0,0,0,0,40000
1382489,33980.0,38432.0,46350.0,41238.0,0,0,0,40000
1382499,33873.0,39445.0,45885.0,40797.0,0,0,0,40000
1382509,33363.0,40899.0,46049.0,39689.0,0,0,0,40000
1382519,32709.0,41893.0,46881.0,38517.0,0,0,0,40000
1382529,32221.0,40559.0,47707.0,39513.0,0,0,0,40000
1382539,32188.0,40802.0,47780.0,39230.0,0,0,0,40000
1382549,31838.0,41694.0,47646.0,38822.0,0,0,0,40000
1382559,32696.0,41766.0,46750.0,38788.0,0,0,0,40000
1382569,33189.0,40439.0,46701.0,39671.0,0,0,0,40000
1382579,33201.0,41275.0,46493.0,39031.0,0,0,0,40000
1382589,34013.0,40443.0,46337.0,39207.0,0,0,0,40000
1382599,34547.0,41175.0,44805.0,39473.0,0,0,0,40000
1382609,34585.0,40997.0,44993.0,39425.0,0,0,0,40000
1382619,34672.0,40928.0,45456.0,38944.0,0,0,0,40000
1382629,35024.0,40392.0,44854.0,39730.0,0,0,0,40000
1382639,34791.0,40745.0,44975.0,39489.0,0,0,0,40000
1382649,34010.0,41780.0,45236.0,38974.0,0,0,0,40000
1382659,35928.0,39842.0,44510.0,39720.0,0,0,0,40000
1382669,34650.0,40958.0,45026.0,39366.0,0,0,0,40000
1382679,33900.0,41434.0,45480.0,39186.0,0,0,0,40000
1382689,33604.0,43124.0,45882.0,37390.0,0,0,0,40000
1382699,34275.0,41425.0,45855.0,38445.0,0,0,0,40000
1382709,34148.0,40734.0,45740.0,39378.0,0,0,0,40000
1382719,34529.0,40307.0,45301.0,39863.0,0,0,0,40000
1382729,34472.0,40762.0,45362.0,39404.0,0,0,0,40000
1382739,35370.0,39850.0,44288.0,40492.0,0,0,0,40000
1382749,34823.0,39855.0,45251.0,40071.0,0,0,0,40000
1382759,33509.0,41263.0,45737.0,39491.0,0,0,0,40000
1382769,32974.0,40648.0,46842.0,39536.0,0,0,0,40000
1382779,32937.0,40971.0,46309.0,39783.0,0,0,0,40000
1382789,33151.0,41319.0,46593.0,38937.0,0,0,0,40000
1382799,32205.0,41841.0,47115.0,38839.0,0,0,0,40000
1382809,32651.0,40887.0,47207.0,39255.0,0,0,0,40000
1382819,33702.0,40626.0,46398.0,39274.0,0,0,0,40000
1382829,33694.0,39812.0,46060.0,40434.0,0,0,0,40000
1382839,33785.0,40157.0,45481.0,40577.0,0,0,0,40000
1382849,35087.0,38355.0,45323.0,41235.0,0,0,0,40000
1382859,34700.0,39220.0,44858.0,41222.0,0,0,0,40000
1382869,33874.0,39412.0,46058.0,40656.0,0,0,0,40000
1382879,33523.0,40799.0,45793.0,39885.0,0,0,0,40000
1382889,33652.0,39874.0,46360.0,40114.0,0,0,0,40000
1382899,32619.0,40297.0,46683.0,40401.0,0,0,0,40000
1382909,32187.0,40977.0,47435.0,39401.0,0,0,0,40000
1382919,32817.0,40821.0,46477.0,39885.0,0,0,0,40000
1382929,32375.0,41045.0,47253.0,39327.0,0,0,0,40000
1382939,31609.0,40433.0,48345.0,39613.0,0,0,0,40000
1382949,32197.0,40657.0,47547.0,39599.0,0,0,0,40000
1382959,33522.0,39504.0,46482.0,40492.0,0,0,0,40000
1382969,32474.0,40554.0,46724.0,40248.0,0,0,0,40000
1382979,33738.0,40458.0,46938.0,38866.0,0,0,0,40000
1382989,33118.0,39772.0,46150.0,40960.0,0,0,0,40000
1382999,33802.0,39064.0,46384.0,40750.0,0,0,0,40000
1383009,34022.0,40116.0,44878.0,40984.0,0,0,0,40000
1383019,34689.0,38343.0,45387.0,41581.0,0,0,0,40000
1383029,33888.0,40404.0,45270.0,40438.0,0,0,0,40000
1383039,33420.0,40248.0,46506.0,39826.0,0,0,0,40000
1383049,33307.0,40293.0,46111.0,40289.0,0,0,0,40000
1383059,32889.0,39949.0,47315.0,39847.0,0,0,0,40000
1383069,32196.0,42038.0,47524.0,38242.0,0,0,0,40000
1383079,33870.0,40666.0,46210.0,39254.0,0,0,0,40000
1383089,32685.0,40543.0,47137.0,39635.0,0,0,0,40000
1383099,32142.0,41534.0,47444.0,38880.0,0,0,0,40000
1383109,32481.0,40769.0,47349.0,39401.0,0,0,0,40000
1383119,34123.0,40081.0,45665.0,40131.0,0,0,0,40000
1383129,32250.0,42310.0,46540.0,38900.0,0,0,0,40000
1383139,34209.0,40167.0,45863.0,39761.0,0,0,0,40000
1383149,34572.0,39158.0,44556.0,41714.0,0,0,0,40000
1383159,35293.0,38855.0,45107.0,40745.0,0,0,0,40000
1383169,34453.0,39411.0,44605.0,41531.0,0,0,0,40000
1383179,35036.0,38382.0,45452.0,41130.0,0,0,0,40000
1383189,35943.0,38671.0,43513.0,41873.0,0,0,0,40000
1383199,35648.0,39366.0,44774.0,40212.0,0,0,0,40000
1383209,34490.0,40334.0,44546.0,40630.0,0,0,0,40000
1383219,35540.0,39046.0,44822.0,40592.0,0,0,0,40000
1383229,34784.0,39668.0,44440.0,41108.0,0,0,0,40000
1383239,33588.0,40728.0,46258.0,39426.0,0,0,0,40000
1383249,34160.0,40384.0,45436.0,40020.0,0,0,0,40000
1383259,34385.0,41321.0,45319.0,38975.0,0,0,0,40000
1383269,33448.0,41672.0,46142.0,38738.0,0,0,0,40000
1383279,33064.0,40924.0,46702.0,39310.0,0,0,0,40000
1383289,32353.0,41579.0,47211.0,38857.0,0,0,0,40000
1383299,34116.0,40002.0,46186.0,39696.0,0,0,0,40000
1383309,35034.0,40256.0,44606.0,40104.0,0,0,0,40000
1383319,34005.0,40721.0,46251.0,39023.0,0,0,0,40000
1383329,34611.0,41249.0,44677.0,39463.0,0,0,0,40000
1383339,35040.0,38448.0,44994.0,41518.0,0,0,0,40000
1383349,34584.0,40122.0,44580.0,40714.0,0,0,0,40000
1383359,35156.0,39418.0,44952.0,40474.0,0,0,0,40000
1383369,34475.0,40939.0,44467.0,40119.0,0,0,0,40000
1383379,34850.0,40568.0,45212.0,39370.0,0,0,0,40000
1383389,33692.0,41142.0,45742.0,39424.0,0,0,0,40000
1383399,20455.0,26779.0,59605.0,53161.0,19.99999989926288,0.0020073576682769685,0,40000
1383409,17559.0,29675.0,62099.0,50667.0,19.98946147747745,0.6491762784058696,0,40000
1383419,20492.0,26742.0,59764.0,53002.0,19.957296281166514,1.3062638116924479,0,40000
1383429,18895.0,28339.0,60565.0,52201.0,19.904656812496675,1.9505479170555386,0,40000
1383439,18715.0,29071.0,61291.0,50923.0,19.829574402951728,2.6053750205683675,0,40000
1383449,18955.0,30823.0,60389.0,49833.0,19.735277843881125,3.243271253659603,0,40000
1383459,21174.0,30708.0,58754.0,49364.0,19.621357463575972,3.8732843023165113,0,40000
1383469,22041.0,33837.0,57553.0,46569.0,19.48671010095365,4.502013931718886,0,40000
1383479,24362.0,34756.0,55596.0,45286.0,19.32721017878325,5.143826076485974,0,40000
1383489,26444.0,35866.0,53432.0,44258.0,19.15239957438616,5.760693581770591,0,40000
1383499,28534.0,37820.0,51314.0,42332.0,18.954968777579932,6.380372923346248,0,40000
1383509,32282.0,41110.0,48140.0,38468.0,18.739132987757582,6.988912280686858,0,40000
1383519,33027.0,41299.0,47355.0,38319.0,18.49366431727061,7.614747541456101,0,40000
1383529,36109.0,43213.0,44609.0,36069.0,18.238407873766803,8.207342945809021,0,40000
1383539,36484.0,43742.0,44316.0,35458.0,17.959260128223722,8.801418956440699,0,40000
1383549,41684.0,46732.0,39176.0,32408.0,17.666683988677722,9.374874764187421,0,40000
1383559,40482.0,48642.0,41046.0,29830.0,17.35215404279828,9.944986177717865,0,40000
1383569,44254.0,49686.0,37216.0,28844.0,17.023314955094705,10.49794017603687,0,40000
1383579,41607.0,48987.0,39987.0,29419.0,16.675149366478173,11.042617153811069,0,40000
1383589,44278.0,49936.0,37224.0,28562.0,16.30984885547793,11.575354435673457,0,40000
1383599,44420.0,50320.0,37298.0,27962.0,15.929709155182248,12.09315369253624,0,40000
1383609,46073.0,52317.0,36233.0,25377.0,15.929709155182248,12.09315369253624,0,40000
1383619,43441.0,51925.0,38629.0,26005.0,15.531834762001466,12.600083687257115,0,40000
1383629,45048.0,50678.0,37428.0,26846.0,14.691006939220587,13.57108378545253,0,40000
1383639,42037.0,51229.0,39765.0,26969.0,14.691006939220587,13.57108378545253,0,40000
1383649,43538.0,50480.0,38616.0,27366.0,14.238178520033205,14.045436000055858,0,40000
1383659,43381.0,53499.0,37603.0,25517.0,13.761097930746406,14.513172766159954,0,40000
1383669,42560.0,52420.0,38462.0,26558.0,13.287346407278717,14.948124479444814,0,40000
1383679,40377.0,51509.0,40635.0,27479.0,12.794478771352434,15.37209526933176,0,40000
1383689,41342.0,49282.0,39030.0,30346.0,12.29070343691339,15.777788470690224,0,40000
1383699,38685.0,48169.0,40693.0,32453.0,11.768622895626343,16.170946637118664,0,40000
1383709,37557.0,40963.0,41949.0,39531.0,11.238064803292536,16.5440593409537,0,40000
1383719,35652.0,43116.0,42428.0,38804.0,10.701901372719199,16.89583697271582,0,40000
1383729,35382.0,41006.0,42566.0,41046.0,10.133175436217812,17.24293349690916,0,40000
1383739,33500.0,42068.0,43688.0,40744.0,9.547794009782256,17.57383366106457,0,40000
1383749,33823.0,38563.0,42669.0,44945.0,8.97678184904774,17.8722518904196,0,40000
1383759,31304.0,40120.0,44718.0,43858.0,8.398438840350162,18.151204506723456,0,40000
1383769,29225.0,38705.0,46331.0,45739.0,7.808184577351177,18.412828506397794,0,40000
1383779,28227.0,40063.0,46375.0,45335.0,7.199494024821655,18.659241297184547,0,40000
1383789,27417.0,37023.0,47217.0,48343.0,6.58729963391878,18.884053683808823,0,40000
1383799,26038.0,39184.0,47900.0,46878.0,5.974606063187235,19.086751488656375,0,40000
1383809,25591.0,38283.0,48193.0,47933.0,5.342498551778007,19.273238161353422,0,40000
1383819,26606.0,40876.0,46978.0,45540.0,4.71226264351422,19.436938564973147,0,40000
1383829,24294.0,37842.0,49274.0,48590.0,4.083895101687837,19.578605690865988,0,40000
1383839,25174.0,38944.0,48170.0,47712.0,3.450981516049241,19.700018441003714,0,40000
1383849,24626.0,38048.0,48732.0,48594.0,2.8147072385542176,19.800945006772544,0,40000
1383859,25803.0,40573.0,48123.0,45501.0,2.1754231348792463,19.88133632792907,0,40000
1383869,26077.0,38991.0,47559.0,47373.0,1.531610924465583,19.941267963097474,0,40000
1383879,26751.0,37929.0,46925.0,48395.0,1.531610924465583,19.941267963097474,0,40000
1383889,27984.0,37478.0,46110.0,48232.0,0.8903283292866894,19.980173058961967,0,40000
1383899,30715.0,40613.0,43847.0,44825.0,-0.4095472389675612,19.995806336806076,0,40000
1383909,32282.0,42588.0,42532.0,42598.0,-1.0547813479270078,19.972166540164473,0,40000
1383919,33988.0,41362.0,41114.0,43536.0,-1.0547813479270078,19.972166540164473,0,40000
1383929,34007.0,44013.0,41311.0,40669.0,-1.6980056521510842,19.92778905963386,0,40000
1383939,34883.0,41889.0,40591.0,42637.0,-2.335924406393905,19.863118012225907,0,40000
1383949,34815.0,44943.0,41153.0,39089.0,-2.972805164989996,19.777826712028013,0,40000
1383959,35781.0,43807.0,40565.0,39847.0,-3.607029877744922,19.672044516548233,0,40000
1383969,35719.0,46053.0,40675.0,37553.0,-4.2399274037549795,19.545409067371487,0,40000
1383979,36575.0,45237.0,40033.0,38155.0,-4.864747521848991,19.399335853287972,0,40000
1383989,33106.0,44196.0,44050.0,38648.0,-5.498849385970118,19.229213593655253,0,40000
1383999,33481.0,44437.0,43697.0,38385.0,-6.113520105038859,19.04271177971472,0,40000
1384009,34627.0,46205.0,42245.0,36923.0,-6.720967598516085,18.836894503598437,0,40000
1384019,32777.0,45375.0,44571.0,37277.0,-7.325044099517535,18.610312435317237,0,40000
1384029,35224.0,45790.0,41778.0,37208.0,-7.921305443053521,18.364447175938913,0,40000
1384039,34982.0,43466.0,42782.0,38770.0,-8.514304090407547,18.097144135362058,0,40000
1384049,35175.0,45977.0,41267.0,37581.0,-9.092626610530807,17.813594284182713,0,40000
1384059,35597.0,45999.0,41579.0,36825.0,-9.658633029126598,17.513160994197044,0,40000
1384069,36443.0,45077.0,39993.0,38487.0,-10.2156644549091,17.194190872056375,0,40000
1384079,33660.0,44520.0,42990.0,38830.0,-10.76344833049048,16.856695406777146,0,40000
1384089,34381.0,45157.0,41159.0,39303.0,-11.300710828908693,16.501331302697544,0,40000
1384099,34189.0,42095.0,42603.0,41113.0,-11.824643889956562,16.130027801455054,0,40000
1384109,35803.0,44783.0,39285.0,40129.0,-12.335879545087787,15.742492682198863,0,40000
1384119,35599.0,42365.0,40093.0,41943.0,-12.836261404542217,15.3372224719556,0,40000
1384129,34251.0,44007.0,40369.0,41373.0,-13.323963285343712,14.915495377989052,0,40000
1384139,31627.0,41011.0,43257.0,44105.0,-13.800192752143875,14.476003592279039,0,40000
1384149,31575.0,42355.0,43037.0,43033.0,-14.261209158460758,14.022050967623636,0,40000
1384159,31091.0,42057.0,42889.0,43963.0,-14.704925159642372,13.556001477180384,0,40000
1384169,32302.0,43608.0,41574.0,42516.0,-15.134652383595968,13.074490323821914,0,40000
1384179,30328.0,41922.0,43776.0,43974.0,-15.546537449857317,12.581938376902981,0,40000
1384189,30159.0,43139.0,43209.0,43493.0,-15.947996998029378,12.069026131003524,0,40000
1384199,27974.0,40722.0,46296.0,45008.0,-16.32858087557609,11.548915385860731,0,40000
1384209,29275.0,43783.0,44245.0,42697.0,-16.69220093258271,11.016824770608126,0,40000
1384219,27724.0,40232.0,46702.0,45342.0,-17.05512127673581,10.446187736960958,0,40000
1384229,33934.0,41244.0,40024.0,44798.0,-17.382375711332287,9.892068268571816,0,40000
1384239,27818.0,39992.0,46848.0,45342.0,-17.690333459682357,9.330171599989082,0,40000
1384249,31098.0,38834.0,43512.0,46556.0,-17.690333459682357,9.330171599989082,0,40000
1384259,29067.0,38077.0,46121.0,46735.0,-17.982193056027853,8.754469309772217,0,40000
1384269,32257.0,39945.0,42645.0,45153.0,-18.258760879916707,8.161963681003684,0,40000
1384279,30521.0,38949.0,44743.0,45787.0,-18.511136659420522,7.572174032354093,0,40000
1384289,34424.0,38736.0,41026.0,45814.0,-18.74518260647066,6.972670152105992,0,40000
1384299,33234.0,37634.0,42856.0,46276.0,-18.96140119198276,6.361231393108944,0,40000
1384309,34970.0,39538.0,41268.0,44224.0,-19.15618816790172,5.748082713039381,0,40000
1384319,33588.0,39242.0,43136.0,44034.0,-19.33423114203334,5.117372973159984,0,40000
1384329,37087.0,39323.0,39493.0,44097.0,-19.491695504586655,4.480380157584442,0,40000
1384339,31197.0,40319.0,45949.0,42535.0,-19.627678815084792,3.841122795729362,0,40000
1384349,33391.0,39849.0,44575.0,42185.0,-19.7410233057991,3.208114530358398,0,40000
1384359,31132.0,40588.0,46536.0,41744.0,-19.83386189262298,2.5725322980203815,0,40000
1384369,32937.0,41553.0,45189.0,40321.0,-19.906293356999992,1.933774750341405,0,40000
1384379,34222.0,42044.0,43732.0,40002.0,-19.958167473680657,1.2928847947576205,0,40000
1384389,34936.0,41814.0,44272.0,38978.0,-19.989474601928016,0.6487720238071284,0,40000
1384399,33517.0,40493.0,45393.0,40597.0,-19.999998517802183,-0.007699864311481197,0,40000
1384409,35416.0,41094.0,43298.0,40192.0,-19.989117372216196,-0.6596868042977909,0,40000
1384419,33488.0,42490.0,45068.0,38954.0,-19.956972796235615,-1.3111967092361163,0,40000
1384429,34827.0,42255.0,44353.0,38565.0,-19.903112201486593,-1.9662463464773536,0,40000
1384439,34381.0,42757.0,44715.0,38147.0,-19.828591409990004,-2.612845708355278,0,40000
1384449,35441.0,41183.0,43971.0,39405.0,-19.73424441026796,-3.2495534394448504,0,40000
1384459,33730.0,42286.0,45124.0,38860.0,-19.619219239916273,-3.884100464212935,0,40000
1384469,34645.0,43125.0,44955.0,37275.0,-19.482709905686352,-4.519293609721645,0,40000
1384479,33576.0,42946.0,45302.0,38176.0,-19.32781878552929,-5.141538776839195,0,40000
1384489,34118.0,40754.0,45736.0,39392.0,-19.15237368514994,-5.760779654211406,0,40000
1384499,33178.0,41856.0,45628.0,39338.0,-18.95662644652227,-6.375446162192287,0,40000
1384509,35021.0,40561.0,45235.0,39183.0,-18.741989617893207,-6.981248109241159,0,40000
1384519,33361.0,40697.0,45713.0,40229.0,-18.508310882640934,-7.579078325991571,0,40000
1384529,34645.0,40399.0,44791.0,40165.0,-18.255323517187684,-8.169648908173123,0,40000
1384539,33445.0,40391.0,45581.0,40583.0,-17.977593965892243,-8.763909812265,0,40000
1384549,35057.0,39573.0,44735.0,40635.0,-17.686628198130414,-9.337193528094947,0,40000
1384559,33775.0,39541.0,45497.0,41187.0,-17.369595018742206,-9.914492870786985,0,40000
1384569,34089.0,38967.0,45433.0,41511.0,-17.369595018742206,-9.914492870786985,0,40000
1384579,33506.0,38974.0,45980.0,41540.0,-16.678448780868706,-11.03763318216089,0,40000
1384589,34353.0,39265.0,44889.0,41493.0,-16.678448780868706,-11.03763318216089,0,40000
1384599,33242.0,37542.0,46402.0,42814.0,-16.309510714495158,-11.575830866670767,0,40000
1384609,33656.0,36786.0,45914.0,43644.0,-15.92529687769539,-12.098963565416067,0,40000
1384619,31791.0,37319.0,47717.0,43173.0,-15.52939956093985,-12.60308491111129,0,40000
1384629,33274.0,36274.0,46138.0,44314.0,-15.105785086804653,-13.107831892089179,0,40000
1384639,32113.0,37225.0,47817.0,42845.0,-14.670803136696996,-13.592922251093825,0,40000
1384649,32991.0,36359.0,46349.0,44301.0,-14.227885916831864,-14.055862205415131,0,40000
1384659,32097.0,38843.0,47007.0,42053.0,-13.766662650746166,-14.507894384112067,0,40000
1384669,33870.0,40064.0,45256.0,40810.0,-13.289495970098166,-14.946213462303575,0,40000
1384679,31681.0,40755.0,47263.0,40301.0,-12.7970922452066,-15.369919650657682,0,40000
1384689,34123.0,39241.0,44997.0,41639.0,-12.297131291671937,-15.772779146218427,0,40000
1384699,33295.0,39403.0,45799.0,41503.0,-11.785210501524027,-16.158861761732098,0,40000
1384709,33287.0,39113.0,45437.0,42163.0,-11.255159388354405,-16.532434398561445,0,40000
1384719,34136.0,39446.0,44414.0,42004.0,-10.704609452177479,-16.894121358518547,0,40000
1384729,34242.0,38080.0,44510.0,43168.0,-10.139671062275948,-17.23911455814491,0,40000
1384739,33151.0,40455.0,45067.0,41327.0,-9.581973510848469,-17.555220979452187,0,40000
1384749,33783.0,38775.0,44355.0,43087.0,-8.994835743641277,-17.863172449061594,0,40000
1384759,33056.0,41274.0,44780.0,40890.0,-8.412045581333242,-18.144902566218754,0,40000
1384769,32568.0,41194.0,45242.0,40996.0,-7.8220152143816986,-18.40695732558701,0,40000
1384779,32414.0,42760.0,45202.0,39624.0,-7.2252170505136215,-18.64929592700398,0,40000
1384789,31412.0,41142.0,46246.0,41200.0,-6.6125273936977464,-18.87523460695514,0,40000
1384799,31229.0,43791.0,46039.0,38941.0,-6.001462781822198,-19.07832394311416,0,40000
1384809,32423.0,40703.0,44417.0,42457.0,-5.362446136091345,-19.267697616412786,0,40000
1384819,32017.0,43523.0,45273.0,39187.0,-4.740515780079598,-19.430067167635226,0,40000
1384829,31007.0,41935.0,45759.0,41299.0,-4.11314650986085,-19.572481339585423,0,40000
1384839,32269.0,43103.0,44185.0,40443.0,-3.47753843486809,-19.695347837345125,0,40000
1384849,31287.0,41149.0,45207.0,42357.0,-2.8422756760735455,-19.79700656617562,0,40000
1384859,32015.0,43229.0,44147.0,40609.0,-2.1706280407344205,-19.88186042373242,0,40000
1384869,33006.0,40074.0,43280.0,43640.0,-2.1706280407344205,-19.88186042373242,0,40000
1384879,31464.0,43098.0,43850.0,41588.0,-0.8874998540153207,-19.980298896891476,0,40000
1384889,32229.0,40489.0,43401.0,43881.0,-0.8874998540153207,-19.980298896891476,0,40000
1384899,33510.0,42004.0,42108.0,42378.0,-0.23164988764121128,-19.99865841324252,0,40000
1384909,28893.0,38953.0,46497.0,45657.0,0.4120034868346224,-19.995755877856585,0,40000
1384919,30788.0,39342.0,44468.0,45402.0,1.0635025968025071,-19.97170403912982,0,40000
1384929,28263.0,39073.0,46771.0,45893.0,1.7046477140913865,-19.927221988296388,0,40000
1384939,28708.0,41946.0,46036.0,43310.0,2.3444788983808413,-19.86211012694892,0,40000
1384949,29472.0,39354.0,45768.0,45406.0,2.9776640246571615,-19.77709576647346,0,40000
1384959,28296.0,41768.0,46754.0,43182.0,3.611553316167276,-19.671214569631463,0,40000
1384969,31912.0,42226.0,42696.0,43166.0,4.267665518190209,-19.53937130577262,0,40000
1384979,31895.0,43399.0,42669.0,42037.0,4.905596116342053,-19.389046566124126,0,40000
1384989,31833.0,42691.0,43073.0,42403.0,5.542418555168367,-19.21670098011949,0,40000
1384999,31002.0,45578.0,43588.0,39832.0,6.157619919106977,-19.028497495383522,0,40000
1385009,29785.0,44073.0,44655.0,41487.0,6.763912286418009,-18.82151669185147,0,40000
1385019,31038.0,46170.0,43430.0,39362.0,7.36858457381331,-18.593115967436994,0,40000
1385029,30541.0,43169.0,43787.0,42503.0,7.964213830073911,-18.345879593763268,0,40000
1385039,31831.0,43423.0,42925.0,41821.0,8.557330687247529,-18.0768385374515,0,40000
1385049,31163.0,42357.0,43083.0,43397.0,9.133511109502468,-17.79266632106034,0,40000
1385059,33061.0,44173.0,40821.0,41945.0,9.7051008313248,-17.487453155157233,0,40000
1385069,31482.0,43130.0,43366.0,42022.0,10.26304488443068,-17.165952047590057,0,40000
1385079,33351.0,43447.0,40549.0,42653.0,10.808257387640749,-16.827999650656913,0,40000
1385089,31803.0,41115.0,43069.0,44013.0,11.344745259972251,-16.471088457850534,0,40000
1385099,33043.0,41869.0,40651.0,44437.0,11.887221840431739,-16.083965832976723,0,40000
1385109,32643.0,41647.0,42273.0,43437.0,12.398064742358612,-15.69356526237057,0,40000
1385119,33792.0,43798.0,41124.0,41286.0,12.89598057714919,-15.287043041536544,0,40000
1385129,31851.0,42317.0,43041.0,42791.0,13.378927594666907,-14.866213250746148,0,40000
1385139,30710.0,42928.0,43892.0,42470.0,13.846344882122171,-14.431865208812379,0,40000
1385149,31154.0,42812.0,43798.0,42236.0,14.305103346406426,-13.977267910741055,0,40000
1385159,32436.0,44422.0,42650.0,40492.0,14.749440279275198,-13.50755386619259,0,40000
1385169,30944.0,44020.0,44018.0,41018.0,15.185802140001726,-13.015045653577975,0,40000
1385179,31915.0,42471.0,43041.0,42573.0,15.596212232073007,-12.52031006054308,0,40000
1385189,29189.0,41965.0,46029.0,42817.0,15.990565432289607,-12.012569132190862,0,40000
1385199,32202.0,42036.0,43000.0,42762.0,16.369514729184928,-11.49082188231102,0,40000
1385209,32096.0,43940.0,43424.0,40540.0,16.369514729184928,-11.49082188231102,0,40000
1385219,33130.0,43050.0,41812.0,42008.0,16.73422042859812,-10.952893072019343,0,40000
1385229,32170.0,41112.0,44136.0,42582.0,17.405843679985146,-9.850716003820292,0,40000
1385239,32238.0,40112.0,43444.0,44206.0,17.405843679985146,-9.850716003820292,0,40000
1385249,31839.0,40599.0,44183.0,43379.0,17.71656061830854,-9.280273695198806,0,40000
1385259,30499.0,42291.0,45437.0,41773.0,18.007637314498304,-8.702011166936543,0,40000
1385269,29741.0,43009.0,46543.0,40707.0,18.27891586484825,-8.116725620950785,0,40000
1385279,31574.0,42642.0,44664.0,41120.0,18.53381902381476,-7.516485374992894,0,40000
1385289,28204.0,42686.0,48028.0,41082.0,18.77266308941183,-6.898341868263324,0,40000
1385299,29672.0,42904.0,46362.0,41062.0,18.988452668704365,-6.280021118465612,0,40000
1385309,32471.0,41101.0,44371.0,42057.0,19.18103377228072,-5.664622090362822,0,40000
1385319,33351.0,43469.0,43061.0,40119.0,19.35436335640639,-5.0406962880333825,0,40000
1385329,32203.0,42495.0,44593.0,40709.0,19.50646789912667,-4.415621145472163,0,40000
1385339,34277.0,41647.0,42805.0,41271.0,19.638452715880167,-3.7856538307324032,0,40000
1385349,31662.0,42512.0,45330.0,40496.0,19.750949542376855,-3.1464253009540037,0,40000
1385359,34138.0,40986.0,42842.0,42034.0,19.843025714961616,-2.5008659451022144,0,40000
1385369,33432.0,41434.0,43800.0,41334.0,19.914221082877887,-1.850350956511201,0,40000
1385379,35685.0,41321.0,41609.0,41385.0,19.963808678123677,-1.2026400389450407,0,40000
1385389,34431.0,41083.0,42879.0,41607.0,19.992502479586392,-0.5475806823948034,0,40000
1385399,35557.0,41049.0,42211.0,41183.0,19.99969642760383,0.11019439046844444,0,40000
1385409,34274.0,40330.0,42976.0,42420.0,19.985803365901617,0.7534346816517521,0,40000
1385419,36367.0,40221.0,41635.0,41777.0,19.950384260090765,1.4078948379487213,0,40000
1385429,34256.0,41766.0,43496.0,40482.0,19.89481254859315,2.04851986964746,0,40000
1385439,36018.0,40340.0,41836.0,41806.0,19.81868721484707,2.6869382352516507,0,40000
1385449,34743.0,41827.0,43159.0,40271.0,19.722085579157206,3.322550286812746,0,40000
1385459,37584.0,40262.0,40988.0,41166.0,19.60456510171557,3.957401568276346,0,40000
1385469,35358.0,41530.0,42940.0,40172.0,19.466088430015407,4.590359597550102,0,40000
1385479,36444.0,39622.0,42166.0,41768.0,19.307865393143587,5.215969129533672,0,40000
1385489,35174.0,40762.0,43436.0,40628.0,19.12790617716003,5.841507106711699,0,40000
1385499,36600.0,41592.0,41958.0,39850.0,18.929640735432343,6.455129869139773,0,40000
1385509,35788.0,40016.0,43190.0,41006.0,18.929640735432343,6.455129869139773,0,40000
1385519,37183.0,40343.0,40975.0,41499.0,18.706782701274967,7.075046357959762,0,40000
1385529,36194.0,40788.0,42998.0,40020.0,18.469255835931353,7.6737597608288235,0,40000
1385539,36696.0,40732.0,42096.0,40476.0,18.21203421917158,8.265700793019516,0,40000
1385549,35210.0,41130.0,43798.0,39862.0,17.936860693932587,8.846978492482965,0,40000
1385559,35311.0,40539.0,43169.0,40981.0,17.643415404133574,9.418592935103531,0,40000
1385569,35147.0,42207.0,44303.0,38343.0,17.329778407289556,9.983926099197685,0,40000
1385579,36210.0,39976.0,42442.0,41372.0,16.998704035029363,10.537744594052205,0,40000
1385589,35967.0,41771.0,42781.0,39481.0,16.652310473239986,11.07702829746417,0,40000
1385599,36407.0,43465.0,42661.0,37467.0,16.280944110174072,11.61597429755198,0,40000
1385609,35027.0,45541.0,43595.0,35837.0,15.889176434955758,12.146360451544595,0,40000
1385619,37740.0,43656.0,41068.0,37536.0,15.49065128150773,12.650680727720658,0,40000
1385629,36334.0,45260.0,42230.0,36176.0,15.07671638074946,13.141256529511969,0,40000
1385639,37035.0,38885.0,41945.0,42135.0,14.641712237049289,13.624252741616367,0,40000
1385649,33963.0,42259.0,44237.0,39541.0,14.184960194784367,14.099180978779692,0,40000
1385659,35887.0,41455.0,43015.0,39643.0,13.726207239334178,14.546175951873055,0,40000
1385669,34837.0,43115.0,43349.0,38699.0,13.249987588090024,14.981249244153851,0,40000
1385679,36340.0,41470.0,42342.0,39848.0,12.758820392060441,15.401704522654065,0,40000
1385689,33757.0,43189.0,44281.0,38773.0,12.256367378106605,15.80447590693485,0,40000
1385699,34139.0,41815.0,43903.0,40143.0,11.73164980575921,16.19778975153801,0,40000
1385709,35221.0,41885.0,42709.0,40185.0,11.205440353452236,16.566173561967297,0,40000
1385719,34463.0,42717.0,43545.0,39275.0,10.657951664097855,16.923594958688707,0,40000
1385729,34444.0,41844.0,43474.0,40238.0,10.100145636072078,17.26230164636611,0,40000
1385739,33515.0,43059.0,43687.0,39739.0,9.539592391390666,17.578287089649017,0,40000
1385749,33708.0,42320.0,43490.0,40482.0,8.970074546650702,17.875619223610947,0,40000
1385759,33218.0,42500.0,43866.0,40416.0,8.390131106177915,18.15504613106631,0,40000
1385769,33993.0,41363.0,42785.0,41859.0,7.800405493264391,18.416125383496137,0,40000
1385779,34317.0,42267.0,42327.0,41089.0,7.205950521350396,18.65674883477424,0,40000
1385789,34366.0,40642.0,42486.0,42506.0,6.603124926141289,18.878525927883555,0,40000
1385799,34836.0,41908.0,41400.0,41856.0,5.98968673489466,19.08202433752318,0,40000
1385809,34588.0,40972.0,41264.0,43176.0,5.3699791132782115,19.2655995059317,0,40000
1385819,34017.0,42181.0,42147.0,41655.0,4.745521990004457,19.428845077419915,0,40000
1385829,31805.0,40917.0,43639.0,43639.0,4.119464782854471,19.571152492963254,0,40000
1385839,32887.0,43937.0,42837.0,40339.0,4.119464782854471,19.571152492963254,0,40000
1385849,33040.0,42554.0,42028.0,42378.0,2.853070208938799,19.79545378067565,0,40000
1385859,33740.0,42486.0,41914.0,41860.0,2.215327678161854,19.876929422784848,0,40000
1385869,32198.0,42620.0,42780.0,42402.0,2.215327678161854,19.876929422784848,0,40000
1385879,35037.0,46121.0,39601.0,39241.0,1.5696209767729863,19.938312114852504,0,40000
1385889,36113.0,44709.0,38731.0,40447.0,0.27600291858273585,19.99809546904239,0,40000
1385899,35545.0,45105.0,39577.0,39773.0,0.27600291858273585,19.99809546904239,0,40000
1385909,35335.0,44475.0,39073.0,41117.0,-0.3819589660127254,19.996352351073494,0,40000
1385919,36095.0,45805.0,38407.0,39693.0,-1.024068396029866,19.973764890982693,0,40000
1385929,35586.0,43546.0,38800.0,42068.0,-1.6653448737744878,19.930545061573028,0,40000
1385939,35471.0,46461.0,38967.0,39101.0,-2.3038300550258723,19.866866060794777,0,40000
1385949,35975.0,43921.0,38277.0,41827.0,-2.9459004348762767,19.78185205252015,0,40000
1385959,32559.0,43917.0,41451.0,42073.0,-3.592765801449821,19.674654606776013,0,40000
1385969,30486.0,43098.0,43084.0,43332.0,-4.249955098745142,19.543231095667117,0,40000
1385979,32078.0,43680.0,42522.0,41720.0,-4.877097354036206,19.39623472221485,0,40000
1385989,30599.0,42401.0,43239.0,43761.0,-5.500505704965704,19.22873987003932,0,40000
1385999,31538.0,44516.0,42430.0,41516.0,-6.114661154766635,19.042345416528605,0,40000
1386009,29899.0,42903.0,43855.0,43343.0,-6.7309135756396055,18.833342837565255,0,40000
1386019,30695.0,45149.0,43431.0,40725.0,-7.342437249937265,18.603457077401867,0,40000
1386029,29593.0,43877.0,44637.0,41893.0,-7.9358559866511005,18.358164117338475,0,40000
1386039,31526.0,43980.0,42316.0,42178.0,-8.524252184425746,18.092460437881655,0,40000
1386049,30605.0,43617.0,42915.0,42863.0,-9.101324922323585,17.80915171080003,0,40000
1386059,31102.0,43298.0,43190.0,42410.0,-9.67165613690441,17.50597234001811,0,40000
1386069,31836.0,41804.0,42192.0,44168.0,-10.229467116698508,17.185982733273764,0,40000
1386079,32072.0,43416.0,41670.0,42842.0,-10.774089819368474,16.849895802769243,0,40000
1386089,31704.0,42276.0,42382.0,43638.0,-11.308224372115319,16.496183241886506,0,40000
1386099,33966.0,40922.0,40406.0,44706.0,-11.833824002937273,16.12329400176979,0,40000
1386109,32578.0,41358.0,41510.0,44554.0,-12.346170754190982,15.734423017967938,0,40000
1386119,33021.0,42223.0,40881.0,43875.0,-12.84645972662539,15.3286813683432,0,40000
1386129,31728.0,41822.0,42590.0,43860.0,-13.342487202018436,14.89892731923927,0,40000
1386139,32230.0,42444.0,41890.0,43436.0,-13.812732607332489,14.464038783076248,0,40000
1386149,30108.0,42436.0,44374.0,43082.0,-14.270060102265889,14.013043376715824,0,40000
1386159,31494.0,44418.0,42368.0,41720.0,-14.713228073025276,13.54698932128984,0,40000
1386169,30465.0,42601.0,44425.0,42509.0,-15.141505386942498,13.066553279927774,0,40000
1386179,30795.0,44635.0,43301.0,41269.0,-15.56387233745387,12.560488758939208,0,40000
1386189,30570.0,43242.0,44094.0,42094.0,-15.56387233745387,12.560488758939208,0,40000
1386199,35040.0,43644.0,40072.0,41244.0,-15.977230176013023,12.030299909091992,0,40000
1386209,30124.0,44076.0,44170.0,41630.0,-16.356301115371053,11.509622662073317,0,40000
1386219,33071.0,42139.0,42347.0,42443.0,-16.71656863926209,10.979814794833251,0,40000
1386229,33197.0,40417.0,41617.0,44769.0,-17.059110446422338,10.439671966913721,0,40000
1386239,34570.0,42014.0,40840.0,42576.0,-17.389017928069823,9.880387416355001,0,40000
1386249,33123.0,41727.0,41959.0,43191.0,-17.701495268369097,9.308977670179816,0,40000
1386259,36025.0,40115.0,39245.0,44615.0,-17.990669651922993,8.73703642406148,0,40000
1386269,30022.0,41742.0,45096.0,43140.0,-18.26760847806408,8.142142254478319,0,40000
1386279,31526.0,41772.0,44234.0,42468.0,-18.528347437963394,7.529962896197784,0,40000
1386289,30038.0,42726.0,45582.0,41654.0,-18.766538033374655,6.914987363828113,0,40000
1386299,31480.0,42314.0,44204.0,42002.0,-18.980790170093826,6.303142432062732,0,40000
1386309,30051.0,41847.0,45901.0,42201.0,-19.180409952424007,5.66673398501765,0,40000
1386319,31340.0,42472.0,45054.0,41134.0,-19.35309793709201,5.045552520519933,0,40000
1386329,30986.0,42120.0,45450.0,41444.0,-19.505640716568657,4.419273722699124,0,40000
1386339,32708.0,41900.0,44174.0,41218.0,-19.638690859676235,3.784418227161106,0,40000
1386349,31819.0,42435.0,45135.0,40611.0,-19.750404845164653,3.1498426075117902,0,40000
1386359,34310.0,41102.0,42794.0,41794.0,-19.841659087271463,2.511685622146583,0,40000
1386369,32368.0,41392.0,45304.0,40936.0,-19.912650636273256,1.8671755776375818,0,40000
1386379,34554.0,41262.0,42868.0,41316.0,-19.96235766485365,1.2264894864852582,0,40000
1386389,34066.0,41208.0,43464.0,41262.0,-19.991461772382088,0.5843425394283414,0,40000
1386399,33706.0,41070.0,43700.0,41524.0,-19.999900941516778,-0.06294703739120301,0,40000
1386409,33140.0,40622.0,44672.0,41566.0,-19.986906355217823,-0.7235843750064299,0,40000
1386419,34076.0,41030.0,43638.0,41256.0,-19.953265445146037,-1.3664545640236605,0,40000
1386429,32868.0,41996.0,45168.0,39968.0,-19.899300880595256,-2.004451162672925,0,40000
1386439,33499.0,41141.0,44611.0,40749.0,-19.821088276768673,-2.6691683207590104,0,40000
1386449,31870.0,42024.0,46588.0,39518.0,-19.722433879885813,-3.3204821718437545,0,40000
1386459,33513.0,40781.0,44747.0,40959.0,-19.722433879885813,-3.3204821718437545,0,40000
1386469,31675.0,42241.0,46843.0,39241.0,-19.60361007542824,-3.9621297316681097,0,40000
1386479,33343.0,40929.0,45073.0,40655.0,-19.308662161921482,-5.213018848688506,0,40000
1386489,32773.0,41885.0,45929.0,39413.0,-19.12865420869261,-5.839057129731348,0,40000
1386499,33867.0,40307.0,45027.0,40799.0,-19.12865420869261,-5.839057129731348,0,40000
1386509,31883.0,41643.0,46337.0,40137.0,-18.929979158223954,-6.4541373605778425,0,40000
1386519,35943.0,36711.0,42633.0,44713.0,-18.7083614294001,-7.0708707120788645,0,40000
1386529,32381.0,40149.0,45839.0,41631.0,-18.47134158790863,-7.668737832446558,0,40000
1386539,34778.0,35610.0,44390.0,45222.0,-18.203946100718778,-8.28349843738294,0,40000
1386549,33713.0,35859.0,44743.0,45685.0,-17.929240190873102,-8.862411984216296,0,40000
1386559,33885.0,39087.0,45063.0,41965.0,-17.62864248006841,-9.446214284565405,0,40000
1386569,33595.0,36305.0,45237.0,44863.0,-17.314120450014233,-10.011055540870748,0,40000
1386579,34666.0,34766.0,44608.0,45960.0,-16.985098293147317,-10.55966078868654,0,40000
1386589,33097.0,40765.0,45547.0,40591.0,-16.63387677120004,-11.104690160492174,0,40000
1386599,32319.0,40133.0,46373.0,41175.0,-16.268676001709277,-11.633150095799875,0,40000
1386609,32391.0,42091.0,46637.0,38881.0,-15.887374896873162,-12.148716758827021,0,40000
1386619,33436.0,40800.0,45182.0,40582.0,-15.489353051289525,-12.652270233144243,0,40000
1386629,31492.0,41984.0,47730.0,38794.0,-15.074235679756832,-13.144102048871428,0,40000
1386639,32249.0,40833.0,46085.0,40833.0,-14.643426520268969,-13.622410203245366,0,40000
1386649,31644.0,41120.0,46676.0,40560.0,-14.197268308700865,-14.086787162825951,0,40000
1386659,32524.0,40438.0,46784.0,40254.0,-13.737991434402495,-14.535047001928946,0,40000
1386669,31198.0,42732.0,46476.0,39594.0,-13.249347969537109,-14.981814922836381,0,40000
1386679,33419.0,40183.0,45651.0,40747.0,-12.75855506002397,-15.401924320692423,0,40000
1386689,30541.0,43239.0,47393.0,38827.0,-12.252448698074662,-15.80751406455324,0,40000
1386699,32104.0,40756.0,46436.0,40704.0,-11.733105643034037,-16.196735225637383,0,40000
1386709,32680.0,41526.0,45068.0,40726.0,-11.206557074708615,-16.565418151417074,0,40000
1386719,33525.0,40773.0,44397.0,41305.0,-10.663338428464805,-16.920201345138473,0,40000
1386729,32115.0,41633.0,45191.0,41061.0,-10.114804278200019,-17.253716539160674,0,40000
1386739,32678.0,41454.0,44666.0,41202.0,-9.549202425300443,-17.573068401410044,0,40000
1386749,32076.0,42118.0,45272.0,40534.0,-8.977799213662264,-17.871740857542818,0,40000
1386759,32275.0,41255.0,44517.0,41953.0,-8.380339049565439,-18.1595682056135,0,40000
1386769,31016.0,42390.0,46438.0,40156.0,-7.778177787683785,-18.42552442410209,0,40000
1386779,31163.0,41333.0,45219.0,42285.0,-7.178427559562783,-18.66735593950331,0,40000
1386789,32117.0,42995.0,45173.0,39715.0,-6.575148213091882,-18.888288063661953,0,40000
1386799,31323.0,40183.0,45443.0,43051.0,-5.951212926305638,-19.094058361327292,0,40000
1386809,31802.0,42224.0,44748.0,41226.0,-5.951212926305638,-19.094058361327292,0,40000
1386819,32917.0,39863.0,43593.0,43627.0,-5.314270598150399,-19.28104063606615,0,40000
1386829,31660.0,41756.0,44318.0,42266.0,-4.681028506390205,-19.444484362470565,0,40000
1386839,30103.0,34913.0,46179.0,48805.0,-4.050043002001479,-19.585636361424125,0,40000
1386849,30646.0,37542.0,45032.0,46780.0,-3.4159463063796576,-19.706123688638797,0,40000
1386859,30676.0,36508.0,45194.0,47622.0,-2.7698653857711184,-19.80726749818629,0,40000
1386869,30093.0,37319.0,45137.0,47451.0,-2.1320393418615637,-19.886035508485712,0,40000
1386879,28691.0,37869.0,46593.0,46847.0,-1.4940285213518665,-19.944118902006856,0,40000
1386889,29487.0,39547.0,46245.0,44721.0,-0.8524193142394361,-19.981826275711427,0,40000
1386899,28249.0,38139.0,46399.0,47213.0,-0.20954033881419312,-19.998902291036117,0,40000
1386909,27121.0,40393.0,47533.0,44953.0,0.4352776193406466,-19.995262773819732,0,40000
1386919,30224.0,42130.0,44532.0,43114.0,1.077593790920967,-19.970948691080466,0,40000
1386929,28318.0,42046.0,46226.0,43410.0,1.7159313218452947,-19.92625352891783,0,40000
1386939,30866.0,43668.0,43394.0,42072.0,2.355517269494431,-19.860804072169724,0,40000
1386949,30731.0,44727.0,42763.0,41779.0,2.9930985984687446,-19.77476575790076,0,40000
1386959,29340.0,44728.0,44010.0,41922.0,3.6279362875940118,-19.668199670868674,0,40000
1386969,32239.0,45209.0,41601.0,40951.0,4.2593669390217626,-19.541181982642925,0,40000
1386979,30733.0,43845.0,42579.0,42843.0,4.891929068001442,-19.392499323028026,0,40000
1386989,32651.0,44983.0,40905.0,41461.0,5.515324341507322,-19.224494724386826,0,40000
1386999,32405.0,42177.0,40515.0,44903.0,6.1318312992167705,-19.036823393569254,0,40000
1387009,32506.0,44652.0,40782.0,42060.0,6.739842194347735,-18.830149420418575,0,40000
1387019,32553.0,43137.0,40851.0,43459.0,7.344847813685114,-18.602505492374004,0,40000
1387029,33014.0,43186.0,40562.0,43238.0,7.942249498368711,-18.35539901243397,0,40000
1387039,31368.0,43024.0,41960.0,43648.0,8.52877812103195,-18.090327353649705,0,40000
1387049,33456.0,43174.0,39626.0,43744.0,9.104312798521804,-17.807624447597497,0,40000
1387059,32765.0,42759.0,40815.0,43661.0,9.687793165462127,-17.497047281848022,0,40000
1387069,34268.0,43526.0,39306.0,42900.0,10.248422142175738,-17.174686128012997,0,40000
1387079,30761.0,42809.0,42631.0,43799.0,10.794767201074045,-16.83665646957899,0,40000
1387089,32017.0,42933.0,41721.0,43329.0,11.3292695637037,-16.481736897333874,0,40000
1387099,30952.0,42390.0,42306.0,44352.0,11.879811602859576,-16.089439899529225,0,40000
1387109,32019.0,44085.0,42235.0,41661.0,12.390434476873173,-15.699590232688006,0,40000
1387119,32491.0,42881.0,41651.0,42977.0,12.88690974215929,-15.29469049367917,0,40000
1387129,31679.0,43247.0,42627.0,42447.0,12.88690974215929,-15.29469049367917,0,40000
1387139,29197.0,42133.0,45237.0,43433.0,13.839252067502832,-14.438666912569131,0,40000
1387149,30847.0,44389.0,43301.0,41463.0,14.297846284712756,-13.984691330834787,0,40000
1387159,29578.0,42550.0,45332.0,42540.0,14.739298543869062,-13.518619694136651,0,40000
1387169,31241.0,42373.0,43707.0,42679.0,14.739298543869062,-13.518619694136651,0,40000
1387179,28514.0,42750.0,46266.0,42470.0,15.167157297924835,-13.036768752263939,0,40000
1387189,29803.0,42027.0,45621.0,42549.0,15.578876353437266,-12.541874324211403,0,40000
1387199,29531.0,41671.0,45335.0,43463.0,15.974751849567607,-12.033590625608648,0,40000
1387209,31330.0,42282.0,44274.0,42114.0,16.354800945231457,-11.511754255623085,0,40000
1387219,26819.0,41543.0,47977.0,43661.0,16.718846337316265,-10.976346256801783,0,40000
1387229,27871.0,42859.0,47581.0,41689.0,17.073177770001347,-10.416650173349007,0,40000
1387239,26821.0,41857.0,48249.0,43073.0,17.4090302050259,-9.845083408508827,0,40000
1387249,27712.0,42102.0,47720.0,42466.0,17.716268665213295,-9.280831028630006,0,40000
1387259,26896.0,42152.0,48488.0,42464.0,18.005824939949246,-8.705760634884335,0,40000
1387269,28552.0,41692.0,46968.0,42788.0,18.275880896931643,-8.123556945154572,0,40000
1387279,27145.0,42679.0,48295.0,41881.0,18.528364358060784,-7.529921262200741,0,40000
1387289,29659.0,43251.0,46145.0,40945.0,18.76266606730972,-6.925486412276355,0,40000
1387299,31236.0,41002.0,44400.0,43362.0,18.978073753011845,-6.311316552451069,0,40000
1387309,34333.0,41857.0,41463.0,42347.0,19.171498457887367,-5.696810237248766,0,40000
1387319,30707.0,42955.0,45347.0,40991.0,19.37494602617814,-4.96099450540754,0,40000
1387329,32629.0,42479.0,43327.0,41565.0,19.524229764603703,-4.336410047373614,0,40000
