timestamp,stabilizer.roll,stabilizer.pitch,stateEstimateZ.rateRoll,stateEstimateZ.ratePitch,controller.pitchRate,controller.rollRate,roll,pitch,yawdot,thrust
1071295,-37.9829216003418,65.91356658935547,4.0,0.0,-396.6678466796875,228.58123779296875,0,0,0,40000
1071305,-37.98714065551758,65.91297149658203,9.0,-8.0,-398.6416931152344,229.74612426757812,0,0,0,40000
1071315,-38.01497268676758,65.89340209960938,3.0,-13.0,-400.5013427734375,231.0531768798828,0,0,0,40000
1071325,-38.040775299072266,65.87075805664062,-32.0,-79.0,-402.3419189453125,232.3489227294922,0,0,0,40000
1071335,-38.009071350097656,65.78311157226562,-5.0,-167.0,-403.790771484375,233.2996826171875,0,0,0,40000
1071345,-37.88542175292969,65.6592788696289,-14.0,-407.0,-405.0191955566406,233.6962127685547,0,0,0,40000
1071355,-37.46577835083008,65.33665466308594,-26.0,-606.0,-405.0476379394531,232.3080291748047,0,0,0,40000
1071365,-36.978614807128906,65.00186157226562,-28.0,-1064.0,-404.9931640625,230.50062561035156,0,0,0,40000
1071375,-35.85060501098633,64.248779296875,-50.0,-1550.0,-402.4120178222656,224.82261657714844,0,0,0,40000
1071385,-34.80078125,63.53246307373047,-6.0,-2207.0,-400.02899169921875,219.5807647705078,0,0,0,40000
1071395,-32.815208435058594,62.08021926879883,74.0,-2881.0,-393.1966857910156,208.67706298828125,0,0,0,40000
1071405,-31.231937408447266,60.81147766113281,62.0,-3686.0,-387.4241943359375,200.13363647460938,0,0,0,40000
1071415,-28.545242309570312,58.38813400268555,47.0,-4549.0,-374.6666564941406,184.90260314941406,0,0,0,40000
1071425,-26.62108039855957,56.389862060546875,142.0,-5431.0,-364.3932189941406,174.1793975830078,0,0,0,40000
1071435,-23.717384338378906,52.78619384765625,290.0,-6353.0,-344.4001159667969,157.5037841796875,0,0,0,40000
1071445,-21.828208923339844,49.95653533935547,321.0,-7275.0,-328.95526123046875,146.84613037109375,0,0,0,40000
1071455,-19.112112045288086,45.16476821899414,410.0,-7958.0,-301.6186828613281,131.15472412109375,0,0,0,40000
1071465,-17.41596794128418,41.68059539794922,646.0,-8440.0,-282.00616455078125,121.52044677734375,0,0,0,40000
1071475,-15.088763236999512,36.211551666259766,964.0,-8632.0,-250.3445587158203,108.03729248046875,0,0,0,40000
1071485,-13.658677101135254,32.49174118041992,1212.0,-8597.0,-229.04507446289062,99.8836441040039,0,0,0,40000
1071495,-11.616677284240723,27.01051902770996,1511.0,-8288.0,-197.03341674804688,88.00428009033203,0,0,0,40000
1071505,-10.296098709106445,23.515382766723633,1843.0,-7749.0,-176.8097381591797,80.40548706054688,0,0,0,40000
1071515,-8.356292724609375,18.671138763427734,2184.0,-6967.0,-148.36093139648438,69.04061889648438,0,0,0,40000
1071525,-7.062920093536377,15.814888000488281,2448.0,-6016.0,-131.73162841796875,61.507869720458984,0,0,0,40000
1071535,-5.096735000610352,12.249117851257324,2641.0,-4836.0,-110.74473571777344,49.88742446899414,0,0,0,40000
1071545,-3.765735149383545,10.41171646118164,2810.0,-3547.0,-100.05406188964844,42.03040313720703,0,0,0,40000
1071555,-1.731662631034851,8.557000160217285,2886.0,-2206.0,-89.20185852050781,29.902385711669922,0,0,0,40000
1071565,-0.3721699118614197,7.901810646057129,2922.0,-957.0,-85.51493835449219,21.772869110107422,0,0,0,40000
1071575,1.6521644592285156,7.679119110107422,2865.0,88.0,-84.40959930419922,9.601451873779297,0,0,0,40000
1071585,2.9797472953796387,7.932585716247559,2796.0,858.0,-86.16495513916016,1.5624523162841797,0,0,0,40000
1071595,4.907878398895264,8.75819206237793,2715.0,1452.0,-91.37026977539062,-10.130550384521484,0,0,0,40000
1071605,6.137073040008545,9.50512981414795,2597.0,1826.0,-96.12785339355469,-17.675107955932617,0,0,0,40000
1071615,7.921712875366211,10.798795700073242,2403.0,2027.0,-104.19796752929688,-28.59954833984375,0,0,0,40000
1071625,9.009592056274414,11.720719337463379,2143.0,2138.0,-110.07002258300781,-35.38422393798828,0,0,0,40000
1071635,10.515273094177246,13.077759742736816,1924.0,2043.0,-118.58857727050781,-44.716209411621094,0,0,0,40000
1071645,11.40957260131836,13.907093048095703,1666.0,1847.0,-123.97193145751953,-50.413692474365234,0,0,0,40000
1071655,12.57762336730957,14.991463661193848,1425.0,1573.0,-130.91554260253906,-57.785728454589844,0,0,0,40000
1071665,13.21943473815918,15.543609619140625,1158.0,1155.0,-134.68832397460938,-62.025596618652344,0,0,0,40000
1071675,13.987700462341309,16.080568313598633,890.0,665.0,-138.38705444335938,-67.04622650146484,0,0,0,40000
1071685,14.341468811035156,16.205577850341797,611.0,111.0,-139.6220703125,-69.59503173828125,0,0,0,40000
1071695,14.667652130126953,16.01858901977539,321.0,-512.0,-138.9843292236328,-71.98904418945312,0,0,0,40000
1071705,14.745655059814453,15.592666625976562,135.0,-1138.0,-136.8084716796875,-72.81021881103516,0,0,0,40000
1071715,14.688937187194824,14.917062759399414,-125.0,-1892.0,-133.2108612060547,-72.911376953125,0,0,0,40000
1071725,14.403679847717285,13.413311004638672,-348.0,-2616.0,-124.61024475097656,-71.63593292236328,0,0,0,40000
1071735,14.08712100982666,12.114546775817871,-665.0,-3258.0,-117.197021484375,-70.16326141357422,0,0,0,40000
1071745,13.429242134094238,9.801079750061035,-885.0,-3688.0,-103.63896179199219,-66.62725830078125,0,0,0,40000
1071755,12.896628379821777,8.114376068115234,-1131.0,-3888.0,-93.78250885009766,-63.82493209838867,0,0,0,40000
1071765,11.951207160949707,5.515909671783447,-1389.0,-3898.0,-78.38844299316406,-58.52268600463867,0,0,0,40000
1071775,11.265159606933594,3.8164992332458496,-1491.0,-3667.0,-68.32675170898438,-54.75259017944336,0,0,0,40000
1071785,10.154333114624023,1.4635488986968994,-1652.0,-3264.0,-54.280364990234375,-48.405941009521484,0,0,0,40000
1071795,9.381949424743652,0.09027908742427826,-1736.0,-2782.0,-46.05966567993164,-44.062400817871094,0,0,0,40000
1071805,8.162273406982422,-1.592146635055542,-1850.0,-2172.0,-35.93623352050781,-37.004066467285156,0,0,0,40000
1071815,7.3133625984191895,-2.458575487136841,-1886.0,-1570.0,-30.673999786376953,-32.14015197753906,0,0,0,40000
1071825,6.024155139923096,-3.3475825786590576,-1834.0,-997.0,-25.248916625976562,-24.600936889648438,0,0,0,40000
1071835,5.177011966705322,-3.6901230812072754,-1804.0,-469.0,-23.086776733398438,-19.683549880981445,0,0,0,40000
1071845,3.9511780738830566,-3.8719518184661865,-1763.0,-46.0,-21.880922317504883,-12.461763381958008,0,0,0,40000
1071855,3.1836624145507812,-3.830108404159546,-1666.0,222.0,-22.0164737701416,-7.961366653442383,0,0,0,40000
1071865,2.1046805381774902,-3.6038429737091064,-1481.0,407.0,-23.262786865234375,-1.563155174255371,0,0,0,40000
1071875,1.4487773180007935,-3.4197680950164795,-1330.0,396.0,-24.26244354248047,2.3210182189941406,0,0,0,40000
1071885,0.5811830163002014,-3.174473524093628,-1172.0,301.0,-25.63622283935547,7.499050617218018,0,0,0,40000
1071895,0.10048901289701462,-3.0762009620666504,-989.0,127.0,-26.132469177246094,10.37452220916748,0,0,0,40000
1071905,-0.501226007938385,-3.060253381729126,-775.0,-100.0,-26.13667106628418,13.993154525756836,0,0,0,40000
1071915,-0.8048633337020874,-3.1705429553985596,-550.0,-369.0,-25.381305694580078,15.835620880126953,0,0,0,40000
1071925,-1.1244933605194092,-3.5334949493408203,-334.0,-660.0,-23.102542877197266,17.783769607543945,0,0,0,40000
1071935,-1.231106162071228,-3.8793792724609375,-127.0,-888.0,-20.915138244628906,18.459186553955078,0,0,0,40000
1071945,-1.245664119720459,-4.54555606842041,67.0,-1044.0,-16.790037155151367,18.584117889404297,0,0,0,40000
1071955,-1.1539112329483032,-5.050489902496338,297.0,-1140.0,-13.615032196044922,18.069456100463867,0,0,0,40000
1071965,-0.8913677930831909,-5.842761516571045,464.0,-1136.0,-8.69564437866211,16.52456283569336,0,0,0,40000
1071975,-0.6461631059646606,-6.342274188995361,629.0,-1041.0,-5.514202117919922,15.075740814208984,0,0,0,40000
1071985,-0.1710200160741806,-7.01802396774292,738.0,-916.0,-1.2570304870605469,12.235980987548828,0,0,0,40000
1071995,0.2078893929719925,-7.382343769073486,841.0,-651.0,1.1461372375488281,9.96088695526123,0,0,0,40000
1072005,0.8277958631515503,-7.771389007568359,893.0,-459.0,3.7092742919921875,6.224200248718262,0,0,0,40000
1072015,1.26492178440094,-7.93203067779541,954.0,-255.0,4.909294128417969,3.5687990188598633,0,0,0,40000
1072025,1.937890648841858,-8.038958549499512,970.0,-78.0,5.791133880615234,-0.5190019607543945,0,0,0,40000
1072035,2.398085832595825,-8.022412300109863,1009.0,122.0,5.9328460693359375,-3.346555709838867,0,0,0,40000
1072045,3.0785722732543945,-7.896005153656006,938.0,236.0,5.413013458251953,-7.513814926147461,0,0,0,40000
1072055,3.510101795196533,-7.76405668258667,900.0,304.0,4.855846405029297,-10.203168869018555,0,0,0,40000
1072065,4.11991548538208,-7.543852806091309,834.0,325.0,3.763568878173828,-13.978484153747559,0,0,0,40000
1072075,4.49030065536499,-7.398590564727783,775.0,318.0,3.1156883239746094,-16.331079483032227,0,0,0,40000
1072085,4.9982523918151855,-7.216129779815674,688.0,218.0,2.239368438720703,-19.522811889648438,0,0,0,40000
1072095,5.295860290527344,-7.130965232849121,583.0,121.0,1.9432754516601562,-21.463834762573242,0,0,0,40000
1072105,5.664921283721924,-7.096781253814697,470.0,-19.0,1.951171875,-23.843978881835938,0,0,0,40000
1072115,5.857946395874023,-7.143524169921875,359.0,-180.0,2.4452896118164062,-25.175615310668945,0,0,0,40000
1072125,6.066694259643555,-7.317173004150391,235.0,-306.0,3.7043190002441406,-26.60784912109375,0,0,0,40000
1072135,6.144248962402344,-7.481484889984131,112.0,-434.0,4.912578582763672,-27.256629943847656,0,0,0,40000
1072145,6.177125930786133,-7.785689830780029,-20.0,-455.0,6.967609405517578,-27.639122009277344,0,0,0,40000
1072155,6.149909496307373,-7.997287273406982,-126.0,-454.0,8.474605560302734,-27.66071128845215,0,0,0,40000
1072165,6.020251274108887,-8.288009643554688,-245.0,-385.0,10.4642333984375,-27.065214157104492,0,0,0,40000
1072175,5.887208461761475,-8.450770378112793,-363.0,-294.0,11.692413330078125,-26.44525146484375,0,0,0,40000
1072185,5.610166549682617,-8.62195110321045,-423.0,-190.0,12.976325988769531,-24.954753875732422,0,0,0,40000
1072195,5.395488262176514,-8.682270050048828,-500.0,-80.0,13.598064422607422,-23.83114242553711,0,0,0,40000
1072205,5.0194010734558105,-8.72693920135498,-566.0,0.0,14.127487182617188,-21.729839324951172,0,0,0,40000
1072215,4.742558479309082,-8.712533950805664,-590.0,79.0,14.30264663696289,-20.214393615722656,0,0,0,40000
1072225,4.30579137802124,-8.657343864440918,-639.0,104.0,14.231903076171875,-17.728334426879883,0,0,0,40000
1072235,3.9994914531707764,-8.612159729003906,-664.0,104.0,14.219711303710938,-16.01422119140625,0,0,0,40000
1072245,3.530320405960083,-8.543087005615234,-673.0,106.0,14.062393188476562,-13.310742378234863,0,0,0,40000
1072255,3.220062732696533,-8.496905326843262,-635.0,128.0,14.040794372558594,-11.54948616027832,0,0,0,40000
1072265,2.7775652408599854,-8.409831047058105,-626.0,120.0,13.771659851074219,-8.983061790466309,0,0,0,40000
1072275,2.492183208465576,-8.355490684509277,-592.0,132.0,13.696945190429688,-7.348949432373047,0,0,0,40000
1072285,2.0879509449005127,-8.288745880126953,-552.0,98.0,13.545825958251953,-4.990989685058594,0,0,0,40000
1072295,1.8506739139556885,-8.252734184265137,-482.0,96.0,13.577766418457031,-3.6256589889526367,0,0,0,40000
1072305,1.5330294370651245,-8.19513988494873,-411.0,71.0,13.478660583496094,-1.7694015502929688,0,0,0,40000
1072315,1.3534289598464966,-8.163920402526855,-361.0,79.0,13.536643981933594,-0.7345285415649414,0,0,0,40000
1072325,1.12483549118042,-8.101746559143066,-305.0,92.0,13.407451629638672,0.6006617546081543,0,0,0,40000
1072335,1.0036910772323608,-8.060543060302734,-232.0,99.0,13.402549743652344,1.295989990234375,0,0,0,40000
1072345,0.8706817626953125,-8.01271915435791,-161.0,70.0,13.356521606445312,2.0665111541748047,0,0,0,40000
1072355,0.8029166460037231,-7.99044942855835,-99.0,12.0,13.46282958984375,2.44822359085083,0,0,0,40000
1072365,0.7484827041625977,-7.980967044830322,-37.0,34.0,13.645557403564453,2.751890182495117,0,0,0,40000
1072375,0.7507777810096741,-7.956402778625488,30.0,82.0,13.737190246582031,2.7156524658203125,0,0,0,40000
1072385,0.7937940359115601,-7.896383762359619,95.0,115.0,13.614761352539062,2.434429168701172,0,0,0,40000
1072395,0.8397915363311768,-7.8444318771362305,135.0,133.0,13.539031982421875,2.133848190307617,0,0,0,40000
1072405,0.9569036960601807,-7.752718448638916,182.0,148.0,13.222442626953125,1.4039835929870605,0,0,0,40000
1072415,1.043707013130188,-7.689671993255615,206.0,157.0,13.075614929199219,0.8528985977172852,0,0,0,40000
1072425,1.1968082189559937,-7.56247615814209,241.0,215.0,12.541007995605469,-0.0996541976928711,0,0,0,40000
1072435,1.313164234161377,-7.45643949508667,256.0,250.0,12.129783630371094,-0.8357548713684082,0,0,0,40000
1072445,1.502406358718872,-7.290634632110596,277.0,238.0,11.355644226074219,-2.013935089111328,0,0,0,40000
1072455,1.6298418045043945,-7.189305782318115,272.0,176.0,10.96453857421875,-2.825911045074463,0,0,0,40000
1072465,1.8187085390090942,-7.093088626861572,260.0,118.0,10.601058959960938,-4.0114054679870605,0,0,0,40000
1072475,1.9468966722488403,-7.04655122756958,270.0,109.0,10.533792495727539,-4.837404251098633,0,0,0,40000
1072485,2.128671884536743,-6.9765191078186035,250.0,82.0,10.32364273071289,-5.989781379699707,0,0,0,40000
1072495,2.234779119491577,-6.94371223449707,220.0,64.0,10.33549690246582,-6.69223690032959,0,0,0,40000
1072505,2.389420747756958,-6.912624835968018,234.0,21.0,10.356578826904297,-7.6898579597473145,0,0,0,40000
1072515,2.491419553756714,-6.910476207733154,171.0,11.0,10.550996780395508,-8.37537670135498,0,0,0,40000
1072525,2.6082658767700195,-6.915962219238281,140.0,7.0,10.791280746459961,-9.153392791748047,0,0,0,40000
1072535,2.6709978580474854,-6.901603698730469,116.0,54.0,10.912376403808594,-9.609196662902832,0,0,0,40000
1072545,2.731391429901123,-6.865381717681885,85.0,73.0,10.901479721069336,-10.052831649780273,0,0,0,40000
1072555,2.7577567100524902,-6.846529006958008,35.0,55.0,10.99398422241211,-10.293460845947266,0,0,0,40000
1072565,2.768484115600586,-6.809972286224365,0.0,47.0,10.979360580444336,-10.440820693969727,0,0,0,40000
1072575,2.7563188076019287,-6.797976970672607,-31.0,19.0,11.111454010009766,-10.450671195983887,0,0,0,40000
1072585,2.7122530937194824,-6.783751964569092,-76.0,21.0,11.229690551757812,-10.268293380737305,0,0,0,40000
1072595,2.673851728439331,-6.7727813720703125,-98.0,75.0,11.367273330688477,-10.118541717529297,0,0,0,40000
1072605,2.586925506591797,-6.711043834686279,-129.0,111.0,11.198995590209961,-9.675743103027344,0,0,0,40000
1072615,2.508035182952881,-6.663783073425293,-197.0,110.0,11.115907669067383,-9.278608322143555,0,0,0,40000
1072625,2.3725168704986572,-6.573464870452881,-198.0,144.0,10.77232551574707,-8.538351058959961,0,0,0,40000
1072635,2.2736544609069824,-6.506832122802734,-222.0,166.0,10.568550109863281,-8.014565467834473,0,0,0,40000
1072645,2.1104302406311035,-6.389215469360352,-222.0,157.0,10.055835723876953,-7.100484371185303,0,0,0,40000
1072655,1.9993561506271362,-6.3375749588012695,-241.0,115.0,9.936717987060547,-6.49536657333374,0,0,0,40000
1072665,1.8407748937606812,-6.267289638519287,-239.0,98.0,9.703788757324219,-5.601016998291016,0,0,0,40000
1072675,1.741151213645935,-6.2407917976379395,-234.0,68.0,9.732345581054688,-5.056727409362793,0,0,0,40000
1072685,1.5841981172561646,-6.192957878112793,-214.0,68.0,9.631631851196289,-4.164363861083984,0,0,0,40000
1072695,1.4857752323150635,-6.171907424926758,-201.0,61.0,9.690736770629883,-3.6195578575134277,0,0,0,40000
1072705,1.3448634147644043,-6.137578010559082,-160.0,59.0,9.66927719116211,-2.815988540649414,0,0,0,40000
1072715,1.2629104852676392,-6.11256217956543,-168.0,61.0,9.702861785888672,-2.3631839752197266,0,0,0,40000
1072725,1.1536942720413208,-6.086612701416016,-159.0,47.0,9.730079650878906,-1.74379301071167,0,0,0,40000
1072735,1.0917385816574097,-6.0598063468933105,-106.0,84.0,9.751346588134766,-1.4055261611938477,0,0,0,40000
1072745,1.0181318521499634,-5.991194725036621,-104.0,116.0,9.520303726196289,-0.9952459335327148,0,0,0,40000
1072755,0.9765576720237732,-5.947988033294678,-77.0,96.0,9.439998626708984,-0.7755856513977051,0,0,0,40000
1072765,0.9137035012245178,-5.892611503601074,-74.0,75.0,9.28512191772461,-0.42656850814819336,0,0,0,40000
1072775,0.8879172801971436,-5.843735218048096,-59.0,128.0,9.167779922485352,-0.2988152503967285,0,0,0,40000
1072785,0.854095995426178,-5.7337775230407715,-63.0,180.0,8.681476593017578,-0.12201261520385742,0,0,0,40000
1072795,0.8530725240707397,-5.628192901611328,-1.0,228.0,8.218099594116211,-0.14144611358642578,0,0,0,40000
1072805,0.8587455153465271,-5.463133811950684,32.0,230.0,7.393592834472656,-0.20104026794433594,0,0,0,40000
1072815,0.8652361035346985,-5.369776248931885,29.0,195.0,6.995599746704102,-0.2658529281616211,0,0,0,40000
1072825,0.8850446343421936,-5.248160362243652,36.0,164.0,6.424707412719727,-0.4110145568847656,0,0,0,40000
1072835,0.9071930646896362,-5.184426784515381,45.0,136.0,6.198596954345703,-0.5708780288696289,0,0,0,40000
1072845,0.9563630819320679,-5.1040358543396,94.0,84.0,5.8701171875,-0.8939390182495117,0,0,0,40000
1072855,0.985258936882019,-5.093443870544434,79.0,18.0,5.95945930480957,-1.09649658203125,0,0,0,40000
1072865,1.0423059463500977,-5.104862689971924,92.0,-18.0,6.180929183959961,-1.4693360328674316,0,0,0,40000
1072875,1.0767128467559814,-5.123454570770264,77.0,-30.0,6.445966720581055,-1.7076773643493652,0,0,0,40000
1072885,1.1322849988937378,-5.134088516235352,84.0,9.0,6.663749694824219,-2.0743842124938965,0,0,0,40000
1072895,1.1703161001205444,-5.131230354309082,89.0,23.0,6.800600051879883,-2.3372273445129395,0,0,0,40000
1072905,1.2397913932800293,-5.106873512268066,113.0,49.0,6.808008193969727,-2.7903785705566406,0,0,0,40000
1072915,1.2927805185317993,-5.083837032318115,115.0,48.0,6.82255744934082,-3.1464552879333496,0,0,0,40000
1072925,1.3520268201828003,-5.050866603851318,78.0,30.0,6.776590347290039,-3.5418291091918945,0,0,0,40000
1072935,1.39155912399292,-5.030916690826416,69.0,59.0,6.808065414428711,-3.820307731628418,0,0,0,40000
1072945,1.4354361295700073,-4.982572555541992,62.0,75.0,6.668067932128906,-4.126131057739258,0,0,0,40000
1072955,1.4610251188278198,-4.951694011688232,61.0,61.0,6.631683349609375,-4.323198318481445,0,0,0,40000
1072965,1.4802067279815674,-4.914525032043457,30.0,33.0,6.556404113769531,-4.482559680938721,0,0,0,40000
1072975,1.488163709640503,-4.904415607452393,22.0,34.0,6.64301872253418,-4.57484245300293,0,0,0,40000
1072985,1.485904574394226,-4.908717632293701,-11.0,-5.0,6.815996170043945,-4.605963230133057,0,0,0,40000
1072995,1.4810963869094849,-4.913270950317383,-23.0,0.0,6.990652084350586,-4.6216301918029785,0,0,0,40000
1073005,1.4634020328521729,-4.920900821685791,-35.0,-17.0,7.1839141845703125,-4.559589385986328,0,0,0,40000
1073015,1.4481267929077148,-4.921762466430664,-51.0,22.0,7.336765289306641,-4.511603355407715,0,0,0,40000
1073025,1.4215022325515747,-4.9142961502075195,-48.0,10.0,7.439470291137695,-4.394824504852295,0,0,0,40000
1073035,1.3897830247879028,-4.90412712097168,-57.0,36.0,7.525733947753906,-4.246581077575684,0,0,0,40000
1073045,1.3339612483978271,-4.873173713684082,-75.0,55.0,7.48661994934082,-3.9523768424987793,0,0,0,40000
1073055,1.2976648807525635,-4.837655067443848,-99.0,99.0,7.419101715087891,-3.7739996910095215,0,0,0,40000
1073065,1.2284905910491943,-4.764394760131836,-94.0,125.0,7.123416900634766,-3.396627426147461,0,0,0,40000
1073075,1.1841669082641602,-4.696094036102295,-105.0,141.0,6.855276107788086,-3.1667518615722656,0,0,0,40000
1073085,1.1234313249588013,-4.594845771789551,-73.0,149.0,6.38685417175293,-2.8367395401000977,0,0,0,40000
1073095,1.0807324647903442,-4.529118537902832,-91.0,140.0,6.129152297973633,-2.61348819732666,0,0,0,40000
1073105,1.0174894332885742,-4.43134069442749,-68.0,154.0,5.676609039306641,-2.2652597427368164,0,0,0,40000
1073115,0.9821995496749878,-4.391629219055176,-52.0,71.0,5.57054328918457,-2.083369493484497,0,0,0,40000
1073125,0.9400988817214966,-4.36436653137207,-61.0,48.0,5.5382232666015625,-1.859466314315796,0,0,0,40000
1073135,0.9083776473999023,-4.347414016723633,-52.0,41.0,5.567146301269531,-1.6967697143554688,0,0,0,40000
1073145,0.8749491572380066,-4.307497024536133,-43.0,62.0,5.457334518432617,-1.5228195190429688,0,0,0,40000
1073155,0.8556687831878662,-4.292707920074463,-40.0,26.0,5.497522354125977,-1.433049201965332,0,0,0,40000
1073165,0.8229562640190125,-4.299048900604248,-57.0,-4.0,5.664493560791016,-1.2618627548217773,0,0,0,40000
1073175,0.814609169960022,-4.295856952667236,-11.0,0.0,5.774263381958008,-1.2363126277923584,0,0,0,40000
1073185,0.7996938824653625,-4.282905578613281,-7.0,24.0,5.825218200683594,-1.1709518432617188,0,0,0,40000
1073195,0.7897405028343201,-4.259477138519287,-21.0,50.0,5.8126983642578125,-1.1350445747375488,0,0,0,40000
1073205,0.8017037510871887,-4.204953193664551,6.0,72.0,5.612398147583008,-1.2306931018829346,0,0,0,40000
1073215,0.802989661693573,-4.173503398895264,-8.0,61.0,5.549276351928711,-1.2625067234039307,0,0,0,40000
1073225,0.8063850402832031,-4.134808540344238,7.0,44.0,5.441570281982422,-1.3070030212402344,0,0,0,40000
1073235,0.8127833604812622,-4.10659646987915,25.0,83.0,5.395843505859375,-1.3696677684783936,0,0,0,40000
1073245,0.8219743371009827,-4.037825584411621,16.0,96.0,5.1052093505859375,-1.44938325881958,0,0,0,40000
1073255,0.8268088698387146,-3.9957480430603027,11.0,90.0,4.973087310791016,-1.5031423568725586,0,0,0,40000
1073265,0.8317107558250427,-3.9529945850372314,13.0,38.0,4.835563659667969,-1.5574352741241455,0,0,0,40000
1073275,0.8427867889404297,-3.9484219551086426,23.0,2.0,4.926593780517578,-1.6490092277526855,0,0,0,40000
1073285,0.8569114804267883,-3.953970193862915,5.0,-16.0,5.078393936157227,-1.7593841552734375,0,0,0,40000
1073295,0.8567838668823242,-3.965928316116333,0.0,-15.0,5.268964767456055,-1.7843220233917236,0,0,0,40000
1073305,0.8509180545806885,-3.9818265438079834,-1.0,-19.0,5.48365592956543,-1.7747461795806885,0,0,0,40000
1073315,0.8401936888694763,-3.9913856983184814,1.0,-38.0,5.660610198974609,-1.7357428073883057,0,0,0,40000
1073325,0.832298755645752,-4.014031887054443,-23.0,-9.0,5.916757583618164,-1.7135045528411865,0,0,0,40000
1073335,0.8232156038284302,-4.01979398727417,-5.0,-8.0,6.071859359741211,-1.6838030815124512,0,0,0,40000
1073345,0.810796856880188,-4.0178608894348145,-34.0,57.0,6.181072235107422,-1.6338133811950684,0,0,0,40000
1073355,0.8081384897232056,-3.9850382804870605,-9.0,86.0,6.104114532470703,-1.6421000957489014,0,0,0,40000
1073365,0.7983258366584778,-3.932356119155884,-15.0,96.0,5.906694412231445,-1.6072795391082764,0,0,0,40000
1073375,0.7884119153022766,-3.8916852474212646,-12.0,100.0,5.779905319213867,-1.5715882778167725,0,0,0,40000
1073385,0.7752715349197388,-3.8204450607299805,5.0,118.0,5.467988967895508,-1.5161404609680176,0,0,0,40000
1073395,0.7912431955337524,-3.752959966659546,-25.0,122.0,5.176469802856445,-1.6355655193328857,0,0,0,40000
1073405,0.7808968424797058,-3.655782699584961,-1.0,139.0,4.704263687133789,-1.5969700813293457,0,0,0,40000
1073415,0.7871013879776001,-3.5978894233703613,16.0,125.0,4.443918228149414,-1.6577298641204834,0,0,0,40000
1073425,0.7930720448493958,-3.545738458633423,7.0,114.0,4.23802375793457,-1.7125837802886963,0,0,0,40000
1073435,0.7949317097663879,-3.468263626098633,-4.0,98.0,3.8780746459960938,-1.7476239204406738,0,0,0,40000
1073445,0.799454927444458,-3.4284560680389404,12.0,90.0,3.7425384521484375,-1.7986984252929688,0,0,0,40000
1073455,0.802799642086029,-3.3914077281951904,6.0,37.0,3.6222801208496094,-1.8427939414978027,0,0,0,40000
1073465,0.8005595207214355,-3.3893628120422363,16.0,-4.0,3.7117080688476562,-1.853363275527954,0,0,0,40000
1073475,0.8058450222015381,-3.4087276458740234,19.0,-71.0,3.929727554321289,-1.9091753959655762,0,0,0,40000
1073485,0.8092120289802551,-3.4308290481567383,-8.0,-25.0,4.165019989013672,-1.953615427017212,0,0,0,40000
1073495,0.8053672909736633,-3.4441773891448975,-10.0,0.0,4.348291397094727,-1.9547839164733887,0,0,0,40000
1073505,0.8053926825523376,-3.450640916824341,-21.0,-8.0,4.490509033203125,-1.9791145324707031,0,0,0,40000
1073515,0.7959117293357849,-3.4571478366851807,-20.0,5.0,4.63323974609375,-1.9462330341339111,0,0,0,40000
1073525,0.779865562915802,-3.453796148300171,-45.0,38.0,4.716821670532227,-1.873561143875122,0,0,0,40000
1073535,0.7488827109336853,-3.41743803024292,-17.0,55.0,4.601688385009766,-1.7104430198669434,0,0,0,40000
1073545,0.7444378733634949,-3.369384527206421,8.0,145.0,4.415071487426758,-1.7061586380004883,0,0,0,40000
1073555,0.73923659324646,-3.2630105018615723,-47.0,170.0,3.876091957092285,-1.6973280906677246,0,0,0,40000
1073565,0.7191383242607117,-3.1706478595733643,-47.0,198.0,3.418137550354004,-1.5985376834869385,0,0,0,40000
1073575,0.6900151371955872,-3.0409741401672363,-23.0,178.0,2.732879638671875,-1.4447999000549316,0,0,0,40000
1073585,0.6759369969367981,-2.9597930908203125,-18.0,188.0,2.335573196411133,-1.3807647228240967,0,0,0,40000
1073595,0.6543765068054199,-2.860182285308838,-31.0,139.0,1.8248414993286133,-1.2713494300842285,0,0,0,40000
1073605,0.6491955518722534,-2.8052637577056885,-20.0,124.0,1.580124855041504,-1.2598016262054443,0,0,0,40000
1073615,0.635621190071106,-2.7355635166168213,-2.0,83.0,1.244781494140625,-1.1975388526916504,0,0,0,40000
1073625,0.630085825920105,-2.697694778442383,-16.0,40.0,1.0989160537719727,-1.183307409286499,0,0,0,40000
1073635,0.6399596929550171,-2.677251100540161,-12.0,25.0,1.0568599700927734,-1.2615845203399658,0,0,0,40000
1073645,0.638102650642395,-2.6800875663757324,-11.0,-33.0,1.154184341430664,-1.2696006298065186,0,0,0,40000
1073655,0.63369220495224,-2.7294905185699463,7.0,-89.0,1.5318222045898438,-1.2621746063232422,0,0,0,40000
1073665,0.6299053430557251,-2.779393434524536,-8.0,-136.0,1.9139890670776367,-1.258406162261963,0,0,0,40000
1073675,0.6241610646247864,-2.8696274757385254,4.0,-124.0,2.540480613708496,-1.2427051067352295,0,0,0,40000
1073685,0.6159843802452087,-2.9115986824035645,-11.0,-82.0,2.8791685104370117,-1.2122411727905273,0,0,0,40000
1073695,0.6075211763381958,-2.959632635116577,-16.0,-49.0,3.2556991577148438,-1.1798064708709717,0,0,0,40000
1073705,0.6002641916275024,-2.981583595275879,-24.0,-20.0,3.4765892028808594,-1.1543664932250977,0,0,0,40000
1073715,0.5919161438941956,-3.004689931869507,-20.0,-28.0,3.705078125,-1.1221094131469727,0,0,0,40000
1073725,0.5808284282684326,-3.007925271987915,-18.0,13.0,3.814678192138672,-1.0731112957000732,0,0,0,40000
1073735,0.5658756494522095,-2.996737241744995,-11.0,29.0,3.8376293182373047,-1.0005016326904297,0,0,0,40000
1073745,0.5539852380752563,-2.975327253341675,-22.0,49.0,3.798715591430664,-0.9459366798400879,0,0,0,40000
1073755,0.5333404541015625,-2.9389407634735107,-33.0,72.0,3.6690807342529297,-0.8383316993713379,0,0,0,40000
1073765,0.5308640003204346,-2.9051859378814697,-16.0,97.0,3.554096221923828,-0.8394293785095215,0,0,0,40000
1073775,0.5215935707092285,-2.8420698642730713,-14.0,96.0,3.2614173889160156,-0.7995359897613525,0,0,0,40000
1073785,0.5160079598426819,-2.7944273948669434,-14.0,108.0,3.0599632263183594,-0.7815759181976318,0,0,0,40000
1073795,0.5046085715293884,-2.7230374813079834,7.0,118.0,2.7142086029052734,-0.7283742427825928,0,0,0,40000
1073805,0.501153290271759,-2.6648504734039307,10.0,153.0,2.445758819580078,-0.7227151393890381,0,0,0,40000
1073815,0.5051661729812622,-2.5712361335754395,3.0,136.0,1.9623231887817383,-0.7619426250457764,0,0,0,40000
1073825,0.5160214304924011,-2.5096817016601562,20.0,106.0,1.6690034866333008,-0.8423829078674316,0,0,0,40000
1073835,0.5462349057197571,-2.432490825653076,41.0,114.0,1.2797822952270508,-1.03961181640625,0,0,0,40000
1073845,0.5529466271400452,-2.3733603954315186,33.0,141.0,0.9969244003295898,-1.0963833332061768,0,0,0,40000
1073855,0.5693594217300415,-2.2862534523010254,31.0,131.0,0.5439367294311523,-1.2117846012115479,0,0,0,40000
1073865,0.5813655257225037,-2.2333195209503174,14.0,128.0,0.29395484924316406,-1.301126480102539,0,0,0,40000
1073875,0.594560980796814,-2.1695287227630615,22.0,52.0,-0.02303600311279297,-1.3979153633117676,0,0,0,40000
1073885,0.6081842184066772,-2.1621487140655518,31.0,8.0,-0.002384185791015625,-1.497713565826416,0,0,0,40000
1073895,0.6241785883903503,-2.168428421020508,23.0,-24.0,0.10022354125976562,-1.6122450828552246,0,0,0,40000
1073905,0.6318988800048828,-2.1938934326171875,32.0,-84.0,0.3184947967529297,-1.6774461269378662,0,0,0,40000
1073915,0.6504848003387451,-2.273433208465576,36.0,-138.0,0.8628568649291992,-1.8082876205444336,0,0,0,40000
1073925,0.6625138521194458,-2.3484890460968018,15.0,-158.0,1.3827285766601562,-1.9002254009246826,0,0,0,40000
1073935,0.6694050431251526,-2.4509549140930176,6.0,-129.0,2.069904327392578,-1.9616241455078125,0,0,0,40000
1073945,0.6782048344612122,-2.5062096118927,27.0,-83.0,2.475956916809082,-2.034637451171875,0,0,0,40000
1073955,0.7053449153900146,-2.5688588619232178,37.0,-45.0,2.9282703399658203,-2.2182650566101074,0,0,0,40000
1073965,0.712099015712738,-2.5891926288604736,17.0,-42.0,3.1277151107788086,-2.2800586223602295,0,0,0,40000
1073975,0.7233633995056152,-2.614567756652832,7.0,-26.0,3.3581628799438477,-2.369274377822876,0,0,0,40000
1073985,0.72295743227005,-2.609175682067871,14.0,27.0,3.404179573059082,-2.388530969619751,0,0,0,40000
1073995,0.730747401714325,-2.585753917694092,14.0,60.0,3.341610908508301,-2.4571170806884766,0,0,0,40000
1074005,0.7322219610214233,-2.5517189502716064,0.0,101.0,3.21439266204834,-2.4879112243652344,0,0,0,40000
1074015,0.7167106866836548,-2.5066184997558594,-35.0,53.0,3.019474983215332,-2.416594982147217,0,0,0,40000
1074025,0.7096372842788696,-2.47029972076416,10.0,80.0,2.8760738372802734,-2.395484209060669,0,0,0,40000
1074035,0.7130405306816101,-2.4048638343811035,0.0,121.0,2.5565309524536133,-2.437276601791382,0,0,0,40000
1074045,0.7163389325141907,-2.329531669616699,-9.0,174.0,2.1753501892089844,-2.478518009185791,0,0,0,40000
1074055,0.7126127481460571,-2.201936721801758,-7.0,194.0,1.477433204650879,-2.477572441101074,0,0,0,40000
1074065,0.7231435179710388,-2.1194164752960205,15.0,155.0,1.0468273162841797,-2.5622756481170654,0,0,0,40000
1074075,0.7195231318473816,-2.0153582096099854,-39.0,167.0,0.48419189453125,-2.562328338623047,0,0,0,40000
1074085,0.7130491733551025,-1.947709321975708,-4.0,138.0,0.13748836517333984,-2.5449323654174805,0,0,0,40000
1074095,0.7012079358100891,-1.8689326047897339,5.0,114.0,-0.2781553268432617,-2.4950191974639893,0,0,0,40000
1074105,0.7002764344215393,-1.8298125267028809,-9.0,61.0,-0.45754337310791016,-2.510460615158081,0,0,0,40000
1074115,0.6926630735397339,-1.8142868280410767,-18.0,10.0,-0.4961538314819336,-2.485731840133667,0,0,0,40000
1074125,0.6875538229942322,-1.8123358488082886,-9.0,-30.0,-0.45346546173095703,-2.4757659435272217,0,0,0,40000
1074135,0.679174542427063,-1.851925253868103,-19.0,-69.0,-0.16092300415039062,-2.4460060596466064,0,0,0,40000
1074145,0.6714939475059509,-1.8844670057296753,-14.0,-68.0,0.0904836654663086,-2.4201507568359375,0,0,0,40000
1074155,0.6611462235450745,-1.9411208629608154,-20.0,-63.0,0.4879932403564453,-2.3779988288879395,0,0,0,40000
1074165,0.6503286361694336,-1.9735420942306519,-14.0,-58.0,0.7413616180419922,-2.3327395915985107,0,0,0,40000
1074175,0.6358145475387573,-2.0130159854888916,-26.0,-38.0,1.0382022857666016,-2.264904737472534,0,0,0,40000
1074185,0.6323229670524597,-2.029917001724243,-13.0,-32.0,1.2003116607666016,-2.262953042984009,0,0,0,40000
1074195,0.6250401735305786,-2.0442893505096436,-3.0,-19.0,1.3477182388305664,-2.2380337715148926,0,0,0,40000
1074205,0.6155014038085938,-2.0428168773651123,-1.0,26.0,1.4002361297607422,-2.1993794441223145,0,0,0,40000
1074215,0.6069762706756592,-2.023477077484131,-5.0,28.0,1.3451099395751953,-2.1665635108947754,0,0,0,40000
1074225,0.6038907170295715,-2.0041160583496094,-10.0,38.0,1.2893009185791016,-2.1662180423736572,0,0,0,40000
1074235,0.5966089963912964,-1.9783791303634644,-11.0,51.0,1.1945581436157227,-2.1405296325683594,0,0,0,40000
1074245,0.5949586629867554,-1.9543088674545288,5.0,57.0,1.1090574264526367,-2.148479461669922,0,0,0,40000
1074255,0.596987783908844,-1.9203076362609863,4.0,49.0,0.9630641937255859,-2.178537368774414,0,0,0,40000
1074265,0.597026526927948,-1.897464394569397,-4.0,31.0,0.8831939697265625,-2.196673631668091,0,0,0,40000
1074275,0.5930572748184204,-1.8859285116195679,-13.0,7.0,0.8705940246582031,-2.190751552581787,0,0,0,40000
1074285,0.5861009955406189,-1.8927284479141235,9.0,-21.0,0.9680795669555664,-2.1666741371154785,0,0,0,40000
1074295,0.5891381502151489,-1.9142696857452393,9.0,-36.0,1.154458999633789,-2.2025301456451416,0,0,0,40000
1074305,0.5946308374404907,-1.9329966306686401,16.0,-50.0,1.3245868682861328,-2.253258228302002,0,0,0,40000
1074315,0.6042762398719788,-1.9833364486694336,-9.0,-71.0,1.6854496002197266,-2.3291640281677246,0,0,0,40000
1074325,0.606765866279602,-2.0221359729766846,16.0,-84.0,1.9784603118896484,-2.3622303009033203,0,0,0,40000
1074335,0.6125723123550415,-2.0644619464874268,18.0,-39.0,2.293975830078125,-2.4153738021850586,0,0,0,40000
1074345,0.6128426790237427,-2.0727972984313965,6.0,-26.0,2.406069755554199,-2.435387134552002,0,0,0,40000
1074355,0.6115776896476746,-2.0961594581604004,12.0,-18.0,2.608819007873535,-2.4461371898651123,0,0,0,40000
1074365,0.6192361116409302,-2.107915163040161,-4.0,-38.0,2.7424440383911133,-2.5105910301208496,0,0,0,40000
1074375,0.6124070286750793,-2.128134250640869,-22.0,-20.0,2.927374839782715,-2.4880728721618652,0,0,0,40000
1074385,0.6077384948730469,-2.130218744277954,3.0,-12.0,3.0037574768066406,-2.4783401489257812,0,0,0,40000
1074395,0.6064854860305786,-2.1216561794281006,-6.0,47.0,3.016254425048828,-2.4890668392181396,0,0,0,40000
1074405,0.602982223033905,-2.1002416610717773,-5.0,61.0,2.951045036315918,-2.4861717224121094,0,0,0,40000
1074415,0.5913386940956116,-2.0629096031188965,-16.0,65.0,2.7893667221069336,-2.434225082397461,0,0,0,40000
1074425,0.5854638814926147,-2.03202223777771,20.0,75.0,2.6654052734375,-2.416567802429199,0,0,0,40000
1074435,0.5850311517715454,-1.9788501262664795,27.0,103.0,2.406373977661133,-2.4315333366394043,0,0,0,40000
1074445,0.573591947555542,-1.9505679607391357,-58.0,89.0,2.2955799102783203,-2.380347490310669,0,0,0,40000
1074455,0.5650836229324341,-1.9083175659179688,3.0,60.0,2.0997533798217773,-2.3462424278259277,0,0,0,40000
1074465,0.5696527361869812,-1.878566026687622,-6.0,67.0,1.9779739379882812,-2.39070987701416,0,0,0,40000
1074475,0.5764322280883789,-1.8129844665527344,8.0,86.0,1.6396217346191406,-2.448577642440796,0,0,0,40000
1074485,0.5728241801261902,-1.7686430215835571,-3.0,96.0,1.4271488189697266,-2.444157838821411,0,0,0,40000
1074495,0.5752158761024475,-1.6818122863769531,-8.0,143.0,0.9577350616455078,-2.4757256507873535,0,0,0,40000
1074505,0.5718451142311096,-1.6341617107391357,-14.0,99.0,0.7214126586914062,-2.4727325439453125,0,0,0,40000
1074515,0.5589762330055237,-1.5799062252044678,-15.0,58.0,0.44381237030029297,-2.4124696254730225,0,0,0,40000
1074525,0.5533034205436707,-1.564359426498413,-1.0,5.0,0.3976173400878906,-2.3951056003570557,0,0,0,40000
1074535,0.5552737712860107,-1.5614537000656128,22.0,-10.0,0.42702770233154297,-2.423428535461426,0,0,0,40000
1074545,0.5596892833709717,-1.5684964656829834,9.0,-28.0,0.5162372589111328,-2.466668128967285,0,0,0,40000
1074555,0.5651429891586304,-1.5973961353302002,2.0,-45.0,0.7371292114257812,-2.516282558441162,0,0,0,40000
1074565,0.5605927109718323,-1.631108283996582,-3.0,-43.0,0.9879426956176758,-2.505875587463379,0,0,0,40000
1074575,0.5526835918426514,-1.6606431007385254,-22.0,-45.0,1.2146015167236328,-2.475219964981079,0,0,0,40000
1074585,0.5456534624099731,-1.671417474746704,-8.0,-16.0,1.3292932510375977,-2.4494948387145996,0,0,0,40000
1074595,0.5373613834381104,-1.6533395051956177,-22.0,33.0,1.2707090377807617,-2.4160566329956055,0,0,0,40000
1074605,0.5239759683609009,-1.6349385976791382,-25.0,50.0,1.2095584869384766,-2.3515872955322266,0,0,0,40000
1074615,0.5182424187660217,-1.5933376550674438,-21.0,75.0,1.0082368850708008,-2.332808494567871,0,0,0,40000
1074625,0.5055712461471558,-1.561691403388977,-42.0,88.0,0.8655977249145508,-2.2721076011657715,0,0,0,40000
1074635,0.47508788108825684,-1.508711814880371,-43.0,81.0,0.5935449600219727,-2.103820562362671,0,0,0,40000
1074645,0.46097174286842346,-1.4785211086273193,-24.0,104.0,0.4571418762207031,-2.033121347427368,0,0,0,40000
1074655,0.42697426676750183,-1.423431158065796,-44.0,64.0,0.16991615295410156,-1.8424134254455566,0,0,0,40000
1074665,0.4013461470603943,-1.4042046070098877,-25.0,24.0,0.09690666198730469,-1.700964093208313,0,0,0,40000
1074675,0.3773747980594635,-1.3920410871505737,-32.0,0.0,0.06577205657958984,-1.56871497631073,0,0,0,40000
1074685,0.36373674869537354,-1.396118402481079,-42.0,-11.0,0.1320514678955078,-1.4979658126831055,0,0,0,40000
1074695,0.347246378660202,-1.4388017654418945,-51.0,-64.0,0.4306774139404297,-1.4096792936325073,0,0,0,40000
1074705,0.3335205912590027,-1.4814016819000244,-43.0,-89.0,0.7301731109619141,-1.3374955654144287,0,0,0,40000
1074715,0.2982832193374634,-1.5652613639831543,-16.0,-116.0,1.2792835235595703,-1.1353435516357422,0,0,0,40000
1074725,0.2689830958843231,-1.6211438179016113,-22.0,-139.0,1.662531852722168,-0.9679540395736694,0,0,0,40000
1074735,0.2463604360818863,-1.683628797531128,1.0,-67.0,2.087404251098633,-0.8398037552833557,0,0,0,40000
1074745,0.24179045855998993,-1.7183963060379028,-14.0,-100.0,2.3471169471740723,-0.8196598291397095,0,0,0,40000
1074755,0.2353942096233368,-1.745308756828308,-33.0,-8.0,2.560713768005371,-0.7884527444839478,0,0,0,40000
1074765,0.23396189510822296,-1.7485995292663574,-32.0,13.0,2.63289213180542,-0.7869102358818054,0,0,0,40000
1074775,0.22264952957630157,-1.7303998470306396,-15.0,62.0,2.575892925262451,-0.7258186340332031,0,0,0,40000
1074785,0.21253179013729095,-1.706161379814148,16.0,105.0,2.4819493293762207,-0.6715807318687439,0,0,0,40000
1074795,0.19984914362430573,-1.622917890548706,5.0,133.0,2.0322914123535156,-0.6016236543655396,0,0,0,40000
1074805,0.18603971600532532,-1.5584583282470703,-56.0,151.0,1.6931219100952148,-0.524644136428833,0,0,0,40000
1074815,0.19027988612651825,-1.443724513053894,-10.0,151.0,1.0493783950805664,-0.5557215809822083,0,0,0,40000
1074825,0.19436483085155487,-1.393448829650879,3.0,91.0,0.7900829315185547,-0.5859934687614441,0,0,0,40000
1074835,0.20798422396183014,-1.3445243835449219,20.0,74.0,0.5373592376708984,-0.6737191677093506,0,0,0,40000
1074845,0.2193339318037033,-1.3348722457885742,-9.0,39.0,0.519587516784668,-0.7483102083206177,0,0,0,40000
1074855,0.20126020908355713,-1.358062505722046,-38.0,-32.0,0.6990818977355957,-0.6462377309799194,0,0,0,40000
1074865,0.1880076676607132,-1.3825948238372803,-28.0,-76.0,0.887448787689209,-0.5725470781326294,0,0,0,40000
1074875,0.16426099836826324,-1.4261236190795898,-32.0,-90.0,1.1908273696899414,-0.43528419733047485,0,0,0,40000
1074885,0.15446387231349945,-1.4573839902877808,-13.0,-93.0,1.4217443466186523,-0.3811832070350647,0,0,0,40000
1074895,0.15449339151382446,-1.5026588439941406,-2.0,-82.0,1.7378978729248047,-0.38590365648269653,0,0,0,40000
1074905,0.14870890974998474,-1.5411152839660645,-16.0,-62.0,2.0144004821777344,-0.3557339906692505,0,0,0,40000
1074915,0.1360762119293213,-1.5963232517242432,-35.0,-52.0,2.3928909301757812,-0.2843037247657776,0,0,0,40000
1074925,0.10821196436882019,-1.628184199333191,-73.0,-48.0,2.632530689239502,-0.12075960636138916,0,0,0,40000
1074935,0.0729251429438591,-1.647076964378357,-9.0,-13.0,2.795246124267578,0.08851683139801025,0,0,0,40000
1074945,0.04803219437599182,-1.6456997394561768,-8.0,-16.0,2.8363471031188965,0.23617714643478394,0,0,0,40000
1074955,0.03847602382302284,-1.620330572128296,0.0,22.0,2.7331418991088867,0.29231759905815125,0,0,0,40000
1074965,0.034726422280073166,-1.593254804611206,0.0,64.0,2.618821144104004,0.3137452006340027,0,0,0,40000
1074975,0.04492514580488205,-1.5519298315048218,0.0,77.0,2.4178905487060547,0.2513076066970825,0,0,0,40000
1074985,0.05758832395076752,-1.5166741609573364,12.0,103.0,2.2522897720336914,0.17374810576438904,0,0,0,40000
1074995,0.05127156898379326,-1.4654237031936646,-8.0,113.0,1.9894208908081055,0.21002912521362305,0,0,0,40000
1075005,0.0336693674325943,-1.435917615890503,-9.0,59.0,1.8557634353637695,0.3144451677799225,0,0,0,40000
1075015,0.012627456337213516,-1.3871642351150513,-5.0,49.0,1.6054167747497559,0.4401083290576935,0,0,0,40000
1075025,0.011980733834207058,-1.357437252998352,1.0,40.0,1.4681434631347656,0.4436340928077698,0,0,0,40000
1075035,0.02384115941822529,-1.3177504539489746,3.0,18.0,1.269935131072998,0.37191450595855713,0,0,0,40000
1075045,0.036594510078430176,-1.324854850769043,8.0,-43.0,1.3521809577941895,0.294464647769928,0,0,0,40000
1075055,0.042679596692323685,-1.3806203603744507,-4.0,-58.0,1.727431297302246,0.2566487789154053,0,0,0,40000
1075065,0.034081388264894485,-1.4281729459762573,-8.0,-67.0,2.0550317764282227,0.3070973753929138,0,0,0,40000
1075075,0.025109456852078438,-1.4843640327453613,2.0,-65.0,2.4360594749450684,0.3600524067878723,0,0,0,40000
1075085,0.0251476913690567,-1.4997262954711914,38.0,10.0,2.5731124877929688,0.3591175377368927,0,0,0,40000
1075095,0.030333081260323524,-1.4657907485961914,4.0,49.0,2.413973808288574,0.3271160125732422,0,0,0,40000
1075105,0.031148681417107582,-1.4151148796081543,5.0,123.0,2.153001308441162,0.32129955291748047,0,0,0,40000
1075115,0.039871398359537125,-1.2993674278259277,4.0,182.0,1.498945713043213,0.26786163449287415,0,0,0,40000
1075125,0.039044320583343506,-1.215924859046936,-10.0,212.0,1.035789966583252,0.27161169052124023,0,0,0,40000
1075135,0.023865003138780594,-1.0942312479019165,8.0,219.0,0.3399486541748047,0.36186647415161133,0,0,0,40000
1075145,0.02238069288432598,-1.0165510177612305,-2.0,169.0,-0.09470987319946289,0.3700616955757141,0,0,0,40000
1075155,0.019444385543465614,-0.9078127145767212,2.0,159.0,-0.7185525894165039,0.38709890842437744,0,0,0,40000
1075165,0.017218265682458878,-0.8453884124755859,-3.0,100.0,-1.0669984817504883,0.3999265730381012,0,0,0,40000
1075175,0.02339068613946438,-0.7857112288475037,7.0,48.0,-1.4009051322937012,0.3622746765613556,0,0,0,40000
1075185,0.027571920305490494,-0.7862383723258972,-10.0,-52.0,-1.374229907989502,0.3363930284976959,0,0,0,40000
1075195,0.025360001251101494,-0.8596080541610718,-14.0,-119.0,-0.9092674255371094,0.3488195538520813,0,0,0,40000
1075205,0.021858084946870804,-0.9330369234085083,-12.0,-145.0,-0.44158506393432617,0.3691295385360718,0,0,0,40000
1075215,0.015951791778206825,-1.0409010648727417,-6.0,-135.0,0.23550987243652344,0.404040664434433,0,0,0,40000
1075225,0.010893523693084717,-1.0893131494522095,5.0,-90.0,0.5515775680541992,0.43409329652786255,0,0,0,40000
1075235,0.00987924076616764,-1.1329357624053955,-6.0,-117.0,0.8467564582824707,0.43985992670059204,0,0,0,40000
1075245,0.019524680450558662,-1.1880109310150146,11.0,-74.0,1.2123332023620605,0.38156020641326904,0,0,0,40000
1075255,0.03082774579524994,-1.1961266994476318,-14.0,0.0,1.2968411445617676,0.3129247725009918,0,0,0,40000
1075265,0.019075077027082443,-1.1700963973999023,-36.0,64.0,1.176213264465332,0.3826606273651123,0,0,0,40000
1075275,0.002232225611805916,-1.1443595886230469,-4.0,98.0,1.0564422607421875,0.4834750294685364,0,0,0,40000
1075285,-0.012469418346881866,-1.0857234001159668,-11.0,122.0,0.7379674911499023,0.5718592405319214,0,0,0,40000
1075295,-0.02233709581196308,-1.0373384952545166,-13.0,105.0,0.47936201095581055,0.6316075325012207,0,0,0,40000
1075305,-0.02089810185134411,-0.9659823775291443,-2.0,112.0,0.08116769790649414,0.6237250566482544,0,0,0,40000
1075315,-0.017831463366746902,-0.9125394821166992,0.0,73.0,-0.2114877700805664,0.6058967709541321,0,0,0,40000
1075325,-0.02011270262300968,-0.8656914830207825,-25.0,26.0,-0.46615028381347656,0.620080292224884,0,0,0,40000
1075335,-0.033756323158741,-0.8582929968833923,0.0,-9.0,-0.4847416877746582,0.7027918100357056,0,0,0,40000
1075345,-0.05557660758495331,-0.8751013278961182,-16.0,-7.0,-0.35788869857788086,0.8350390195846558,0,0,0,40000
1075355,-0.07176673412322998,-0.893615186214447,-72.0,-24.0,-0.2202463150024414,0.9340739846229553,0,0,0,40000
1075365,-0.1009194403886795,-0.9462379217147827,-27.0,-83.0,0.12307405471801758,1.1117942333221436,0,0,0,40000
1075375,-0.11222906410694122,-0.9910956621170044,-19.0,-90.0,0.42142248153686523,1.1829190254211426,0,0,0,40000
1075385,-0.12619511783123016,-1.0415767431259155,-26.0,-78.0,0.7550253868103027,1.270365834236145,0,0,0,40000
1075395,-0.12585902214050293,-1.0734318494796753,-37.0,-80.0,0.9780035018920898,1.2721354961395264,0,0,0,40000
1075405,-0.13368085026741028,-1.1117546558380127,-21.0,-40.0,1.2408833503723145,1.323014497756958,0,0,0,40000
1075415,-0.15260782837867737,-1.120574951171875,-4.0,1.0,1.3273658752441406,1.4409540891647339,0,0,0,40000
1075425,-0.1687363237142563,-1.122119426727295,11.0,2.0,1.370279312133789,1.5426491498947144,0,0,0,40000
1075435,-0.17802777886390686,-1.1144028902053833,-12.0,18.0,1.3575177192687988,1.603607177734375,0,0,0,40000
1075445,-0.1787320375442505,-1.1202659606933594,-6.0,-3.0,1.426191806793213,1.613200306892395,0,0,0,40000
1075455,-0.17585226893424988,-1.1181498765945435,16.0,16.0,1.4471077919006348,1.6012256145477295,0,0,0,40000
1075465,-0.1731698364019394,-1.1106765270233154,-20.0,-3.0,1.4355926513671875,1.5902087688446045,0,0,0,40000
1075475,-0.16422869265079498,-1.1179088354110718,25.0,-19.0,1.5124216079711914,1.5416202545166016,0,0,0,40000
1075485,-0.16629081964492798,-1.1317039728164673,2.0,-19.0,1.628943920135498,1.5589113235473633,0,0,0,40000
1075495,-0.17053472995758057,-1.141761302947998,2.0,-6.0,1.72340726852417,1.5894476175308228,0,0,0,40000
1075505,-0.17105671763420105,-1.1586755514144897,9.0,-25.0,1.8594441413879395,1.597777009010315,0,0,0,40000
1075515,-0.16354751586914062,-1.1694920063018799,9.0,27.0,1.9593348503112793,1.5577267408370972,0,0,0,40000
1075525,-0.15293045341968536,-1.1572579145431519,6.0,20.0,1.9207839965820312,1.4987297058105469,0,0,0,40000
1075535,-0.14272063970565796,-1.1491353511810303,1.0,-4.0,1.906585693359375,1.4418816566467285,0,0,0,40000
1075545,-0.14304745197296143,-1.1533441543579102,11.0,3.0,1.9663982391357422,1.448113203048706,0,0,0,40000
1075555,-0.14553296566009521,-1.1508780717849731,6.0,11.0,1.9861536026000977,1.4673476219177246,0,0,0,40000
1075565,-0.14312908053398132,-1.1489337682724,10.0,14.0,2.0089597702026367,1.457252025604248,0,0,0,40000
1075575,-0.14681373536586761,-1.1387062072753906,4.0,44.0,1.981903076171875,1.4837422370910645,0,0,0,40000
1075585,-0.14091050624847412,-1.1123515367507935,2.0,56.0,1.8574886322021484,1.4526275396347046,0,0,0,40000
1075595,-0.12708105146884918,-1.0785179138183594,24.0,112.0,1.6872730255126953,1.373659610748291,0,0,0,40000
1075605,-0.10165821015834808,-0.9901509284973145,10.0,139.0,1.1878700256347656,1.22438645362854,0,0,0,40000
1075615,-0.09677161276340485,-0.9203304052352905,12.0,155.0,0.797398567199707,1.1980047225952148,0,0,0,40000
1075625,-0.09635164588689804,-0.8191209435462952,6.0,152.0,0.2159256935119629,1.1983566284179688,0,0,0,40000
1075635,-0.09595644474029541,-0.765870213508606,6.0,112.0,-0.07999134063720703,1.1988582611083984,0,0,0,40000
1075645,-0.10021287202835083,-0.7117239832878113,7.0,76.0,-0.3829464912414551,1.227402925491333,0,0,0,40000
1075655,-0.09970807284116745,-0.698593258857727,0.0,17.0,-0.4406595230102539,1.2273852825164795,0,0,0,40000
1075665,-0.09826026856899261,-0.7075492143630981,0.0,-21.0,-0.3658585548400879,1.2216660976409912,0,0,0,40000
1075675,-0.09684690833091736,-0.7296222448348999,-16.0,-67.0,-0.21180963516235352,1.2160775661468506,0,0,0,40000
1075685,-0.10455363988876343,-0.8013495802879333,-23.0,-144.0,0.2415633201599121,1.2653144598007202,0,0,0,40000
1075695,-0.1124805137515068,-0.8652210831642151,14.0,-140.0,0.6500067710876465,1.3161821365356445,0,0,0,40000
1075705,-0.09426073729991913,-0.9541146159172058,42.0,-110.0,1.2110114097595215,1.2099542617797852,0,0,0,40000
1075715,-0.10501407831907272,-1.0029106140136719,-15.0,-109.0,1.5333037376403809,1.2774748802185059,0,0,0,40000
1075725,-0.125574991106987,-1.078447937965393,-21.0,-77.0,2.0180611610412598,1.4043524265289307,0,0,0,40000
1075735,-0.12334500998258591,-1.1136397123336792,-19.0,-64.0,2.26224422454834,1.394684076309204,0,0,0,40000
1075745,-0.13765595853328705,-1.1543668508529663,-45.0,-56.0,2.540811538696289,1.484454870223999,0,0,0,40000
1075755,-0.14066345989704132,-1.1700955629348755,-33.0,-39.0,2.6701126098632812,1.5066664218902588,0,0,0,40000
1075765,-0.16207106411457062,-1.2061659097671509,-24.0,-36.0,2.9222888946533203,1.6397573947906494,0,0,0,40000
1075775,-0.17546948790550232,-1.228075623512268,-2.0,-27.0,3.0903449058532715,1.7252893447875977,0,0,0,40000
1075785,-0.1880669742822647,-1.230133295059204,-2.0,12.0,3.139669418334961,1.806386947631836,0,0,0,40000
1075795,-0.2029307633638382,-1.2322440147399902,3.0,14.0,3.1892738342285156,1.9014790058135986,0,0,0,40000
1075805,-0.1975618451833725,-1.248197078704834,-4.0,-4.0,3.322197914123535,1.8752257823944092,0,0,0,40000
1075815,-0.18694549798965454,-1.2517091035842896,-3.0,-25.0,3.380791664123535,1.817258596420288,0,0,0,40000
1075825,-0.17990826070308685,-1.261576771736145,32.0,-28.0,3.4777212142944336,1.7806622982025146,0,0,0,40000
1075835,-0.17113427817821503,-1.2729887962341309,57.0,0.0,3.584273338317871,1.7332836389541626,0,0,0,40000
1075845,-0.14120562374591827,-1.2664358615875244,49.0,14.0,3.583016872406006,1.558295488357544,0,0,0,40000
1075855,-0.12466815114021301,-1.256690502166748,42.0,40.0,3.5623884201049805,1.4629979133605957,0,0,0,40000
1075865,-0.0912754014134407,-1.228594183921814,46.0,48.0,3.4309728145599365,1.26580810546875,0,0,0,40000
1075875,-0.05663855001330376,-1.2009450197219849,62.0,64.0,3.3014469146728516,1.0601437091827393,0,0,0,40000
1075885,-0.008586561307311058,-1.1589246988296509,59.0,34.0,3.084469795227051,0.7726925015449524,0,0,0,40000
1075895,0.013576134108006954,-1.1400271654129028,82.0,23.0,3.0055270195007324,0.6395994424819946,0,0,0,40000
1075905,0.05849103629589081,-1.124000906944275,61.0,18.0,2.943264961242676,0.36880382895469666,0,0,0,40000
1075915,0.08694285899400711,-1.121612548828125,64.0,-12.0,2.9625728130340576,0.19579696655273438,0,0,0,40000
1075925,0.1278197318315506,-1.1258119344711304,11.0,5.0,3.0214924812316895,-0.052940189838409424,0,0,0,40000
1075935,0.13832436501979828,-1.1265994310379028,47.0,21.0,3.060033082962036,-0.11991560459136963,0,0,0,40000
1075945,0.16342784464359283,-1.1138437986373901,36.0,36.0,3.017134189605713,-0.2751527428627014,0,0,0,40000
1075955,0.1757340133190155,-1.095210313796997,36.0,56.0,2.938417911529541,-0.3541220426559448,0,0,0,40000
1075965,0.19811983406543732,-1.0489999055862427,12.0,57.0,2.693236827850342,-0.4941931962966919,0,0,0,40000
1075975,0.20175513625144958,-1.0344055891036987,14.0,35.0,2.6368730068206787,-0.5220047235488892,0,0,0,40000
1075985,0.2085922509431839,-1.0252596139907837,-8.0,-17.0,2.6127681732177734,-0.5692383050918579,0,0,0,40000
1075995,0.20090776681900024,-1.0439460277557373,-9.0,-67.0,2.7559332847595215,-0.529248058795929,0,0,0,40000
1076005,0.19583182036876678,-1.0923956632614136,0.0,-50.0,3.07883358001709,-0.5046567320823669,0,0,0,40000
1076015,0.18802551925182343,-1.1256779432296753,-52.0,-56.0,3.3119027614593506,-0.4636092185974121,0,0,0,40000
1076025,0.19656671583652496,-1.1479685306549072,20.0,0.0,3.479978084564209,-0.5203844308853149,0,0,0,40000
1076035,0.18689507246017456,-1.1396667957305908,-4.0,55.0,3.4644463062286377,-0.4680827260017395,0,0,0,40000
1076045,0.17123164236545563,-1.091005563735962,-15.0,98.0,3.2059028148651123,-0.37944501638412476,0,0,0,40000
1076055,0.16514644026756287,-1.0493379831314087,-20.0,102.0,2.98783802986145,-0.3479662537574768,0,0,0,40000
1076065,0.15521246194839478,-0.9966493844985962,-7.0,66.0,2.7021288871765137,-0.29308557510375977,0,0,0,40000
1076075,0.14499913156032562,-0.977725625038147,-28.0,25.0,2.618100881576538,-0.2362927794456482,0,0,0,40000
1076085,0.11952558159828186,-0.9790322184562683,-28.0,-9.0,2.6552324295043945,-0.08730959892272949,0,0,0,40000
1076095,0.10129553824663162,-0.9915950894355774,-33.0,-34.0,2.76021671295166,0.01881319284439087,0,0,0,40000
1076105,0.07389159500598907,-1.0182946920394897,-50.0,-72.0,2.9505534172058105,0.18058541417121887,0,0,0,40000
1076115,0.05322403460741043,-1.041216492652893,-31.0,-21.0,3.1190967559814453,0.3027661442756653,0,0,0,40000
1076125,-0.010432194918394089,-1.0386991500854492,-59.0,0.0,3.135199785232544,0.6842477917671204,0,0,0,40000
1076135,-0.006704211700707674,-1.0428920984268188,-15.0,-1.0,3.191596508026123,0.6621144413948059,0,0,0,40000
1076145,-0.01106187328696251,-1.0439355373382568,6.0,17.0,3.2292251586914062,0.6885895729064941,0,0,0,40000
1076155,-0.012221108190715313,-1.0417453050613403,18.0,11.0,3.2473607063293457,0.6959090828895569,0,0,0,40000
1076165,0.006875405553728342,-1.0262925624847412,15.0,37.0,3.185678720474243,0.5813090205192566,0,0,0,40000
1076175,0.01949208602309227,-1.0167235136032104,14.0,13.0,3.158853530883789,0.5051512122154236,0,0,0,40000
1076185,0.03506705164909363,-1.004164218902588,19.0,14.0,3.1137592792510986,0.4108174443244934,0,0,0,40000
1076195,0.045710038393735886,-0.9953875541687012,31.0,29.0,3.091050148010254,0.3457435369491577,0,0,0,40000
1076205,0.048215556889772415,-0.9767889976501465,44.0,37.0,3.008993625640869,0.3294341564178467,0,0,0,40000
1076215,0.0619971789419651,-0.9713821411132812,38.0,15.0,3.005765914916992,0.24504616856575012,0,0,0,40000
1076225,0.08465266972780228,-0.9693317413330078,46.0,2.0,3.0225489139556885,0.10686904191970825,0,0,0,40000
1076235,0.10176637023687363,-0.9647974967956543,30.0,14.0,3.0243406295776367,0.001314997673034668,0,0,0,40000
1076245,0.11665906012058258,-0.9480911493301392,25.0,44.0,2.952871561050415,-0.091339111328125,0,0,0,40000
1076255,0.12234525382518768,-0.9171608686447144,40.0,86.0,2.795189380645752,-0.1290346384048462,0,0,0,40000
1076265,0.13971306383609772,-0.869178831577301,43.0,80.0,2.533926010131836,-0.23716455698013306,0,0,0,40000
1076275,0.15833209455013275,-0.8325957655906677,50.0,63.0,2.339817523956299,-0.3533959984779358,0,0,0,40000
1076285,0.1871996968984604,-0.7820273637771606,53.0,81.0,2.0604920387268066,-0.5318450331687927,0,0,0,40000
1076295,0.1982906460762024,-0.7552268505096436,-4.0,66.0,1.9226417541503906,-0.6042311787605286,0,0,0,40000
1076305,0.21485291421413422,-0.7250988483428955,21.0,18.0,1.7638554573059082,-0.7098398208618164,19.996558487442687,0.3710103209936717,0,40000
1076315,0.21193620562553406,-0.7189540266990662,9.0,-17.0,-59.84261703491211,102.91429138183594,17.1716763125519,10.253464420231044,0,40000
1076325,0.22592103481292725,-0.7368524074554443,27.0,-34.0,-102.96056365966797,59.4002799987793,9.85587831017209,17.4029210977663,0,40000
1076335,0.24654756486415863,-0.7784708738327026,73.0,-119.0,-103.21015930175781,59.56510543823242,-0.0234890754145859,19.999986206578647,0,40000
1076345,0.32516318559646606,-0.9343681931495667,148.0,-304.0,-118.431396484375,-0.192130446434021,-9.951250086986384,17.348562525646138,0,40000
1076355,0.41066187620162964,-1.1858022212982178,195.0,-688.0,-101.51827239990234,-60.52193069458008,-17.20097411369943,10.20423880256838,0,40000
1076365,0.5526511073112488,-1.8286100625991821,221.0,-1089.0,-55.05531311035156,-105.4030532836914,-19.99639656067079,0.3796374433501682,0,40000
1076375,0.654475212097168,-2.42073917388916,181.0,-1392.0,7.499033451080322,-123.40487670898438,-17.605552747286023,-9.489178703266663,0,40000
1076385,0.7469677329063416,-3.4466423988342285,94.0,-1526.0,73.24290466308594,-110.16443634033203,-10.707038896874582,-16.89258174645944,0,40000
1076395,0.7580249309539795,-4.1149821281433105,-18.0,-1370.0,122.29568481445312,-69.1835708618164,-1.038086253605831,-19.973041253902085,0,40000
1076405,0.678819477558136,-4.917897701263428,-160.0,-1012.0,146.33387756347656,-10.747395515441895,8.943380105567488,-17.88898969442768,0,40000
1076415,0.574108898639679,-5.225085258483887,-289.0,-393.0,136.37527465820312,49.959556579589844,16.590808890344697,-11.168932821181233,0,40000
1076425,0.3416386544704437,-5.188504219055176,-371.0,368.0,96.36859130859375,97.67757415771484,19.938995628406072,-1.5609142610674125,0,40000
1076435,0.14585037529468536,-4.790611267089844,-436.0,1198.0,36.586551666259766,119.51274108886719,18.1126491868916,8.481269918626287,0,40000
1076445,-0.16354981064796448,-3.688432216644287,-466.0,1862.0,-30.348533630371094,110.9665298461914,11.575855298763354,16.309493373556776,0,40000
1076455,-0.3546340763568878,-2.6917145252227783,-422.0,2359.0,-83.64754486083984,73.28712463378906,2.1362992400659353,19.885578330963718,0,40000
1076465,-0.628068208694458,-0.9660864472389221,-391.0,2601.0,-115.9827880859375,18.426727294921875,-8.168760121386233,18.25572124237358,0,40000
1076475,-0.7763383984565735,0.26718011498451233,-304.0,2693.0,-114.15386199951172,-42.675689697265625,-16.28100501364648,11.615888934800388,0,40000
1076485,-0.9618588089942932,2.058987617492676,-246.0,2546.0,-85.53443908691406,-90.60032653808594,-19.893006601396593,2.065983629361945,0,40000
1076495,-1.0663353204727173,3.1366078853607178,-235.0,2246.0,-34.95866394042969,-112.16817474365234,-18.321107069424713,-8.021037074510737,0,40000
1076505,-1.2319042682647705,4.538934707641602,-227.0,1919.0,17.149066925048828,-102.2768325805664,-11.90146891078851,-16.073426447572857,0,40000
1076515,-1.357301115989685,5.305637359619141,-289.0,1545.0,61.098602294921875,-63.40154266357422,-2.398726501562962,-19.85563172429171,0,40000
1076525,-1.5798513889312744,6.21311092376709,-335.0,1197.0,78.72099304199219,-5.1911773681640625,7.918375478462195,-18.365710707241597,0,40000
1076535,-1.7520149946212769,6.652731418609619,-376.0,856.0,67.52706909179688,57.84673309326172,7.918375478462195,-18.365710707241597,0,40000
1076545,-2.0322442054748535,7.102262496948242,-403.0,549.0,27.061336517333984,108.29026794433594,15.980086169420256,-12.026505977128332,0,40000
1076555,-2.227057695388794,7.283805847167969,-392.0,306.0,-30.769203186035156,133.17820739746094,19.834902697032547,-2.5644950768623036,0,40000
1076565,-2.480937957763672,7.416046619415283,-344.0,133.0,-95.40628814697266,126.22244262695312,18.31215598234554,8.04145156537341,0,40000
1076575,-2.617973804473877,7.415048599243164,-278.0,-84.0,-144.3375244140625,88.85213470458984,11.848817984921531,16.1122783106611,0,40000
1076585,-2.758042335510254,7.257144451141357,-163.0,-332.0,-166.58865356445312,33.39833068847656,2.412527273648325,19.853959608952138,0,40000
1076595,-2.8027470111846924,6.999950885772705,-32.0,-717.0,-157.64410400390625,-26.539587020874023,-7.627752698654511,18.488304107412578,0,40000
1076605,-2.7935619354248047,6.33007287979126,55.0,-1156.0,-117.67648315429688,-75.28041076660156,-15.709839927832816,12.377436303284693,0,40000
1076615,-2.7464942932128906,5.6583452224731445,111.0,-1688.0,-58.08404541015625,-100.32686614990234,-19.768399568695322,3.0348605392021915,0,40000
1076625,-2.63238525390625,4.309107303619385,148.0,-2154.0,12.349775314331055,-94.42859649658203,-18.586983259534883,-7.384040446108754,0,40000
1076635,-2.5472562313079834,3.242626190185547,178.0,-2418.0,18.85996437072754,-95.41950225830078,-12.294992838644202,-15.774446142343248,0,40000
1076645,-2.447328567504883,1.5658259391784668,128.0,-2428.0,103.72907257080078,-2.469688892364502,-2.9557088503653803,-19.78038890395919,0,40000
1076655,-2.4161062240600586,0.5016899108886719,62.0,-2210.0,110.67962646484375,-2.6728739738464355,7.241264276740239,-18.643070875647222,0,40000
1076665,-2.3963944911956787,-0.8422043323516846,0.0,-1768.0,112.48851776123047,58.679866790771484,15.484964394777412,-12.657641079303673,0,40000
1076675,-2.3989031314849854,-1.4731394052505493,-11.0,-1112.0,80.77828979492188,108.69361877441406,19.712599497235292,-3.378375506304605,0,40000
1076685,-2.4133658409118652,-1.9509326219558716,-42.0,-433.0,28.125083923339844,134.80975341796875,18.825707939678583,6.752238189661465,0,40000
