timestamp,motor.m1,motor.m2,motor.m3,motor.m4,roll,pitch,yawdot,thrust
1025742,7315.0,39919.0,65535.0,39919.0,0,0,0,40000
1025752,7462.0,39772.0,65535.0,39772.0,0,0,0,40000
1025762,7582.0,39652.0,65535.0,39652.0,0,0,0,40000
1025772,7734.0,39500.0,65535.0,39500.0,0,0,0,40000
1025782,7850.0,39384.0,65535.0,39384.0,0,0,0,40000
1025792,8130.0,39104.0,65535.0,39104.0,0,0,0,40000
1025802,7991.0,39243.0,65535.0,39243.0,0,0,0,40000
1025812,8066.0,39168.0,65535.0,39168.0,0,0,0,40000
1025822,8058.0,39176.0,65535.0,39176.0,0,0,0,40000
1025832,7892.0,39342.0,65535.0,39342.0,0,0,0,40000
1025842,7564.0,39670.0,65535.0,39670.0,0,0,0,40000
1025852,7089.0,40145.0,65535.0,40145.0,0,0,0,40000
1025862,6630.0,40604.0,65535.0,40604.0,0,0,0,40000
1025872,18216.0,29018.0,59604.0,53162.0,0,0,0,40000
1025882,21489.0,25745.0,54805.0,57961.0,0,0,0,40000
1025892,33579.0,13655.0,41111.0,65535.0,0,0,0,40000
1025902,31854.0,15380.0,41300.0,65535.0,0,0,0,40000
1025912,37575.0,13305.0,33929.0,65535.0,0,0,0,40000
1025922,35767.0,13511.0,33723.0,65535.0,0,0,0,40000
1025932,38821.0,17339.0,29895.0,65535.0,0,0,0,40000
1025942,39576.0,18506.0,28728.0,65535.0,0,0,0,40000
1025952,47218.0,25820.0,21414.0,65535.0,0,0,0,40000
1025962,48766.0,28560.0,20108.0,62566.0,0,0,0,40000
1025972,54960.0,32816.0,14418.0,57806.0,0,0,0,40000
1025982,43549.0,39963.0,27077.0,49411.0,0,0,0,40000
1025992,42732.0,50922.0,29072.0,37274.0,0,0,0,40000
1026002,32296.0,60472.0,40620.0,26612.0,0,0,0,40000
1026012,33569.0,65535.0,40583.0,16295.0,0,0,0,40000
1026022,30854.0,65535.0,42556.0,16380.0,0,0,0,40000
1026032,35418.0,65535.0,38862.0,11816.0,0,0,0,40000
1026042,31963.0,65535.0,41531.0,15271.0,0,0,0,40000
1026052,35562.0,65535.0,37992.0,11672.0,0,0,0,40000
1026062,33049.0,65535.0,40125.0,14185.0,0,0,0,40000
1026072,36748.0,65535.0,36748.0,10486.0,0,0,0,40000
1026082,33769.0,65535.0,39945.0,13465.0,0,0,0,40000
1026092,35440.0,65535.0,38174.0,11794.0,0,0,0,40000
1026102,34943.0,65535.0,39459.0,12291.0,0,0,0,40000
1026112,32457.0,65535.0,42393.0,14777.0,0,0,0,40000
1026122,33165.0,65535.0,43007.0,14069.0,0,0,0,40000
1026132,38079.0,63949.0,38369.0,19603.0,0,0,0,40000
1026142,39926.0,55038.0,37660.0,27376.0,0,0,0,40000
1026152,47110.0,46890.0,31464.0,34536.0,0,0,0,40000
1026162,45524.0,42344.0,33654.0,38478.0,0,0,0,40000
1026172,50529.0,35483.0,28855.0,45133.0,0,0,0,40000
1026182,46847.0,32715.0,33135.0,47303.0,0,0,0,40000
1026192,48006.0,27368.0,32292.0,52334.0,0,0,0,40000
1026202,43413.0,30121.0,36201.0,50265.0,0,0,0,40000
1026212,40981.0,27231.0,38213.0,53575.0,0,0,0,40000
1026222,34727.0,31767.0,44429.0,49077.0,0,0,0,40000
1026232,31775.0,29883.0,46271.0,52071.0,0,0,0,40000
1026242,26552.0,35658.0,51774.0,46016.0,0,0,0,40000
1026252,22574.0,37170.0,55148.0,45108.0,0,0,0,40000
1026262,20558.0,38298.0,57874.0,43270.0,0,0,0,40000
1026272,17750.0,38492.0,59810.0,43948.0,0,0,0,40000
1026282,17937.0,39727.0,59859.0,42477.0,0,0,0,40000
1026292,15799.0,37829.0,62467.0,43905.0,0,0,0,40000
1026302,17686.0,40962.0,60698.0,40654.0,0,0,0,40000
1026312,19783.0,37461.0,58665.0,44091.0,0,0,0,40000
1026322,22112.0,38934.0,56342.0,42612.0,0,0,0,40000
1026332,23760.0,35172.0,54788.0,46280.0,0,0,0,40000
1026342,27366.0,35318.0,51092.0,46224.0,0,0,0,40000
1026352,28932.0,34274.0,50232.0,46562.0,0,0,0,40000
1026362,32319.0,33327.0,46831.0,47523.0,0,0,0,40000
1026372,33749.0,33899.0,46011.0,46341.0,0,0,0,40000
1026382,35704.0,36204.0,43442.0,44650.0,0,0,0,40000
1026392,37248.0,35770.0,42812.0,44170.0,0,0,0,40000
1026402,37012.0,38234.0,42488.0,42266.0,0,0,0,40000
1026412,36993.0,39905.0,43337.0,39765.0,0,0,0,40000
1026422,38050.0,42256.0,42586.0,37108.0,0,0,0,40000
1026432,38342.0,43290.0,43162.0,35206.0,0,0,0,40000
1026442,36571.0,45541.0,44555.0,33333.0,0,0,0,40000
1026452,36835.0,48365.0,44287.0,30513.0,0,0,0,40000
1026462,36055.0,48121.0,45061.0,30763.0,0,0,0,40000
1026472,36465.0,51275.0,45153.0,27107.0,0,0,0,40000
1026482,35694.0,50306.0,45108.0,28892.0,0,0,0,40000
1026492,37229.0,50171.0,44647.0,27953.0,0,0,0,40000
1026502,37062.0,48554.0,44058.0,30326.0,0,0,0,40000
1026512,40027.0,48095.0,41327.0,30551.0,0,0,0,40000
1026522,39869.0,47675.0,40261.0,32195.0,0,0,0,40000
1026532,41718.0,45476.0,39382.0,33424.0,0,0,0,40000
1026542,40548.0,43778.0,39746.0,35928.0,0,0,0,40000
1026552,41985.0,41487.0,38095.0,38433.0,0,0,0,40000
1026562,41845.0,41549.0,37905.0,38701.0,0,0,0,40000
1026572,42251.0,39685.0,38181.0,39883.0,0,0,0,40000
1026582,40883.0,42061.0,39159.0,37897.0,0,0,0,40000
1026592,37300.0,43018.0,41678.0,38004.0,0,0,0,40000
1026602,36209.0,42323.0,42903.0,38565.0,0,0,0,40000
1026612,33284.0,42156.0,45842.0,38718.0,0,0,0,40000
1026622,33225.0,42765.0,45709.0,38301.0,0,0,0,40000
1026632,31611.0,43803.0,47395.0,37191.0,0,0,0,40000
1026642,30620.0,44006.0,47872.0,37502.0,0,0,0,40000
1026652,30421.0,42445.0,48399.0,38735.0,0,0,0,40000
1026662,29949.0,41451.0,48449.0,40151.0,0,0,0,40000
1026672,31487.0,41775.0,47209.0,39529.0,0,0,0,40000
1026682,31617.0,39981.0,46867.0,41535.0,0,0,0,40000
1026692,32556.0,39612.0,46080.0,41752.0,0,0,0,40000
1026702,31965.0,37259.0,46779.0,43997.0,0,0,0,40000
1026712,33584.0,36972.0,45018.0,44426.0,0,0,0,40000
1026722,34313.0,36741.0,44417.0,44529.0,0,0,0,40000
1026732,34934.0,37412.0,43724.0,43930.0,0,0,0,40000
1026742,35485.0,37363.0,43481.0,43671.0,0,0,0,40000
1026752,35313.0,36215.0,43863.0,44609.0,0,0,0,40000
1026762,34597.0,37795.0,44195.0,43413.0,0,0,0,40000
1026772,34764.0,39228.0,44504.0,41504.0,0,0,0,40000
1026782,34169.0,42021.0,45507.0,38303.0,0,0,0,40000
1026792,34225.0,42163.0,44869.0,38743.0,0,0,0,40000
1026802,33190.0,42264.0,46840.0,37706.0,0,0,0,40000
1026812,32234.0,43726.0,47408.0,36632.0,0,0,0,40000
1026822,34594.0,42124.0,46070.0,37212.0,0,0,0,40000
1026832,34117.0,44357.0,44831.0,36695.0,0,0,0,40000
1026842,35064.0,44358.0,45720.0,34858.0,0,0,0,40000
1026852,34898.0,44252.0,44728.0,36122.0,0,0,0,40000
1026862,35807.0,42675.0,44951.0,36567.0,0,0,0,40000
1026872,36566.0,44528.0,43008.0,35898.0,0,0,0,40000
1026882,38008.0,43098.0,42514.0,36380.0,0,0,0,40000
1026892,37573.0,44461.0,42399.0,35567.0,0,0,0,40000
1026902,37773.0,42249.0,42353.0,37625.0,0,0,0,40000
1026912,38173.0,43143.0,41941.0,36743.0,0,0,0,40000
1026922,36989.0,42865.0,42705.0,37441.0,0,0,0,40000
1026932,36527.0,43047.0,43923.0,36503.0,0,0,0,40000
1026942,36414.0,44612.0,43208.0,35766.0,0,0,0,40000
1026952,36224.0,43298.0,43984.0,36494.0,0,0,0,40000
1026962,35006.0,44634.0,44702.0,35658.0,0,0,0,40000
1026972,35023.0,43533.0,44825.0,36619.0,0,0,0,40000
1026982,34217.0,43899.0,45655.0,36229.0,0,0,0,40000
1026992,35893.0,42389.0,43735.0,37983.0,0,0,0,40000
1027002,35654.0,43280.0,44080.0,36986.0,0,0,0,40000
1027012,36914.0,42282.0,42434.0,38370.0,0,0,0,40000
1027022,35078.0,40376.0,44608.0,39938.0,0,0,0,40000
1027032,34711.0,41233.0,44859.0,39197.0,0,0,0,40000
1027042,33520.0,41650.0,45886.0,38944.0,0,0,0,40000
1027052,34007.0,41477.0,45445.0,39071.0,0,0,0,40000
1027062,33331.0,42027.0,45799.0,38843.0,0,0,0,40000
1027072,34269.0,42157.0,45159.0,38415.0,0,0,0,40000
1027082,31768.0,41774.0,47140.0,39318.0,0,0,0,40000
1027092,32817.0,42075.0,47029.0,38079.0,0,0,0,40000
1027102,32268.0,40756.0,46486.0,40490.0,0,0,0,40000
1027112,33177.0,41215.0,46565.0,39043.0,0,0,0,40000
1027122,33621.0,41573.0,45275.0,39531.0,0,0,0,40000
1027132,34259.0,41029.0,45675.0,39037.0,0,0,0,40000
1027142,33644.0,41316.0,45494.0,39546.0,0,0,0,40000
1027152,33728.0,40992.0,45850.0,39430.0,0,0,0,40000
1027162,33862.0,42060.0,45576.0,38502.0,0,0,0,40000
1027172,35311.0,39929.0,44883.0,39877.0,0,0,0,40000
1027182,35223.0,42457.0,44275.0,38045.0,0,0,0,40000
1027192,34059.0,42497.0,45207.0,38237.0,0,0,0,40000
1027202,35189.0,42365.0,45021.0,37425.0,0,0,0,40000
1027212,34208.0,42346.0,45200.0,38246.0,0,0,0,40000
1027222,34180.0,43054.0,46090.0,36676.0,0,0,0,40000
1027232,34895.0,43373.0,44757.0,36975.0,0,0,0,40000
1027242,35343.0,43029.0,44877.0,36751.0,0,0,0,40000
1027252,35738.0,42764.0,43678.0,37820.0,0,0,0,40000
1027262,34923.0,42281.0,45241.0,37555.0,0,0,0,40000
1027272,34750.0,41948.0,44432.0,38870.0,0,0,0,40000
1027282,35534.0,41410.0,44584.0,38472.0,0,0,0,40000
1027292,35098.0,42966.0,44648.0,37288.0,0,0,0,40000
1027302,35247.0,43153.0,44481.0,37119.0,0,0,0,40000
1027312,34782.0,42030.0,45032.0,38156.0,0,0,0,40000
1027322,35660.0,40998.0,44352.0,38990.0,0,0,0,40000
1027332,35683.0,41527.0,43205.0,39585.0,0,0,0,40000
1027342,35707.0,41481.0,44327.0,38485.0,0,0,0,40000
1027352,35359.0,42109.0,44269.0,38263.0,0,0,0,40000
1027362,34935.0,40891.0,45035.0,39139.0,0,0,0,40000
1027372,35411.0,41597.0,44171.0,38821.0,0,0,0,40000
1027382,34689.0,41529.0,45293.0,38489.0,0,0,0,40000
1027392,33025.0,41817.0,46267.0,38891.0,0,0,0,40000
1027402,34213.0,41797.0,45461.0,38529.0,0,0,0,40000
1027412,34564.0,40664.0,44956.0,39816.0,0,0,0,40000
1027422,34828.0,40678.0,44658.0,39836.0,0,0,0,40000
1027432,35278.0,39350.0,44824.0,40548.0,0,0,0,40000
1027442,33900.0,41892.0,45420.0,38788.0,0,0,0,40000
1027452,33981.0,41595.0,45943.0,38481.0,0,0,0,40000
1027462,34937.0,43631.0,44047.0,37385.0,0,0,0,40000
1027472,34739.0,40881.0,44907.0,39473.0,0,0,0,40000
1027482,34004.0,41776.0,45844.0,38376.0,0,0,0,40000
1027492,33701.0,42257.0,45855.0,38187.0,0,0,0,40000
1027502,34579.0,43723.0,45109.0,36589.0,0,0,0,40000
1027512,34547.0,42309.0,45661.0,37483.0,0,0,0,40000
1027522,35119.0,41251.0,44861.0,38769.0,0,0,0,40000
1027532,34304.0,42856.0,45204.0,37636.0,0,0,0,40000
1027542,35030.0,40788.0,44466.0,39716.0,0,0,0,40000
1027552,35342.0,42192.0,44488.0,37978.0,0,0,0,40000
1027562,34972.0,43446.0,44904.0,36678.0,0,0,0,40000
1027572,34721.0,42689.0,45447.0,37143.0,0,0,0,40000
1027582,33825.0,44289.0,45719.0,36167.0,0,0,0,40000
1027592,33667.0,42861.0,46175.0,37297.0,0,0,0,40000
1027602,33775.0,43387.0,45451.0,37387.0,0,0,0,40000
1027612,34738.0,42860.0,45300.0,37102.0,0,0,0,40000
1027622,35359.0,41731.0,44507.0,38403.0,0,0,0,40000
1027632,36402.0,39510.0,43588.0,40500.0,0,0,0,40000
1027642,36362.0,39446.0,42928.0,41264.0,0,0,0,40000
1027652,36063.0,39479.0,43907.0,40551.0,0,0,0,40000
1027662,35686.0,39582.0,43594.0,41138.0,0,0,0,40000
1027672,36720.0,40250.0,43370.0,39660.0,0,0,0,40000
1027682,36546.0,40372.0,42478.0,40604.0,0,0,0,40000
1027692,37613.0,38963.0,42451.0,40973.0,0,0,0,40000
1027702,34984.0,41708.0,44592.0,38716.0,0,0,0,40000
1027712,33916.0,41220.0,46092.0,38772.0,0,0,0,40000
1027722,32392.0,41956.0,46684.0,38968.0,0,0,0,40000
1027732,32766.0,42128.0,46838.0,38268.0,0,0,0,40000
1027742,33720.0,42286.0,46376.0,37618.0,0,0,0,40000
1027752,33062.0,42172.0,45982.0,38784.0,0,0,0,40000
1027762,32470.0,41142.0,47578.0,38810.0,0,0,0,40000
1027772,33302.0,42478.0,46012.0,38208.0,0,0,0,40000
1027782,34228.0,41632.0,46306.0,37834.0,0,0,0,40000
1027792,34527.0,41265.0,44409.0,39799.0,0,0,0,40000
1027802,34471.0,41503.0,45293.0,38733.0,0,0,0,40000
1027812,35513.0,40813.0,44407.0,39267.0,0,0,0,40000
1027822,35021.0,41815.0,44277.0,38887.0,0,0,0,40000
1027832,35221.0,40483.0,44775.0,39521.0,0,0,0,40000
1027842,34705.0,41127.0,44487.0,39681.0,0,0,0,40000
1027852,35091.0,40979.0,45243.0,38687.0,0,0,0,40000
1027862,34679.0,42249.0,44947.0,38125.0,0,0,0,40000
1027872,34413.0,41145.0,45221.0,39221.0,0,0,0,40000
1027882,33932.0,42238.0,45352.0,38478.0,0,0,0,40000
1027892,35007.0,42531.0,44799.0,37663.0,0,0,0,40000
1027902,34952.0,40594.0,45236.0,39218.0,0,0,0,40000
1027912,34159.0,42119.0,45021.0,38701.0,0,0,0,40000
1027922,34269.0,42389.0,46207.0,37135.0,0,0,0,40000
1027932,34071.0,43739.0,45291.0,36899.0,0,0,0,40000
1027942,34102.0,42696.0,45762.0,37440.0,0,0,0,40000
1027952,34381.0,42821.0,45017.0,37781.0,0,0,0,40000
1027962,34534.0,41888.0,45574.0,38004.0,0,0,0,40000
1027972,35704.0,42052.0,43978.0,38266.0,0,0,0,40000
1027982,35226.0,41120.0,44616.0,39038.0,0,0,0,40000
1027992,36261.0,41803.0,43465.0,38471.0,0,0,0,40000
1028002,37975.0,40971.0,41987.0,39067.0,0,0,0,40000
1028012,36009.0,42223.0,43255.0,38513.0,0,0,0,40000
1028022,35784.0,40408.0,44116.0,39692.0,0,0,0,40000
1028032,35189.0,41389.0,44749.0,38673.0,0,0,0,40000
1028042,35722.0,40846.0,44166.0,39266.0,0,0,0,40000
1028052,35343.0,41489.0,44205.0,38963.0,0,0,0,40000
1028062,35168.0,41646.0,44226.0,38960.0,0,0,0,40000
1028072,34457.0,41679.0,45535.0,38329.0,0,0,0,40000
1028082,34467.0,42033.0,44829.0,38671.0,0,0,0,40000
1028092,34827.0,41909.0,45669.0,37595.0,0,0,0,40000
1028102,34547.0,42623.0,44895.0,37935.0,0,0,0,40000
1028112,34874.0,42582.0,45422.0,37122.0,0,0,0,40000
1028122,34259.0,43371.0,44815.0,37555.0,0,0,0,40000
1028132,35860.0,41146.0,43868.0,39126.0,0,0,0,40000
1028142,35387.0,40115.0,44419.0,40079.0,0,0,0,40000
1028152,34388.0,40928.0,45824.0,38860.0,0,0,0,40000
1028162,33568.0,41666.0,45224.0,39542.0,0,0,0,40000
1028172,34976.0,41704.0,45328.0,37992.0,0,0,0,40000
1028182,34020.0,42682.0,45386.0,37912.0,0,0,0,40000
1028192,34134.0,41320.0,45762.0,38784.0,0,0,0,40000
1028202,32928.0,42986.0,46034.0,38052.0,0,0,0,40000
1028212,33292.0,41956.0,46778.0,37974.0,0,0,0,40000
1028222,33981.0,41887.0,45945.0,38187.0,0,0,0,40000
1028232,34737.0,40929.0,44865.0,39469.0,0,0,0,40000
1028242,35771.0,40317.0,43941.0,39971.0,0,0,0,40000
1028252,36876.0,40702.0,42798.0,39624.0,0,0,0,40000
1028262,35330.0,40012.0,44682.0,39976.0,0,0,0,40000
1028272,34649.0,41027.0,44257.0,40067.0,0,0,0,40000
1028282,34417.0,40569.0,45589.0,39425.0,0,0,0,40000
1028292,35009.0,40427.0,44451.0,40113.0,0,0,0,40000
1028302,35381.0,41367.0,44915.0,38337.0,0,0,0,40000
1028312,34620.0,42738.0,44342.0,38300.0,0,0,0,40000
1028322,33270.0,41976.0,46944.0,37810.0,0,0,0,40000
1028332,33080.0,42698.0,46230.0,37992.0,0,0,0,40000
1028342,33447.0,43407.0,47081.0,36065.0,0,0,0,40000
1028352,34137.0,43995.0,45201.0,36667.0,0,0,0,40000
1028362,33736.0,44126.0,46360.0,35778.0,0,0,0,40000
1028372,33692.0,43882.0,45796.0,36630.0,0,0,0,40000
1028382,34377.0,43189.0,45973.0,36461.0,0,0,0,40000
1028392,34547.0,43347.0,44991.0,37115.0,0,0,0,40000
1028402,35126.0,43088.0,44690.0,37096.0,0,0,0,40000
1028412,36089.0,42737.0,43795.0,37379.0,0,0,0,40000
1028422,36519.0,42239.0,43259.0,37983.0,0,0,0,40000
1028432,35514.0,41872.0,43894.0,38720.0,0,0,0,40000
1028442,35796.0,41192.0,43768.0,39244.0,0,0,0,40000
1028452,37330.0,41550.0,43074.0,38046.0,0,0,0,40000
1028462,36762.0,42022.0,42350.0,38866.0,0,0,0,40000
1028472,36406.0,42182.0,43596.0,37816.0,0,0,0,40000
1028482,36271.0,41855.0,43123.0,38751.0,0,0,0,40000
1028492,35581.0,41387.0,44891.0,38141.0,0,0,0,40000
1028502,33791.0,42651.0,45489.0,38069.0,0,0,0,40000
1028512,35760.0,42846.0,44200.0,37194.0,0,0,0,40000
1028522,34444.0,43878.0,45068.0,36610.0,0,0,0,40000
1028532,34579.0,41989.0,45595.0,37837.0,0,0,0,40000
1028542,35319.0,41803.0,44069.0,38809.0,0,0,0,40000
1028552,35980.0,42412.0,44168.0,37440.0,0,0,0,40000
1028562,35569.0,41563.0,43685.0,39183.0,0,0,0,40000
1028572,35495.0,40987.0,44449.0,39069.0,0,0,0,40000
1028582,35981.0,40829.0,43843.0,39347.0,0,0,0,40000
1028592,36221.0,41377.0,43487.0,38915.0,0,0,0,40000
1028602,35375.0,42047.0,43997.0,38581.0,0,0,0,40000
1028612,35240.0,40618.0,44614.0,39528.0,0,0,0,40000
1028622,35843.0,40791.0,43901.0,39465.0,0,0,0,40000
1028632,35010.0,39972.0,45090.0,39928.0,0,0,0,40000
1028642,35529.0,42369.0,43475.0,38627.0,0,0,0,40000
1028652,35098.0,40956.0,45340.0,38606.0,0,0,0,40000
1028662,34143.0,42153.0,44949.0,38755.0,0,0,0,40000
1028672,34091.0,41479.0,45923.0,38507.0,0,0,0,40000
1028682,33523.0,40479.0,45705.0,40293.0,0,0,0,40000
1028692,34989.0,41253.0,45019.0,38739.0,0,0,0,40000
1028702,34999.0,41391.0,44589.0,39021.0,0,0,0,40000
1028712,35134.0,42204.0,44842.0,37820.0,0,0,0,40000
1028722,34825.0,42047.0,44591.0,38537.0,0,0,0,40000
1028732,35448.0,40210.0,44064.0,40278.0,0,0,0,40000
1028742,35575.0,40527.0,44349.0,39549.0,0,0,0,40000
1028752,35452.0,41008.0,44090.0,39450.0,0,0,0,40000
1028762,35044.0,42500.0,44890.0,37566.0,0,0,0,40000
1028772,35220.0,41524.0,44166.0,39090.0,0,0,0,40000
1028782,36018.0,41322.0,44486.0,38174.0,0,0,0,40000
1028792,35136.0,43204.0,43942.0,37718.0,0,0,0,40000
1028802,34852.0,42848.0,44946.0,37354.0,0,0,0,40000
1028812,33290.0,42696.0,46020.0,37994.0,0,0,0,40000
1028822,34774.0,41822.0,45564.0,37840.0,0,0,0,40000
1028832,34530.0,44058.0,44924.0,36488.0,0,0,0,40000
1028842,35402.0,42604.0,44452.0,37542.0,0,0,0,40000
1028852,35460.0,43352.0,44386.0,36802.0,0,0,0,40000
1028862,35345.0,42135.0,44701.0,37819.0,0,0,0,40000
1028872,36221.0,41187.0,42959.0,39633.0,0,0,0,40000
1028882,36157.0,41165.0,43893.0,38785.0,0,0,0,40000
1028892,36070.0,41178.0,43466.0,39286.0,0,0,0,40000
1028902,36456.0,41374.0,43776.0,38394.0,0,0,0,40000
1028912,35764.0,41836.0,43684.0,38716.0,0,0,0,40000
1028922,36409.0,41759.0,43219.0,38613.0,0,0,0,40000
1028932,36083.0,41197.0,43963.0,38757.0,0,0,0,40000
1028942,34316.0,41036.0,44882.0,39766.0,0,0,0,40000
1028952,35104.0,41862.0,45090.0,37944.0,0,0,0,40000
1028962,34538.0,42876.0,44506.0,38080.0,0,0,0,40000
1028972,33922.0,43446.0,46592.0,36040.0,0,0,0,40000
1028982,34306.0,43828.0,44850.0,37016.0,0,0,0,40000
1028992,34552.0,41268.0,45746.0,38434.0,0,0,0,40000
1029002,35073.0,42323.0,43963.0,38641.0,0,0,0,40000
1029012,34287.0,41255.0,45841.0,38617.0,0,0,0,40000
1029022,34281.0,41677.0,44979.0,39063.0,0,0,0,40000
1029032,35526.0,41912.0,44876.0,37686.0,0,0,0,40000
1029042,35315.0,41311.0,43885.0,39489.0,0,0,0,40000
1029052,35323.0,41281.0,44863.0,38533.0,0,0,0,40000
1029062,34023.0,42051.0,45623.0,38303.0,0,0,0,40000
1029072,34423.0,40995.0,44949.0,39633.0,0,0,0,40000
1029082,34218.0,40812.0,45574.0,39396.0,0,0,0,40000
1029092,35451.0,40761.0,44121.0,39667.0,0,0,0,40000
1029102,35440.0,41072.0,44340.0,39148.0,0,0,0,40000
1029112,34943.0,41633.0,44905.0,38519.0,0,0,0,40000
1029122,35202.0,40924.0,44528.0,39346.0,0,0,0,40000
1029132,34799.0,40863.0,44915.0,39423.0,0,0,0,40000
1029142,34546.0,42084.0,44622.0,38748.0,0,0,0,40000
1029152,34715.0,42083.0,44777.0,38425.0,0,0,0,40000
1029162,34679.0,41021.0,45529.0,38771.0,0,0,0,40000
1029172,34587.0,41313.0,45221.0,38879.0,0,0,0,40000
1029182,35522.0,41340.0,44202.0,38936.0,0,0,0,40000
1029192,35131.0,42621.0,44367.0,37881.0,0,0,0,40000
1029202,34171.0,42603.0,45703.0,37523.0,0,0,0,40000
1029212,33789.0,43061.0,46259.0,36891.0,0,0,0,40000
1029222,35278.0,41816.0,43812.0,39094.0,0,0,0,40000
1029232,34710.0,41594.0,45480.0,38216.0,0,0,0,40000
1029242,35261.0,41915.0,44445.0,38379.0,0,0,0,40000
1029252,35217.0,42031.0,45065.0,37687.0,0,0,0,40000
1029262,35119.0,42267.0,43865.0,38749.0,0,0,0,40000
1029272,35389.0,41675.0,44411.0,38525.0,0,0,0,40000
1029282,36675.0,40483.0,43155.0,39687.0,0,0,0,40000
1029292,35578.0,41452.0,44030.0,38940.0,0,0,0,40000
1029302,35206.0,40652.0,44652.0,39490.0,0,0,0,40000
1029312,35569.0,41377.0,44379.0,38675.0,0,0,0,40000
1029322,36128.0,41982.0,43478.0,38412.0,0,0,0,40000
1029332,36010.0,43738.0,43546.0,36706.0,0,0,0,40000
1029342,34593.0,43297.0,44757.0,37353.0,0,0,0,40000
1029352,33898.0,41842.0,46146.0,38114.0,0,0,0,40000
1029362,34331.0,42917.0,45547.0,37205.0,0,0,0,40000
1029372,34504.0,42486.0,45216.0,37794.0,0,0,0,40000
1029382,35152.0,42434.0,44580.0,37834.0,0,0,0,40000
1029392,35635.0,42549.0,43739.0,38077.0,0,0,0,40000
1029402,35080.0,42040.0,44808.0,38072.0,0,0,0,40000
1029412,33850.0,41608.0,45800.0,38742.0,0,0,0,40000
1029422,35251.0,41293.0,44609.0,38847.0,0,0,0,40000
1029432,35136.0,41088.0,44648.0,39128.0,0,0,0,40000
1029442,35414.0,41446.0,44762.0,38378.0,0,0,0,40000
1029452,34218.0,42364.0,45650.0,37768.0,0,0,0,40000
1029462,33839.0,41289.0,45615.0,39257.0,0,0,0,40000
1029472,33099.0,43065.0,46203.0,37633.0,0,0,0,40000
1029482,34292.0,41912.0,45910.0,37886.0,0,0,0,40000
1029492,33736.0,42240.0,45756.0,38268.0,0,0,0,40000
1029502,34841.0,42035.0,45385.0,37739.0,0,0,0,40000
1029512,35129.0,41871.0,44103.0,38897.0,0,0,0,40000
1029522,35355.0,40949.0,44637.0,39059.0,0,0,0,40000
1029532,35902.0,39482.0,43402.0,41214.0,0,0,0,40000
1029542,34810.0,40648.0,45238.0,39304.0,0,0,0,40000
1029552,34127.0,40849.0,45339.0,39685.0,0,0,0,40000
1029562,35403.0,41687.0,44147.0,38763.0,0,0,0,40000
1029572,35693.0,42067.0,43905.0,38335.0,0,0,0,40000
1029582,34502.0,41592.0,45358.0,38548.0,0,0,0,40000
1029592,34617.0,42689.0,45083.0,37611.0,0,0,0,40000
1029602,32662.0,44044.0,47272.0,36022.0,0,0,0,40000
1029612,32778.0,43792.0,46414.0,37016.0,0,0,0,40000
1029622,33965.0,43835.0,46395.0,35805.0,0,0,0,40000
1029632,33443.0,44203.0,46055.0,36299.0,0,0,0,40000
1029642,33946.0,42928.0,46042.0,37084.0,0,0,0,40000
1029652,33065.0,42455.0,46049.0,38431.0,0,0,0,40000
1029662,35215.0,41263.0,45075.0,38447.0,0,0,0,40000
1029672,36050.0,42340.0,43266.0,38344.0,0,0,0,40000
1029682,35656.0,41110.0,44050.0,39184.0,0,0,0,40000
1029692,35370.0,41482.0,44264.0,38884.0,0,0,0,40000
1029702,36686.0,40890.0,43008.0,39416.0,0,0,0,40000
1029712,36343.0,40971.0,43721.0,38965.0,0,0,0,40000
1029722,34713.0,42399.0,44601.0,38287.0,0,0,0,40000
1029732,35295.0,41187.0,44521.0,38997.0,0,0,0,40000
1029742,34110.0,41740.0,45252.0,38898.0,0,0,0,40000
1029752,34432.0,40906.0,45770.0,38892.0,0,0,0,40000
1029762,34411.0,42105.0,44665.0,38819.0,0,0,0,40000
1029772,33997.0,41177.0,46303.0,38523.0,0,0,0,40000
1029782,33314.0,43186.0,46026.0,37474.0,0,0,0,40000
1029792,34422.0,42402.0,45696.0,37480.0,0,0,0,40000
1029802,34215.0,42155.0,45101.0,38529.0,0,0,0,40000
1029812,33478.0,42168.0,46532.0,37822.0,0,0,0,40000
1029822,33416.0,43166.0,46286.0,37132.0,0,0,0,40000
1029832,34403.0,42219.0,45579.0,37799.0,0,0,0,40000
1029842,34445.0,42147.0,45027.0,38381.0,0,0,0,40000
1029852,34082.0,41264.0,46068.0,38586.0,0,0,0,40000
1029862,35579.0,41991.0,44017.0,38413.0,0,0,0,40000
1029872,34348.0,41102.0,45026.0,39524.0,0,0,0,40000
1029882,34074.0,42422.0,45510.0,37994.0,0,0,0,40000
1029892,34660.0,41420.0,45026.0,38894.0,0,0,0,40000
1029902,34892.0,42500.0,44892.0,37716.0,0,0,0,40000
1029912,34837.0,42547.0,45353.0,37263.0,0,0,0,40000
1029922,35107.0,40939.0,44251.0,39703.0,0,0,0,40000
1029932,35787.0,40417.0,44555.0,39241.0,0,0,0,40000
1029942,34617.0,40611.0,44757.0,40015.0,0,0,0,40000
1029952,34507.0,43421.0,45141.0,36931.0,0,0,0,40000
1029962,34513.0,42245.0,44647.0,38595.0,0,0,0,40000
1029972,35697.0,41975.0,44503.0,37825.0,0,0,0,40000
1029982,34188.0,42980.0,45496.0,37336.0,0,0,0,40000
1029992,33634.0,42208.0,46106.0,38052.0,0,0,0,40000
1030002,33385.0,41897.0,46237.0,38481.0,0,0,0,40000
1030012,34435.0,42085.0,45657.0,37823.0,0,0,0,40000
1030022,33682.0,42712.0,45606.0,38000.0,0,0,0,40000
1030032,35394.0,42390.0,44872.0,37344.0,0,0,0,40000
1030042,35332.0,44354.0,43928.0,36386.0,0,0,0,40000
1030052,36011.0,40599.0,44099.0,39291.0,0,0,0,40000
1030062,34665.0,40523.0,44897.0,39915.0,0,0,0,40000
1030072,34562.0,41418.0,45354.0,38666.0,0,0,0,40000
1030082,34865.0,41803.0,44419.0,38913.0,0,0,0,40000
1030092,36125.0,41189.0,43873.0,38813.0,0,0,0,40000
1030102,35468.0,40602.0,44272.0,39658.0,0,0,0,40000
1030112,35765.0,40883.0,44217.0,39135.0,0,0,0,40000
1030122,34770.0,41650.0,44444.0,39136.0,0,0,0,40000
1030132,35200.0,41424.0,45324.0,38052.0,0,0,0,40000
1030142,34123.0,42641.0,44913.0,38323.0,0,0,0,40000
1030152,33165.0,42485.0,46881.0,37469.0,0,0,0,40000
1030162,33219.0,43059.0,45735.0,37987.0,0,0,0,40000
1030172,34363.0,41729.0,46145.0,37763.0,0,0,0,40000
1030182,34797.0,42419.0,44415.0,38369.0,0,0,0,40000
1030192,35426.0,41468.0,44922.0,38184.0,0,0,0,40000
1030202,35483.0,41565.0,43817.0,39135.0,0,0,0,40000
1030212,35810.0,40924.0,44280.0,38986.0,0,0,0,40000
1030222,34351.0,42941.0,44539.0,38169.0,0,0,0,40000
1030232,35443.0,40901.0,44881.0,38775.0,0,0,0,40000
1030242,35735.0,41181.0,43939.0,39145.0,0,0,0,40000
1030252,36046.0,40662.0,44078.0,39214.0,0,0,0,40000
1030262,34990.0,41508.0,44282.0,39220.0,0,0,0,40000
1030272,34793.0,40825.0,45529.0,38853.0,0,0,0,40000
1030282,33582.0,42108.0,45442.0,38868.0,0,0,0,40000
1030292,33824.0,42564.0,45966.0,37646.0,0,0,0,40000
1030302,33671.0,42933.0,45687.0,37709.0,0,0,0,40000
1030312,33566.0,43388.0,46982.0,36064.0,0,0,0,40000
1030322,33588.0,43892.0,45500.0,37020.0,0,0,0,40000
1030332,33939.0,41747.0,46411.0,37903.0,0,0,0,40000
1030342,34755.0,41791.0,44449.0,39005.0,0,0,0,40000
1030352,35201.0,42135.0,45245.0,37419.0,0,0,0,40000
1030362,34017.0,42427.0,44545.0,39011.0,0,0,0,40000
1030372,35148.0,40870.0,45032.0,38950.0,0,0,0,40000
1030382,35236.0,40706.0,44108.0,39950.0,0,0,0,40000
1030392,34795.0,40811.0,45923.0,38471.0,0,0,0,40000
1030402,34644.0,42358.0,44368.0,38630.0,0,0,0,40000
1030412,34974.0,41590.0,45146.0,38290.0,0,0,0,40000
1030422,34583.0,42089.0,44657.0,38671.0,0,0,0,40000
1030432,34082.0,40934.0,46194.0,38790.0,0,0,0,40000
1030442,33261.0,42867.0,46015.0,37857.0,0,0,0,40000
1030452,33723.0,42479.0,45879.0,37919.0,0,0,0,40000
1030462,33317.0,44149.0,46329.0,36205.0,0,0,0,40000
1030472,32717.0,44499.0,47139.0,35645.0,0,0,0,40000
1030482,32330.0,43508.0,47158.0,37004.0,0,0,0,40000
1030492,33690.0,42314.0,46216.0,37780.0,0,0,0,40000
1030502,34970.0,41342.0,45068.0,38620.0,0,0,0,40000
1030512,34921.0,41319.0,44915.0,38845.0,0,0,0,40000
1030522,34355.0,42539.0,44767.0,38339.0,0,0,0,40000
1030532,34689.0,41547.0,45219.0,38545.0,0,0,0,40000
1030542,35241.0,42095.0,44643.0,38021.0,0,0,0,40000
1030552,34962.0,42186.0,44928.0,37924.0,0,0,0,40000
1030562,34602.0,41910.0,44906.0,38582.0,0,0,0,40000
1030572,34584.0,42426.0,45100.0,37890.0,0,0,0,40000
1030582,35585.0,41763.0,44363.0,38289.0,0,0,0,40000
1030592,35823.0,41481.0,44069.0,38627.0,0,0,0,40000
1030602,34854.0,41478.0,44894.0,38774.0,0,0,0,40000
1030612,34502.0,42128.0,45078.0,38292.0,0,0,0,40000
1030622,34460.0,42164.0,45720.0,37656.0,0,0,0,40000
1030632,34378.0,42890.0,45138.0,37594.0,0,0,0,40000
1030642,33232.0,42700.0,46110.0,37958.0,0,0,0,40000
1030652,33210.0,41922.0,46340.0,38528.0,0,0,0,40000
1030662,33751.0,42031.0,46605.0,37613.0,0,0,0,40000
1030672,34567.0,42251.0,45007.0,38175.0,0,0,0,40000
1030682,33340.0,41744.0,46542.0,38374.0,0,0,0,40000
1030692,34135.0,42923.0,45451.0,37491.0,0,0,0,40000
1030702,33824.0,41370.0,45716.0,39090.0,0,0,0,40000
1030712,34739.0,41557.0,44977.0,38727.0,0,0,0,40000
1030722,34836.0,40702.0,44388.0,40074.0,0,0,0,40000
1030732,34935.0,40687.0,45483.0,38895.0,0,0,0,40000
1030742,35978.0,39846.0,43634.0,40542.0,19.99998925387031,0.020732705372993723,0,40000
1030752,20649.0,26585.0,58825.0,53941.0,19.337083705022337,5.106583376873381,0,40000
1030762,17581.0,29653.0,62047.0,50719.0,17.407407665386007,9.847951988665487,0,40000
1030772,15967.0,34805.0,64217.0,45011.0,14.3308436562922,13.950875244905232,0,40000
1030782,15005.0,41213.0,64477.0,39305.0,10.243173118525963,17.177817220587343,0,40000
1030792,17521.0,45719.0,62291.0,34469.0,5.3305590165360766,19.276543792164247,0,40000
1030802,23320.0,50322.0,55938.0,30420.0,0.26472379775955757,19.99824795603104,0,40000
1030812,31380.0,52182.0,49538.0,26900.0,-4.843094237649773,19.404752979753276,0,40000
1030822,39932.0,54462.0,39868.0,25738.0,-10.314108039607952,17.13531952860216,0,40000
1030832,48827.0,53361.0,31051.0,26761.0,-14.323903481491822,13.958000897438946,0,40000
1030842,57330.0,50182.0,21744.0,30744.0,-17.38713047089149,9.883708513923137,0,40000
1030852,63109.0,48903.0,18243.0,29745.0,-17.38713047089149,9.883708513923137,0,40000
1030862,65535.0,45054.0,12284.0,34950.0,-19.32691733481812,5.14492627091068,0,40000
1030872,65535.0,42976.0,10346.0,36888.0,-19.999861979756382,0.07430202349302141,0,40000
1030882,65535.0,40767.0,8275.0,39167.0,-19.35788122050288,-5.027169646322073,0,40000
1030892,65535.0,37658.0,13250.0,42532.0,-17.377409292945764,-9.900790183891496,0,40000
1030902,52853.0,21249.0,25985.0,59913.0,-14.221230602698311,-14.062595782602763,0,40000
1030912,43583.0,13157.0,34077.0,65535.0,-10.173198100334634,-17.21935075464077,0,40000
1030922,34076.0,13158.0,43788.0,65535.0,-5.461535418396462,-19.239844876547238,0,40000
1030932,23061.0,24173.0,54923.0,57843.0,-0.3883843147006395,-19.996228585013085,0,40000
1030942,9776.0,37458.0,65535.0,44404.0,4.722773219972938,-19.43438738712148,0,40000
1030952,6129.0,41105.0,65535.0,41105.0,9.586719988235519,-17.552629428868073,0,40000
1030962,6607.0,40627.0,65535.0,40627.0,13.772051542527306,-14.502778916813536,0,40000
1030972,7219.0,40015.0,65535.0,40015.0,17.06946282947541,-10.42273662303511,0,40000
1030982,7927.0,39307.0,65535.0,39307.0,19.160415178184046,-5.733976822382046,0,40000
1030992,8061.0,39173.0,65535.0,39173.0,19.988765230409957,-0.6702720071388899,0,40000
1031002,8530.0,38704.0,65535.0,38704.0,19.497548190044427,4.454841700542836,0,40000
1031012,9039.0,38195.0,65535.0,38195.0,17.646722950277844,9.412394441168368,0,40000
1031022,8859.0,38375.0,65535.0,38375.0,14.609373069640888,13.658924500561954,0,40000
1031032,9182.0,38052.0,65535.0,38052.0,10.587329991320555,16.967865029369026,0,40000
1031042,8936.0,38298.0,65535.0,38298.0,5.918896841527481,19.104100611631946,0,40000
1031052,9013.0,38221.0,65535.0,38221.0,0.8300286473260403,19.982768888335222,0,40000
1031062,9752.0,39748.0,65535.0,37482.0,-4.278714459351308,19.536954792785338,0,40000
1031072,13710.0,45072.0,65535.0,33524.0,-9.119168338850127,17.800021595709186,0,40000
1031082,16538.0,48772.0,63994.0,30696.0,-13.360343973497478,14.88291668020182,0,40000
1031092,21529.0,54617.0,58149.0,25705.0,-16.695476141929507,11.011860714441617,0,40000
1031102,27717.0,56949.0,51579.0,23755.0,-18.951596947766866,6.390381297653026,0,40000
1031112,38866.0,50288.0,39246.0,31600.0,-19.953755432525636,1.3592807432438838,0,40000
1031122,55955.0,38815.0,22337.0,42893.0,-19.64433517442949,-3.7550093947515455,0,40000
1031132,59179.0,34043.0,18485.0,48293.0,-17.996868982632705,-8.724259671854847,0,40000
1031142,61572.0,30618.0,16616.0,51194.0,-15.191045574142795,-13.008925180979274,0,40000
1031152,58665.0,27757.0,19477.0,54101.0,-11.389326778748776,-16.44029304869217,0,40000
1031162,55251.0,23941.0,23293.0,57515.0,-6.823257536484354,-18.800083951695786,0,40000
1031172,52874.0,20996.0,26238.0,59892.0,-1.791156058235663,-19.919632526104635,0,40000
1031182,50559.0,18517.0,28717.0,62207.0,3.3171731119575747,-19.72299070996348,0,40000
1031192,41668.0,17902.0,38066.0,62364.0,3.3171731119575747,-19.72299070996348,0,40000
1031202,28988.0,22178.0,49682.0,59152.0,8.239474101071858,-18.223914687513386,0,40000
1031212,19028.0,28206.0,61176.0,51590.0,12.621047504318852,-15.514804539333614,0,40000
1031222,7680.0,39554.0,65535.0,40614.0,16.137234258126007,-11.814807256081853,0,40000
1031232,7386.0,39848.0,65535.0,39848.0,18.633595849936142,-7.265611171900308,0,40000
1031242,6979.0,40255.0,65535.0,40255.0,19.873189642809464,-2.2486292315387804,0,40000
1031252,7360.0,39874.0,65535.0,39874.0,19.784776909071116,2.9261925190059515,0,40000
1031262,9381.0,43275.0,65535.0,37853.0,18.375423646801295,7.895809382234081,0,40000
1031272,16024.0,50640.0,62126.0,31210.0,15.739313686639239,12.339935359375701,0,40000
1031282,24760.0,60634.0,52132.0,22474.0,12.032154739360298,15.975833384461968,0,40000
1031292,33598.0,65535.0,43178.0,13636.0,7.343816720583911,18.60291256697381,0,40000
1031302,37910.0,65535.0,37910.0,9324.0,2.369217523666318,19.8591744119828,0,40000
1031312,20852.0,59148.0,53618.0,26382.0,-2.8483996015320407,19.796126381441198,0,40000
1031322,25801.0,65535.0,46829.0,21433.0,-7.842153435820506,18.398386600162763,0,40000
1031332,29754.0,65535.0,43052.0,17480.0,-12.280998711879343,15.78534353882797,0,40000
1031342,35665.0,65535.0,36537.0,11569.0,-15.883006081551851,12.154427909753174,0,40000
1031352,35999.0,65535.0,35999.0,11235.0,-18.466656792741375,7.68001216790044,0,40000
1031362,36304.0,65535.0,35858.0,11376.0,-19.831768574878044,2.588620326057818,0,40000
1031372,44507.0,65535.0,28307.0,18927.0,-19.835087046670022,-2.5630688346244423,0,40000
1031382,56287.0,56479.0,17703.0,29531.0,-18.524159661017713,-7.540259203311526,0,40000
1031392,61331.0,51435.0,13437.0,33797.0,-15.970857255431014,-12.038759011071136,0,40000
1031402,65535.0,42170.0,5064.0,42170.0,-12.401896405233813,-15.690537452676647,0,40000
1031412,65535.0,39566.0,7668.0,43350.0,-8.004127213214616,-18.328500963108716,0,40000
1031422,65535.0,35358.0,11876.0,46238.0,-3.072641948809747,-19.762562370664757,0,40000
1031432,58285.0,31689.0,20483.0,49543.0,2.068010037893255,-19.892796044879482,0,40000
1031442,52954.0,27380.0,26248.0,53418.0,7.04851521446174,-18.716795486180356,0,40000
1031452,36687.0,30229.0,42785.0,50299.0,11.656047232655524,-16.252278699004133,0,40000
1031462,25818.0,31030.0,54380.0,48772.0,15.430745030220193,-12.723682950008415,0,40000
1031472,14123.0,37497.0,65535.0,42009.0,18.176366444688757,-8.343842212577643,0,40000
1031482,7941.0,39293.0,65535.0,39293.0,19.700573924796487,-3.4478090193090476,0,40000
1031492,7787.0,39447.0,65535.0,39447.0,19.93167058665559,1.6518194892446558,0,40000
1031502,7958.0,39276.0,65535.0,39276.0,18.834673438260175,6.72718934430247,0,40000
1031512,7932.0,39302.0,65535.0,39302.0,18.834673438260175,6.72718934430247,0,40000
1031522,7910.0,39324.0,65535.0,39324.0,13.054107573649336,15.152236648613664,0,40000
1031532,9708.0,40868.0,65535.0,37526.0,13.054107573649336,15.152236648613664,0,40000
1031542,12644.0,44018.0,65535.0,34590.0,3.903804591810589,19.615308045222196,0,40000
1031552,16930.0,48438.0,64328.0,30304.0,3.903804591810589,19.615308045222196,0,40000
1031562,20635.0,52825.0,59941.0,26599.0,-1.2106249370880704,19.9633260570903,0,40000
1031572,24364.0,57386.0,55380.0,22870.0,-6.256335582104756,18.99626976761727,0,40000
1031582,29063.0,62073.0,50693.0,18171.0,-10.916944942307481,16.75769414706651,0,40000
1031592,32210.0,65535.0,46716.0,15024.0,-14.821275770306626,13.428692584928799,0,40000
1031602,43191.0,60799.0,36615.0,19395.0,-17.74732527719962,9.22130389398763,0,40000
1031612,65535.0,40431.0,6803.0,40431.0,-19.535106999850314,4.287142930250788,0,40000
1031622,65535.0,38958.0,8276.0,42020.0,-19.982962314057417,-0.8253588037702473,0,40000
1031632,64579.0,32603.0,14631.0,48187.0,-19.05020259371305,-6.090138022942383,0,40000
1031642,56672.0,24696.0,22538.0,56094.0,-16.84041517435347,-10.7889024815041,0,40000
1031652,49298.0,17062.0,30172.0,63468.0,-13.542327006028769,-14.717519467008831,0,40000
1031662,59418.0,26928.0,20306.0,53348.0,-9.34359147543189,-17.68324908890435,0,40000
1031672,55062.0,22940.0,24294.0,57704.0,-4.461851302554997,-19.495945295211726,0,40000
1031682,48733.0,16759.0,30475.0,64033.0,0.6554197322807167,-19.98925773945939,0,40000
1031692,37738.0,22462.0,40252.0,59548.0,5.708943060360776,-19.167889010883762,0,40000
1031702,24127.0,24139.0,54889.0,56845.0,10.422225207653373,-17.069775092863836,0,40000
1031712,15456.0,31778.0,63284.0,49482.0,14.57035509033804,-13.700538403342415,0,40000
1031722,7325.0,39909.0,65535.0,39909.0,17.65185273801013,-9.402770597839996,0,40000
1031732,7210.0,40024.0,65535.0,40024.0,19.470422221023213,-4.571942534097023,0,40000
1031742,7777.0,39457.0,65535.0,39457.0,19.99295083142019,0.5309586164804685,0,40000
1031752,7357.0,39877.0,65535.0,39877.0,19.199270968607816,5.602498931188934,0,40000
1031762,7712.0,39522.0,65535.0,39522.0,17.14248457086412,10.302195044634203,0,40000
1031772,7676.0,39558.0,65535.0,39558.0,13.943832054930885,14.337696733572026,0,40000
1031782,8144.0,39090.0,65535.0,39090.0,9.840336625225504,17.411713732491858,0,40000
1031792,8017.0,39217.0,65535.0,39217.0,5.096501995161001,19.33974320960131,0,40000
1031802,8939.0,41833.0,65535.0,38295.0,-0.05728451672229562,19.999917961935342,0,40000
1031812,14207.0,47327.0,65439.0,33027.0,-5.265960698592126,19.29429081155571,0,40000
1031822,18560.0,52414.0,60352.0,28674.0,-10.002248621745121,17.319209638687266,0,40000
1031832,24346.0,58830.0,53936.0,22888.0,-14.165674063456297,14.1185579408069,0,40000
1031842,38578.0,65535.0,38578.0,8656.0,-17.37776524160362,9.900165413149072,0,40000
1031852,30937.0,65535.0,46261.0,16297.0,-17.37776524160362,9.900165413149072,0,40000
1031862,62632.0,50134.0,14382.0,32852.0,-19.32778027413896,5.141683544774503,0,40000
1031872,53506.0,53216.0,24136.0,29142.0,-19.999999775591178,0.0029960562151816928,0,40000
1031882,63939.0,34805.0,12429.0,48827.0,-19.32271817687536,-5.160674593214589,0,40000
1031892,65535.0,37563.0,11341.0,45097.0,-17.370107396066818,-9.913595162659451,0,40000
1031902,53010.0,21518.0,25716.0,59756.0,-14.311184579520262,-13.971041333089723,0,40000
1031912,61300.0,29646.0,17588.0,51466.0,-10.277017626575219,-17.157590410750053,0,40000
1031922,59161.0,27117.0,20117.0,53605.0,-5.570739087261529,-19.20851024992976,0,40000
1031932,39333.0,7901.0,39333.0,65535.0,-0.4342741776898457,-19.995284592588117,0,40000
1031942,47798.0,23364.0,32362.0,56476.0,4.764219723369245,-19.42426859440168,0,40000
1031952,34738.0,26156.0,44048.0,55058.0,9.658685499498274,-17.513132056310823,0,40000
1031962,22890.0,30396.0,56796.0,49918.0,13.838905991064383,-14.438998613840308,0,40000
1031972,6955.0,40279.0,65535.0,40279.0,17.063089312227877,-10.433167453987057,0,40000
1031982,7739.0,39495.0,65535.0,39495.0,19.1493851983928,-5.770705894738942,0,40000
1031992,7387.0,39847.0,65535.0,39847.0,19.987200066227885,-0.715425406719729,0,40000
1032002,7163.0,40071.0,65535.0,40071.0,19.481378750949304,4.525028393508807,0,40000
1032012,7140.0,40094.0,65535.0,40094.0,17.65281046822423,9.400972426986105,0,40000
1032022,7064.0,40170.0,65535.0,40170.0,14.55630917049496,13.715460740819623,0,40000
1032032,9418.0,42934.0,65535.0,37816.0,10.624415414204037,16.944668692731163,0,40000
1032042,13963.0,47277.0,65489.0,33271.0,5.897257479708086,19.11079156440222,0,40000
1032052,17631.0,52523.0,60243.0,29603.0,0.827035163066608,19.982893004744117,0,40000
1032062,20673.0,56701.0,56065.0,26561.0,-4.268997317278356,19.539080375111574,0,40000
1032072,26085.0,63045.0,49721.0,21149.0,-9.083098671091214,17.8184544372182,0,40000
1032082,31417.0,65535.0,44115.0,15817.0,-13.390103353296878,14.856147959280282,0,40000
1032092,37373.0,65535.0,38773.0,9861.0,-16.74119032685626,10.942236811547009,0,40000
1032102,37442.0,65535.0,37442.0,9792.0,-18.980351057811877,6.304464586483101,0,40000
1032112,41367.0,65535.0,33823.0,13411.0,-19.958498007854317,1.2877722121847681,0,40000
1032122,49656.0,63110.0,25734.0,21500.0,-19.630960095489613,-3.8243176815341213,0,40000
1032132,61059.0,51707.0,15355.0,31879.0,-18.008979793443295,-8.699232540825143,0,40000
1032142,65535.0,46847.0,10713.0,36521.0,-18.008979793443295,-8.699232540825143,0,40000
1032152,65535.0,39345.0,7889.0,42395.0,-11.383119706021498,-16.44459138313826,0,40000
1032162,65535.0,33907.0,13327.0,46997.0,-11.383119706021498,-16.44459138313826,0,40000
1032172,60910.0,28298.0,18936.0,51856.0,-6.82337018857903,-18.80004306563182,0,40000
1032182,39483.0,7751.0,39483.0,65535.0,-1.6884825467846767,-19.9285982118463,0,40000
1032192,36062.0,11172.0,42772.0,65535.0,3.492186299371502,-19.69275589780369,0,40000
1032202,21104.0,26130.0,58148.0,54618.0,8.367143120187539,-18.16565209416657,0,40000
1032212,10133.0,37101.0,65535.0,43023.0,12.745676140420683,-15.412583810753826,0,40000
1032222,7143.0,40091.0,65535.0,40091.0,16.310741827567664,-11.574096121703612,0,40000
1032232,7603.0,39631.0,65535.0,39631.0,18.788938068514266,-6.853889863248122,0,40000
1032242,7353.0,39881.0,65535.0,39881.0,19.91784102584765,-1.8109690414417003,0,40000
1032252,7515.0,39719.0,65535.0,39719.0,19.727168965285557,3.2922339854685836,0,40000
1032262,7516.0,39718.0,65535.0,39718.0,18.251117222560765,8.179041516482588,0,40000
1032272,7864.0,39370.0,65535.0,39370.0,15.579862679473788,12.540649061700908,0,40000
1032282,7931.0,39303.0,65535.0,39303.0,11.89829032343009,16.07577952633619,0,40000
1032292,7677.0,39557.0,65535.0,39557.0,7.416773307306537,18.573946099524065,0,40000
1032302,11991.0,43993.0,65535.0,35243.0,2.4260889657999787,19.85230697752842,0,40000
1032312,17585.0,49693.0,63073.0,29649.0,-2.7717495353022263,19.807003925721624,0,40000
1032322,20746.0,53874.0,58892.0,26488.0,-7.724915035858767,18.447918248104937,0,40000
1032332,24003.0,57927.0,54839.0,23231.0,-12.298017324765048,15.772088317016827,0,40000
1032342,28740.0,61800.0,50966.0,18494.0,-15.914778607139779,12.112795791464745,0,40000
1032352,33452.0,65535.0,44558.0,15044.0,-18.478874516158935,7.650568385162755,0,40000
1032362,46263.0,60793.0,33231.0,19713.0,-19.81643630529684,2.703488886256666,0,40000
1032372,56500.0,51410.0,20686.0,31404.0,-19.844382712490777,-2.490075251914538,0,40000
1032382,63438.0,43806.0,15718.0,37038.0,-18.556473557148973,-7.460381298756183,0,40000
1032392,65535.0,35981.0,11253.0,45501.0,-16.035190426544897,-11.9529355383706,0,40000
1032402,65261.0,32937.0,14297.0,47505.0,-12.48633316933014,-15.623427408366128,0,40000
1032412,60744.0,29266.0,17968.0,52022.0,-8.095402962394761,-18.288369278764307,0,40000
1032422,57043.0,24393.0,22841.0,55723.0,-3.1350335993825373,-19.752760929316757,0,40000
1032432,51882.0,20718.0,26516.0,60884.0,2.0661028304573517,-19.892994221433234,0,40000
1032442,42271.0,17471.0,36217.0,64041.0,7.059953517845537,-18.712483969956004,0,40000
1032452,29103.0,21197.0,49055.0,60645.0,11.604081411490823,-16.28942278275977,0,40000
1032462,18038.0,29196.0,60894.0,51872.0,11.604081411490823,-16.28942278275977,0,40000
1032472,8938.0,38296.0,65535.0,41998.0,15.466517405725389,-12.680175051567451,0,40000
1032482,7046.0,40188.0,65535.0,40188.0,19.728902237011635,-3.2818312757418457,0,40000
1032492,6965.0,40269.0,65535.0,40269.0,19.728902237011635,-3.2818312757418457,0,40000
1032502,7043.0,40191.0,65535.0,40191.0,19.91362131478263,1.8567945851479928,0,40000
1032512,7652.0,39582.0,65535.0,39582.0,18.739043994748318,6.9891508899784816,0,40000
1032522,10868.0,44032.0,65535.0,36366.0,16.34044046306429,11.53212926883198,0,40000
1032532,18688.0,50246.0,62520.0,28546.0,12.862044816587776,15.315606521979062,0,40000
1032542,25834.0,58298.0,54468.0,21400.0,8.531162830985426,18.089202877717213,0,40000
1032552,31884.0,63962.0,48804.0,15350.0,3.6255644481791682,19.66863702527705,0,40000
1032562,36206.0,65535.0,42308.0,11028.0,-1.4770280525589379,19.945385133708346,0,40000
1032572,38957.0,65535.0,38957.0,8277.0,-6.5088122267453326,18.911249651912758,0,40000
1032582,39070.0,65535.0,39070.0,8164.0,-11.111205369217387,16.629525406429213,0,40000
1032592,29925.0,64939.0,47827.0,17309.0,-15.015309819054735,13.211376576186089,0,40000
1032602,31053.0,65535.0,46165.0,16181.0,-17.916023833590494,8.889099504123994,0,40000
1032612,34890.0,65535.0,41136.0,12344.0,-19.60214566733256,3.9693683674704934,0,40000
1032622,37540.0,65535.0,39062.0,12740.0,-19.957371585541154,-1.3051127907711852,0,40000
1032632,51565.0,61201.0,24967.0,22267.0,-18.965870509819062,-6.347893808561668,0,40000
1032642,56092.0,54060.0,21434.0,28414.0,-16.679292001118224,-11.036358925906388,0,40000
1032652,63836.0,40598.0,13818.0,41748.0,-13.19364261087193,-15.030894672526466,0,40000
1032662,60333.0,34403.0,18881.0,46383.0,-8.95420494368514,-17.883573854978895,0,40000
1032672,57897.0,26603.0,20631.0,54869.0,-4.104584639460324,-19.574278656888136,0,40000
1032682,52442.0,25804.0,26962.0,54792.0,1.0203731027507243,-19.97395400843766,0,40000
1032692,45739.0,23891.0,32611.0,57759.0,6.10611701197909,-19.04508690019606,0,40000
1032702,34166.0,25152.0,46368.0,54314.0,10.764269001351241,-16.856171358483184,0,40000
1032712,22111.0,26475.0,56985.0,54429.0,14.694452377719074,-13.56735306973863,0,40000
1032722,13862.0,33372.0,65535.0,46366.0,17.672768261656124,-9.363400128681892,0,40000
1032732,7350.0,39884.0,65535.0,39884.0,19.472119404141466,-4.5647087432669,0,40000
1032742,7365.0,39869.0,65535.0,39869.0,19.99272636322004,0.5393445702019954,0,40000
1032752,7307.0,39927.0,65535.0,39927.0,19.196347699951627,5.612507014032313,0,40000
1032762,6951.0,40283.0,65535.0,40283.0,17.09284004494763,10.384354539297798,0,40000
1032772,7483.0,39751.0,65535.0,39751.0,13.909168457104869,14.371326759623797,0,40000
1032782,7284.0,39950.0,65535.0,39950.0,9.784677071874784,17.443052903638396,0,40000
1032792,10755.0,43765.0,65535.0,36479.0,5.049901115821464,19.351963691585027,0,40000
1032802,14653.0,48789.0,63977.0,32581.0,5.049901115821464,19.351963691585027,0,40000
1032812,20205.0,54049.0,58717.0,27029.0,-5.421634298234076,19.25112676017204,0,40000
1032822,24440.0,58790.0,53976.0,22794.0,-5.421634298234076,19.25112676017204,0,40000
1032832,30504.0,65036.0,47730.0,16730.0,-10.16349754018012,17.225078163850306,0,40000
1032842,34923.0,65505.0,42221.0,17351.0,-14.223674062974494,14.060124329118384,0,40000
1032852,50400.0,58428.0,27920.0,23252.0,-17.33901391236462,9.96787823695826,0,40000
1032862,58476.0,54290.0,19318.0,27916.0,-19.312070666023025,5.200377543076373,0,40000
1032872,65535.0,40618.0,6616.0,40618.0,-19.999804443648483,0.0884432915397155,0,40000
1032882,65535.0,37332.0,9902.0,44378.0,-19.327040645173714,-5.144463033184633,0,40000
1032892,64462.0,31496.0,15738.0,48304.0,-17.378417755802836,-9.899019966885442,0,40000
1032902,55051.0,23003.0,24231.0,57715.0,-14.275558889449464,-14.007441536335621,0,40000
1032912,48398.0,16118.0,31116.0,64368.0,-10.248730878471726,-17.174501896144182,0,40000
1032922,39349.0,8407.0,38827.0,65535.0,-5.505445613967979,-19.227326090531694,0,40000
1032932,55712.0,24458.0,23054.0,56776.0,-0.43127882298331305,-19.99534942372466,0,40000
1032942,45313.0,28783.0,32795.0,53109.0,4.706934040798341,-19.438229650242683,0,40000
1032952,31177.0,30767.0,47745.0,50311.0,9.501202855890515,-17.599066574429962,0,40000
1032962,19236.0,34716.0,59084.0,46964.0,13.68647556975466,-14.583565629794,0,40000
1032972,6555.0,40679.0,65535.0,40679.0,16.957833831798727,-10.603389634126557,0,40000
1032982,6473.0,40761.0,65535.0,40761.0,19.097741085249773,-5.939384264447195,0,40000
1032992,6890.0,40344.0,65535.0,40344.0,19.981317088403156,-0.8642727652125286,0,40000
1033002,7309.0,39925.0,65535.0,39925.0,19.509595063827515,4.401783779955251,0,40000
1033012,7255.0,39979.0,65535.0,39979.0,17.750529000536435,9.215135387020366,0,40000
1033022,7582.0,39652.0,65535.0,39652.0,14.812984925654627,13.437837534079984,0,40000
1033032,7542.0,39692.0,65535.0,39692.0,10.89876359329796,16.76952450540572,0,40000
1033042,7545.0,40095.0,65535.0,39689.0,6.113306155771059,19.042780465200234,0,40000
1033052,12492.0,45244.0,65535.0,34742.0,0.9124017913900864,19.97917723458772,0,40000
1033062,18441.0,50869.0,61897.0,28793.0,-4.490000717424152,19.489481613360848,0,40000
1033072,22360.0,56058.0,56708.0,24874.0,-9.315288204733395,17.69817520714367,0,40000
1033082,26077.0,59493.0,53273.0,21157.0,-13.515936764374628,14.741758829306166,0,40000
1033092,28931.0,63525.0,49241.0,18303.0,-16.826631370136006,10.81038744604257,0,40000
1033102,33060.0,65535.0,45244.0,14174.0,-16.826631370136006,10.81038744604257,0,40000
1033112,36056.0,65535.0,41452.0,11178.0,-19.03032306729374,6.15197561393312,0,40000
1033122,41191.0,65535.0,36719.0,15601.0,-19.97820389459846,0.9334715559944889,0,40000
1033132,52005.0,53297.0,26117.0,28581.0,-19.556337841666167,-4.189230266124778,0,40000
1033142,56584.0,45774.0,21954.0,35688.0,-17.80176984709971,-9.115755059834132,0,40000
1033152,63868.0,33426.0,14730.0,47976.0,-14.900835965465927,-13.34035559984355,0,40000
1033162,60304.0,29998.0,19234.0,50464.0,-10.999152298429905,-16.703851313872025,0,40000
1033172,55937.0,24295.0,22939.0,56829.0,-6.388337178684951,-18.952286091430544,0,40000
1033182,39714.0,7520.0,39714.0,65535.0,-1.3628676756543368,-19.953510761233385,0,40000
1033192,43031.0,20459.0,36219.0,60291.0,4.694586630019517,-19.441215403704625,0,40000
1033202,30818.0,23584.0,49110.0,56488.0,9.514171311202967,-17.59205912510194,0,40000
1033212,20903.0,26331.0,58531.0,54235.0,13.687087262271254,-14.582991540660373,0,40000
1033222,13609.0,33625.0,65535.0,46467.0,16.98497174257773,-10.559864341166321,0,40000
1033232,7534.0,39700.0,65535.0,39700.0,19.10732524062283,-5.908478835458216,0,40000
1033242,7220.0,40014.0,65535.0,40014.0,19.981410190930887,-0.8621176148085662,0,40000
1033252,7063.0,40171.0,65535.0,40171.0,19.525891321287997,4.328922280343005,0,40000
1033262,7396.0,39838.0,65535.0,39838.0,17.762716638988074,9.191621054145795,0,40000
1033272,7458.0,39776.0,65535.0,39776.0,14.805091310790914,13.446533801658456,0,40000
1033282,7188.0,40046.0,65535.0,40046.0,10.879161606758919,16.782247845089845,0,40000
1033292,7282.0,39952.0,65535.0,39952.0,6.269879496790378,18.99180378731119,0,40000
1033302,10421.0,43725.0,65535.0,36813.0,1.239452685950185,19.96155697933633,0,40000
1033312,16448.0,49648.0,63118.0,30786.0,-3.8980451041733692,19.616453409468033,0,40000
1033322,21378.0,55628.0,57138.0,25856.0,-8.824306656890887,17.94802529598037,0,40000
1033332,26379.0,60835.0,51931.0,20855.0,-13.16705230254784,15.054193225210366,0,40000
1033342,29437.0,63943.0,48823.0,17797.0,-16.57814933378068,11.187714899248514,0,40000
1033352,34807.0,65535.0,42927.0,15361.0,-18.88125441423434,6.59531892670522,0,40000
1033362,45198.0,59722.0,32492.0,22588.0,-19.935898866359235,1.599980121844179,0,40000
1033372,57365.0,50911.0,20505.0,31219.0,-19.686488684757425,-3.527345073127646,0,40000
1033382,62455.0,45179.0,16087.0,36279.0,-18.138432649262356,-8.425987243532557,0,40000
1033392,65535.0,36863.0,10371.0,44587.0,-18.138432649262356,-8.425987243532557,0,40000
1033402,65535.0,33494.0,13740.0,47010.0,-15.266013851214215,-12.92086766028256,0,40000
1033412,61480.0,29966.0,17268.0,51286.0,-11.466041526204547,-16.386881696019927,0,40000
1033422,56849.0,24793.0,22441.0,55917.0,-6.803765040225925,-18.807147079698172,0,40000
1033432,48714.0,21154.0,29914.0,60218.0,-1.747585161463649,-19.92350235534486,0,40000
1033442,38215.0,24595.0,40827.0,56363.0,3.3693980277125855,-19.714135967139075,0,40000
1033452,25330.0,26750.0,53318.0,54602.0,8.24427860347145,-18.221741692504118,0,40000
1033462,6693.0,40541.0,65535.0,40541.0,12.666639342560027,-15.47760471667081,0,40000
1033472,7069.0,40165.0,65535.0,40165.0,16.18763450939385,-11.745658303827902,0,40000
1033482,6988.0,40246.0,65535.0,40246.0,18.721774595566007,-7.035279382712475,0,40000
1033492,7192.0,40042.0,65535.0,40042.0,19.9086794941206,-1.9090523304461455,0,40000
1033502,6880.0,40354.0,65535.0,40354.0,19.726734790277526,3.29483451998037,0,40000
1033512,7425.0,39809.0,65535.0,39809.0,18.21392822537993,8.261526408643153,0,40000
1033522,7166.0,40068.0,65535.0,40068.0,15.510038949587779,12.626903491445162,0,40000
1033532,7301.0,39933.0,65535.0,39933.0,11.752835010236417,16.182424701575506,0,40000
1033542,9103.0,42219.0,65535.0,38131.0,7.233890759759297,18.645933188657228,0,40000
1033552,14157.0,46661.0,65535.0,33077.0,2.2544641714986833,19.87252855827433,0,40000
1033562,16629.0,50869.0,61897.0,30605.0,-2.883981164705483,19.79097401952779,0,40000
1033572,21721.0,55911.0,56855.0,25513.0,-7.968088705102797,18.34419696764111,0,40000
1033582,25936.0,60954.0,51812.0,21298.0,-12.464414446076473,15.64091981043443,0,40000
1033592,32102.0,65535.0,45976.0,15132.0,-16.047787213755107,11.936017993536963,0,40000
1033602,34977.0,65535.0,42549.0,12257.0,-18.561699299292897,7.44736994667444,0,40000
1033612,46631.0,65207.0,30289.0,17873.0,-19.861098557490532,2.3530329554954124,0,40000
1033622,52665.0,56407.0,25401.0,25527.0,-19.806272457373318,-2.7769716138799687,0,40000
1033632,65535.0,46423.0,12113.0,35121.0,-18.42030604611945,-7.790527913260778,0,40000
1033642,65535.0,40594.0,10274.0,40860.0,-15.816274299489972,-12.24113831648401,0,40000
1033652,65535.0,35992.0,11242.0,45244.0,-12.16670156323357,-15.873606177274581,0,40000
1033662,63402.0,31368.0,15866.0,49364.0,-12.16670156323357,-15.873606177274581,0,40000
1033672,58038.0,26044.0,21190.0,54728.0,-2.4662915149105666,-19.847352623548566,0,40000
1033682,54639.0,23145.0,24089.0,58127.0,-2.4662915149105666,-19.847352623548566,0,40000
1033692,44786.0,20274.0,33576.0,61364.0,2.6956516822689074,-19.817503929806115,0,40000
1033702,24056.0,23178.0,54808.0,57958.0,7.616340494876321,-18.49300834007564,0,40000
1033712,9373.0,37861.0,65535.0,44067.0,12.067258156310075,-15.949334800830034,0,40000
1033722,6612.0,40622.0,65535.0,40622.0,15.753574018364278,-12.321724946123329,0,40000
1033732,6944.0,40290.0,65535.0,40290.0,18.434699114131142,-7.756408226199319,0,40000
1033742,6951.0,40283.0,65535.0,40283.0,19.80082692705794,-2.815537782502162,0,40000
1033752,7022.0,40212.0,65535.0,40212.0,19.845127862374948,2.4841296516062874,0,40000
1033762,7018.0,40216.0,65535.0,40216.0,18.532191533131424,7.520497123151628,0,40000
1033772,7305.0,39929.0,65535.0,39929.0,15.954033634862535,12.061045177664951,0,40000
1033782,7325.0,39909.0,65535.0,39909.0,12.365854321863539,15.718958199907807,0,40000
1033792,7401.0,39833.0,65535.0,39833.0,7.955665863970152,18.349588024281637,0,40000
1033802,10564.0,43544.0,65535.0,36670.0,3.006902258300492,19.772671514214444,0,40000
1033812,16288.0,48440.0,64326.0,30946.0,-2.124621523489643,19.886829394901653,0,40000
1033822,19350.0,53248.0,59518.0,27884.0,-7.103439793508933,18.69601944532562,0,40000
1033832,23084.0,56776.0,55990.0,24150.0,-11.61774245415951,16.279682437591337,0,40000
1033842,26945.0,61621.0,51145.0,20289.0,-15.414569335340804,12.743274783428744,0,40000
1033852,32054.0,65535.0,47088.0,15180.0,-18.171063071042852,8.355385500872046,0,40000
1033862,38569.0,65535.0,39547.0,14779.0,-19.69667740924309,3.4699998611257716,0,40000
1033872,46535.0,60489.0,31559.0,21417.0,-19.929173751338833,-1.6816758275444381,0,40000
1033882,59074.0,48666.0,18642.0,33618.0,-18.808614323414496,-6.799707878508238,0,40000
1033892,62085.0,42097.0,16761.0,39057.0,-16.44902371636814,-11.37671388311926,0,40000
1033902,65535.0,34125.0,13109.0,46943.0,-13.00783282990955,-15.191980946181026,0,40000
1033912,62166.0,30336.0,16898.0,50600.0,-8.696102966367693,-18.01049119814146,0,40000
1033922,57623.0,25947.0,21287.0,55143.0,-3.83960853934504,-19.627975093335245,0,40000
1033932,54495.0,22543.0,24691.0,58271.0,1.4262294468756647,-19.94908192285712,0,40000
1033942,47174.0,16188.0,31562.0,65076.0,6.600183667509535,-18.879554432113604,0,40000
1033952,31889.0,21835.0,46509.0,59767.0,11.177480941171432,-16.585051094577594,0,40000
1033962,22093.0,25141.0,55997.0,56769.0,15.032870948620403,-13.191390792563332,0,40000
1033972,14546.0,32688.0,64982.0,47784.0,15.032870948620403,-13.191390792563332,0,40000
1033982,6689.0,40545.0,65535.0,40545.0,17.9817864889626,-8.75530437308504,0,40000
1033992,7189.0,40045.0,65535.0,40045.0,19.62477026156924,-3.85595541735477,0,40000
1034002,6620.0,40614.0,65535.0,40614.0,19.960434875316672,1.2573939669975756,0,40000
1034012,7372.0,39862.0,65535.0,39862.0,18.945922297322806,6.40718567733186,0,40000
1034022,11120.0,44646.0,65535.0,36114.0,16.561841520100213,11.211842197564351,0,40000
1034032,20167.0,52319.0,60447.0,27067.0,13.006376257197845,15.193227986711717,0,40000
1034042,25705.0,58933.0,53833.0,21529.0,8.659175788057853,18.028274312077478,0,40000
1034052,10561.0,42471.0,65535.0,36673.0,3.6540819440629435,19.6633589487166,0,40000
1034062,15137.0,49611.0,63155.0,32097.0,-1.5374957559496403,19.940815098697367,0,40000
1034072,20332.0,53976.0,58790.0,26902.0,-6.609233181876613,18.876388339605146,0,40000
1034082,25215.0,60169.0,52597.0,22019.0,-11.183939760121627,16.58069634973063,0,40000
1034092,29958.0,64002.0,48764.0,17276.0,-15.047248068301585,13.17498863646547,0,40000
1034102,33488.0,65535.0,44370.0,13746.0,-17.958745891425977,8.802468177005276,0,40000
1034112,36281.0,65535.0,41917.0,12103.0,-19.60769206322293,3.941879241405619,0,40000
1034122,50574.0,59564.0,27446.0,22416.0,-19.96424155993375,-1.1954325311844323,0,40000
1034132,56559.0,53869.0,21637.0,27935.0,-18.977175380519927,-6.3140173088920415,0,40000
1034142,65535.0,41541.0,11521.0,40225.0,-16.751607898123552,-10.926281747581136,0,40000
1034152,65535.0,35682.0,12808.0,45486.0,-13.41527666644544,-14.83342010335865,0,40000
1034162,63584.0,31098.0,16136.0,49182.0,-9.183637411540692,-17.76684563712282,0,40000
1034172,59251.0,26703.0,20531.0,53515.0,-4.354307903655016,-19.520245968741467,0,40000
1034182,53991.0,22625.0,24609.0,58775.0,0.752311956889517,-19.985845659354048,0,40000
1034192,41464.0,23744.0,36628.0,58164.0,5.821632311062808,-19.13396449340255,0,40000
1034202,31651.0,23409.0,46841.0,58099.0,10.49393616524151,-17.025783499147295,0,40000
1034212,20538.0,26696.0,57776.0,54990.0,14.502943963135188,-13.77187773697402,0,40000
1034222,10930.0,36304.0,65535.0,44426.0,17.583671833816823,-9.52966341696479,0,40000
1034232,6777.0,40457.0,65535.0,40457.0,19.429424310033486,-4.7431499007178495,0,40000
1034242,7147.0,40087.0,65535.0,40087.0,19.997154841854297,0.33733993375117,0,40000
1034252,7074.0,40160.0,65535.0,40160.0,19.25887141907484,5.3940589228837945,0,40000
1034262,6775.0,40459.0,65535.0,40459.0,17.26616617404356,10.093537816361222,0,40000
1034272,6886.0,40348.0,65535.0,40348.0,14.138576042694297,14.145694309045096,0,40000
1034282,7690.0,39544.0,65535.0,39544.0,10.070042882504065,17.279879523437923,0,40000
1034292,7681.0,39553.0,65535.0,39553.0,10.070042882504065,17.279879523437923,0,40000
1034302,11920.0,44970.0,65535.0,35314.0,5.312768637900383,19.281454545758265,0,40000
1034312,35345.0,65535.0,43415.0,11889.0,0.09479486406738584,19.99977534708194,0,40000
1034322,21197.0,54927.0,57839.0,26037.0,-4.995728495089894,19.3660191263808,0,40000
1034332,26011.0,60053.0,52713.0,21223.0,-9.749015100126297,17.46300960824077,0,40000
1034342,39557.0,65535.0,38979.0,8255.0,-13.867516906550676,14.411522294557614,0,40000
1034352,52832.0,59934.0,25056.0,22178.0,-17.153771201980664,10.283391150301483,0,40000
1034362,65374.0,47392.0,13044.0,34190.0,-19.20275860391098,5.5905332482619965,0,40000
1034372,65535.0,40771.0,6463.0,40771.0,-19.994940237476687,0.44984986354983336,0,40000
1034382,65535.0,37012.0,10222.0,45410.0,-19.444053022745194,-4.682819882151504,0,40000
1034392,62969.0,40921.0,15359.0,40751.0,-17.568574695744598,-9.55746740303322,0,40000
1034402,51358.0,19612.0,27622.0,61408.0,-14.565674816058305,-13.705514114867958,0,40000
1034412,62896.0,30158.0,17076.0,49870.0,-10.587431664485798,-16.96780158859254,0,40000
1034422,60084.0,28424.0,18810.0,52682.0,-5.920270513254954,-19.103674961898925,0,40000
1034432,54682.0,23790.0,24116.0,57412.0,-0.8658292564752633,-19.981249703124966,0,40000
1034442,45900.0,22250.0,32374.0,59476.0,4.255063669506652,-19.54211946459351,0,40000
1034452,32564.0,23784.0,45880.0,57772.0,9.119808291342707,-17.79969372571216,0,40000
1034462,19082.0,28152.0,59484.0,53282.0,13.410654072178904,-14.837599447227012,0,40000
1034472,12174.0,35060.0,65535.0,45792.0,16.77800927687737,-10.885697253966642,0,40000
1034482,6918.0,40316.0,65535.0,40316.0,19.001137530268032,-6.241536073422932,0,40000
1034492,6855.0,40379.0,65535.0,40379.0,19.965003915199336,-1.1826320924426286,0,40000
1034502,6996.0,40238.0,65535.0,40238.0,19.608730669799712,3.9367094786453496,0,40000
1034512,7237.0,39997.0,65535.0,39997.0,17.967650650687066,8.784277437266235,0,40000
1034522,7064.0,40170.0,65535.0,40170.0,15.133447783193121,13.075884604621102,0,40000
1034532,7407.0,39827.0,65535.0,39827.0,11.28437809770016,16.512504684273217,0,40000
1034542,8794.0,41800.0,65535.0,38440.0,6.7086771440930555,18.841275195069027,0,40000
1034552,12844.0,45530.0,65535.0,34390.0,1.6896766877677047,19.928497000296193,0,40000
1034562,16505.0,51069.0,61697.0,30729.0,-3.4217173837894843,19.705122434166015,0,40000
1034572,21857.0,55827.0,56939.0,25377.0,-8.324995466864493,18.18500619952288,0,40000
1034582,27637.0,62691.0,50075.0,19597.0,-12.670719618375838,15.474264581960128,0,40000
1034592,32047.0,65535.0,46319.0,15187.0,-16.224294303886936,11.69496790679059,0,40000
1034602,34789.0,65535.0,42921.0,12445.0,-18.666318033029036,7.181126032163407,0,40000
1034612,36787.0,65535.0,40287.0,14101.0,-19.88317207076793,2.1585801824889654,0,40000
1034622,49573.0,61639.0,27939.0,20849.0,-19.776814659060218,-2.9795304900572583,0,40000
1034632,58025.0,54185.0,19471.0,28319.0,-18.369788778977465,-7.908910178763794,0,40000
1034642,65535.0,42359.0,10983.0,39067.0,-18.369788778977465,-7.908910178763794,0,40000
1034652,65535.0,34918.0,12760.0,46222.0,-15.627765996458185,-12.480902609985598,0,40000
1034662,62587.0,30853.0,16381.0,50179.0,-11.934767875431422,-16.048716950571787,0,40000
1034672,58031.0,25927.0,21307.0,54735.0,-7.46015891326797,-18.556562962703747,0,40000
1034682,52507.0,20639.0,26595.0,60259.0,-2.5056516633892016,-19.842421972676494,0,40000
