timestamp,stabilizer.roll,stabilizer.pitch,stateEstimateZ.rateRoll,stateEstimateZ.ratePitch,controller.pitchRate,controller.rollRate,roll,pitch,yawdot,thrust
1378398,-43.23307418823242,63.40071105957031,-1.0,7.0,-382.6867370605469,260.9548034667969,0,0,0,40000
1378408,-43.249141693115234,63.38551330566406,-15.0,-35.0,-384.4974060058594,262.34857177734375,0,0,0,40000
1378418,-43.267398834228516,63.36488723754883,0.0,-29.0,-386.27484130859375,263.755859375,0,0,0,40000
1378428,-43.25696563720703,63.28727722167969,27.0,-135.0,-387.7088928222656,264.9913330078125,0,0,0,40000
1378438,-43.162193298339844,63.18424987792969,-15.0,-402.0,-388.98760986328125,265.7187194824219,0,0,0,40000
1378448,-42.74872970581055,62.87925338745117,-33.0,-652.0,-389.0480651855469,264.526123046875,0,0,0,40000
1378458,-42.28886795043945,62.58586120605469,23.0,-1101.0,-389.16900634765625,263.04156494140625,0,0,0,40000
1378468,-41.12582778930664,61.859039306640625,5.0,-1661.0,-386.6734313964844,257.3125305175781,0,0,0,40000
1378478,-40.06626892089844,61.178367614746094,49.0,-2280.0,-384.43316650390625,252.17027282714844,0,0,0,40000
1378488,-37.98136520385742,59.78074264526367,59.0,-3035.0,-377.85888671875,240.82676696777344,0,0,0,40000
1378498,-36.30878829956055,58.55455017089844,80.0,-3869.0,-372.27349853515625,231.9009552001953,0,0,0,40000
1378508,-33.45371627807617,56.192115783691406,103.0,-4770.0,-359.8147277832031,215.80921936035156,0,0,0,40000
1378518,-31.39609718322754,54.224124908447266,157.0,-5724.0,-349.6576232910156,204.43028259277344,0,0,0,40000
1378528,-28.237079620361328,50.65501403808594,321.0,-6605.0,-329.8073425292969,186.3614959716797,0,0,0,40000
1378538,-26.174760818481445,47.86361312866211,459.0,-7488.0,-314.52874755859375,174.79757690429688,0,0,0,40000
1378548,-23.212671279907227,43.152584075927734,566.0,-8097.0,-287.615234375,157.75607299804688,0,0,0,40000
1378558,-21.37933349609375,39.743247985839844,739.0,-8473.0,-268.3927917480469,147.4191131591797,0,0,0,40000
1378568,-18.863367080688477,34.404239654541016,1013.0,-8629.0,-237.4554443359375,132.91879272460938,0,0,0,40000
1378578,-17.323123931884766,30.78526496887207,1308.0,-8541.0,-216.7085723876953,124.21548461914062,0,0,0,40000
1378588,-15.159219741821289,25.468238830566406,1561.0,-8236.0,-185.63375854492188,111.71238708496094,0,0,0,40000
1378598,-13.777811050415039,22.070444107055664,1822.0,-7688.0,-165.94967651367188,103.85368347167969,0,0,0,40000
1378608,-11.749382972717285,17.3656063079834,2167.0,-6933.0,-138.29656982421875,92.0598373413086,0,0,0,40000
1378618,-10.390276908874512,14.579805374145508,2490.0,-6003.0,-122.05208587646484,84.23331451416016,0,0,0,40000
1378628,-8.337357521057129,11.058237075805664,2767.0,-4881.0,-101.29434967041016,72.19090270996094,0,0,0,40000
1378638,-6.954564094543457,9.24041748046875,2917.0,-3622.0,-90.68580627441406,64.119384765625,0,0,0,40000
1378648,-4.824999809265137,7.366772651672363,2996.0,-2282.0,-79.68464660644531,51.51221466064453,0,0,0,40000
1378658,-3.383666515350342,6.692563533782959,3073.0,-1035.0,-75.84759521484375,42.983001708984375,0,0,0,40000
1378668,-1.2181562185287476,6.464626312255859,3121.0,63.0,-74.67431640625,30.052589416503906,0,0,0,40000
1378678,0.21601557731628418,6.72829008102417,3093.0,872.0,-76.45455932617188,21.45830535888672,0,0,0,40000
1378688,2.322230577468872,7.5697808265686035,2984.0,1444.0,-81.71940612792969,8.77641487121582,0,0,0,40000
1378698,3.6824216842651367,8.335289001464844,2829.0,1826.0,-86.55313110351562,0.5209903717041016,0,0,0,40000
1378708,5.633035182952881,9.663151741027832,2670.0,2068.0,-94.79373168945312,-11.32866096496582,0,0,0,40000
1378718,6.867036819458008,10.609203338623047,2457.0,2145.0,-100.77694702148438,-18.92399024963379,0,0,0,40000
1378728,8.555499076843262,11.993708610534668,2248.0,2071.0,-109.4273681640625,-29.291587829589844,0,0,0,40000
1378738,9.588746070861816,12.850776672363281,2008.0,1874.0,-114.94515991210938,-35.76648712158203,0,0,0,40000
1378748,10.952728271484375,13.946098327636719,1741.0,1576.0,-121.92298889160156,-44.263153076171875,0,0,0,40000
1378758,11.735270500183105,14.499152183532715,1415.0,1144.0,-125.669921875,-49.301265716552734,0,0,0,40000
1378768,12.705194473266602,15.014876365661621,1140.0,641.0,-129.20960998535156,-55.49113464355469,0,0,0,40000
1378778,13.20561408996582,15.109747886657715,865.0,46.0,-130.23130798339844,-58.88395690917969,0,0,0,40000
1378788,13.710122108459473,14.828614234924316,595.0,-629.0,-128.99412536621094,-62.316959381103516,0,0,0,40000
1378798,13.88719654083252,14.340846061706543,317.0,-1359.0,-126.50395202636719,-63.79404067993164,0,0,0,40000
1378808,13.921128273010254,13.108089447021484,46.0,-2130.0,-119.51705169677734,-64.41558837890625,0,0,0,40000
1378818,13.794746398925781,11.964775085449219,-264.0,-2808.0,-113.03016662597656,-64.07283020019531,0,0,0,40000
1378828,13.40802001953125,9.869905471801758,-512.0,-3364.0,-100.78326416015625,-62.15990447998047,0,0,0,40000
1378838,13.035866737365723,8.268758773803711,-786.0,-3737.0,-91.44386291503906,-60.322689056396484,0,0,0,40000
1378848,12.319355964660645,5.7300004959106445,-1010.0,-3843.0,-76.41385650634766,-56.402244567871094,0,0,0,40000
1378858,11.749135971069336,4.043190002441406,-1247.0,-3749.0,-66.43446350097656,-53.34033203125,0,0,0,40000
1378868,10.781844139099121,1.6498316526412964,-1441.0,-3441.0,-52.1518669128418,-47.872032165527344,0,0,0,40000
1378878,10.073938369750977,0.24557313323020935,-1600.0,-2931.0,-43.750267028808594,-43.93540573120117,0,0,0,40000
1378888,8.93539810180664,-1.5188868045806885,-1712.0,-2366.0,-33.13787841796875,-37.38612747192383,0,0,0,40000
1378898,8.134801864624023,-2.4287517070770264,-1790.0,-1751.0,-27.616413116455078,-32.83625030517578,0,0,0,40000
1378908,6.891215801239014,-3.3898167610168457,-1821.0,-1144.0,-21.758544921875,-25.596452713012695,0,0,0,40000
1378918,6.059667587280273,-3.746326208114624,-1801.0,-577.0,-19.511064529418945,-20.79892349243164,0,0,0,40000
1378928,4.81807804107666,-3.9483158588409424,-1769.0,-102.0,-18.182109832763672,-13.50878620147705,0,0,0,40000
1378938,4.019067764282227,-3.896723985671997,-1686.0,287.0,-18.373924255371094,-8.84483528137207,0,0,0,40000
1378948,2.875532627105713,-3.6091067790985107,-1615.0,510.0,-19.987464904785156,-2.0834598541259766,0,0,0,40000
1378958,2.170912981033325,-3.3467085361480713,-1494.0,589.0,-21.458261489868164,2.0707406997680664,0,0,0,40000
1378968,1.1991426944732666,-2.9447667598724365,-1351.0,565.0,-23.776838302612305,7.854093074798584,0,0,0,40000
1378978,0.6244447827339172,-2.716977119445801,-1188.0,419.0,-25.059404373168945,11.276728630065918,0,0,0,40000
1378988,-0.12787456810474396,-2.523515224456787,-1029.0,175.0,-26.142723083496094,15.785823822021484,0,0,0,40000
1378998,-0.5412052273750305,-2.5228281021118164,-828.0,-127.0,-26.07131004333496,18.27720069885254,0,0,0,40000
1379008,-1.0358753204345703,-2.7526016235351562,-643.0,-455.0,-24.61355209350586,21.27078628540039,0,0,0,40000
1379018,-1.2851486206054688,-3.0358080863952637,-452.0,-731.0,-22.826763153076172,22.802101135253906,0,0,0,40000
1379028,-1.5168704986572266,-3.616358995437622,-254.0,-915.0,-19.24237823486328,24.235599517822266,0,0,0,40000
1379038,-1.5719811916351318,-4.085939407348633,-43.0,-1059.0,-16.308040618896484,24.612865447998047,0,0,0,40000
1379048,-1.5224080085754395,-4.844821453094482,127.0,-1120.0,-11.618637084960938,24.362010955810547,0,0,0,40000
1379058,-1.404435634613037,-5.353522300720215,331.0,-1072.0,-8.411876678466797,23.697845458984375,0,0,0,40000
1379068,-1.1009846925735474,-6.064448356628418,511.0,-999.0,-3.9727401733398438,21.914142608642578,0,0,0,40000
1379078,-0.8380486369132996,-6.483254432678223,607.0,-835.0,-1.2703056335449219,20.364856719970703,0,0,0,40000
1379088,-0.35717862844467163,-6.973773956298828,722.0,-632.0,1.8765869140625,17.49631690979004,0,0,0,40000
1379098,0.019902123138308525,-7.208568096160889,816.0,-399.0,3.4989166259765625,15.237792015075684,0,0,0,40000
1379108,0.6323878169059753,-7.386633396148682,911.0,-169.0,4.787261962890625,11.551482200622559,0,0,0,40000
1379118,1.064547061920166,-7.3997721672058105,937.0,34.0,5.088031768798828,8.931796073913574,0,0,0,40000
1379128,1.7347193956375122,-7.301837921142578,961.0,193.0,4.7209625244140625,4.8667707443237305,0,0,0,40000
1379138,2.1818723678588867,-7.187676429748535,953.0,266.0,4.253002166748047,2.123748779296875,0,0,0,40000
1379148,2.8429176807403564,-6.988860607147217,937.0,285.0,3.272167205810547,-1.9199342727661133,0,0,0,40000
1379158,3.271456718444824,-6.8639020919799805,908.0,278.0,2.7298126220703125,-4.584174156188965,0,0,0,40000
1379168,3.8677444458007812,-6.69823694229126,815.0,185.0,1.9385452270507812,-8.270968437194824,0,0,0,40000
1379178,4.230172634124756,-6.649597644805908,744.0,55.0,1.8467178344726562,-10.568154335021973,0,0,0,40000
1379188,4.708600997924805,-6.656981468200684,634.0,-71.0,2.09039306640625,-13.574493408203125,0,0,0,40000
1379198,4.98074197769165,-6.717254161834717,558.0,-201.0,2.652751922607422,-15.353534698486328,0,0,0,40000
1379208,5.316122055053711,-6.902233123779297,435.0,-310.0,3.9672927856445312,-17.52155876159668,0,0,0,40000
1379218,5.494841575622559,-7.056188583374023,327.0,-365.0,5.100818634033203,-18.75665283203125,0,0,0,40000
1379228,5.676358699798584,-7.316213130950928,200.0,-392.0,6.877277374267578,-20.014171600341797,0,0,0,40000
1379238,5.7315850257873535,-7.4968180656433105,68.0,-402.0,8.183662414550781,-20.51687240600586,0,0,0,40000
1379248,5.736072063446045,-7.734827995300293,-53.0,-329.0,9.841064453125,-20.71614646911621,0,0,0,40000
1379258,5.6918439865112305,-7.858725070953369,-174.0,-212.0,10.818771362304688,-20.622142791748047,0,0,0,40000
1379268,5.53675651550293,-7.955654621124268,-249.0,-104.0,11.638069152832031,-19.859800338745117,0,0,0,40000
1379278,5.387360572814941,-7.968743801116943,-351.0,30.0,11.955596923828125,-19.126890182495117,0,0,0,40000
1379288,5.1050238609313965,-7.9096550941467285,-424.0,127.0,11.83932113647461,-17.589584350585938,0,0,0,40000
1379298,4.889195442199707,-7.842795372009277,-475.0,149.0,11.627182006835938,-16.414562225341797,0,0,0,40000
1379308,4.523707866668701,-7.735827922821045,-531.0,166.0,11.265796661376953,-14.391170501708984,0,0,0,40000
1379318,4.259372711181641,-7.663406848907471,-580.0,171.0,11.016056060791016,-12.910591125488281,0,0,0,40000
1379328,3.8503856658935547,-7.558455944061279,-583.0,124.0,10.660198211669922,-10.602682113647461,0,0,0,40000
1379338,3.567030906677246,-7.506232738494873,-592.0,102.0,10.527606964111328,-8.991567611694336,0,0,0,40000
1379348,3.151334047317505,-7.455993175506592,-612.0,63.0,10.49545669555664,-6.618412017822266,0,0,0,40000
1379358,2.889294147491455,-7.43925142288208,-572.0,13.0,10.573688507080078,-5.118663787841797,0,0,0,40000
1379368,2.5052666664123535,-7.440211296081543,-513.0,8.0,10.8472900390625,-2.911362648010254,0,0,0,40000
1379378,2.279383420944214,-7.453012466430664,-470.0,-17.0,11.102802276611328,-1.6134462356567383,0,0,0,40000
1379388,1.9729211330413818,-7.474048614501953,-415.0,-29.0,11.497699737548828,0.14889144897460938,0,0,0,40000
1379398,1.804917335510254,-7.501180171966553,-359.0,-59.0,11.840171813964844,1.1115970611572266,0,0,0,40000
1379408,1.6018887758255005,-7.538534164428711,-269.0,-62.0,12.334949493408203,2.2686166763305664,0,0,0,40000
1379418,1.506598711013794,-7.570537567138672,-172.0,-67.0,12.708305358886719,2.803121566772461,0,0,0,40000
1379428,1.4035435914993286,-7.6346001625061035,-109.0,-104.0,13.366317749023438,3.3692331314086914,0,0,0,40000
1379438,1.371768593788147,-7.680017471313477,-37.0,-99.0,13.822612762451172,3.526627540588379,0,0,0,40000
1379448,1.3874621391296387,-7.717418193817139,45.0,-34.0,14.324285507202148,3.3829469680786133,0,0,0,40000
1379458,1.4306731224060059,-7.728540897369385,107.0,-18.0,14.57638168334961,3.089893341064453,0,0,0,40000
1379468,1.5410397052764893,-7.71483850479126,169.0,25.0,14.772226333618164,2.3742618560791016,0,0,0,40000
1379478,1.6415120363235474,-7.685715198516846,229.0,79.0,14.782306671142578,1.7332706451416016,0,0,0,40000
1379488,1.7572708129882812,-7.633227825164795,260.0,153.0,14.69705581665039,0.9874124526977539,0,0,0,40000
1379498,1.9518545866012573,-7.498276233673096,294.0,217.0,14.114042282104492,-0.2362651824951172,0,0,0,40000
1379508,2.0973117351531982,-7.3804731369018555,316.0,259.0,13.63003921508789,-1.1701784133911133,0,0,0,40000
1379518,2.326364517211914,-7.208566665649414,327.0,245.0,12.816850662231445,-2.6115217208862305,0,0,0,40000
1379528,2.4838054180145264,-7.099853992462158,341.0,227.0,12.37884521484375,-3.628781318664551,0,0,0,40000
1379538,2.7220194339752197,-6.959616661071777,317.0,210.0,11.747844696044922,-5.136913299560547,0,0,0,40000
1379548,2.8666789531707764,-6.871967315673828,319.0,158.0,11.429119110107422,-6.089103698730469,0,0,0,40000
1379558,3.0638375282287598,-6.78333854675293,287.0,89.0,11.101726531982422,-7.361675262451172,0,0,0,40000
1379568,3.192373037338257,-6.7509589195251465,264.0,26.0,11.110370635986328,-8.227156639099121,0,0,0,40000
1379578,3.3693881034851074,-6.74276065826416,191.0,-9.0,11.263545989990234,-9.388333320617676,0,0,0,40000
1379588,3.4547553062438965,-6.751482963562012,181.0,-40.0,11.518318176269531,-10.003171920776367,0,0,0,40000
1379598,3.563493251800537,-6.787937641143799,140.0,-80.0,11.940139770507812,-10.76124382019043,0,0,0,40000
1379608,3.611375093460083,-6.828493118286133,97.0,-91.0,12.387859344482422,-11.156305313110352,0,0,0,40000
1379618,3.6457455158233643,-6.879890441894531,29.0,-58.0,12.902088165283203,-11.471687316894531,0,0,0,40000
1379628,3.6638782024383545,-6.878744602203369,-11.0,22.0,13.101631164550781,-11.690194129943848,0,0,0,40000
1379638,3.663175106048584,-6.837233066558838,-36.0,83.0,13.058279037475586,-11.795940399169922,0,0,0,40000
1379648,3.641920566558838,-6.785096168518066,-71.0,152.0,12.949657440185547,-11.77792739868164,0,0,0,40000
1379658,3.5865509510040283,-6.664982318878174,-91.0,180.0,12.43039321899414,-11.554038047790527,0,0,0,40000
1379668,3.5282986164093018,-6.579865455627441,-145.0,197.0,12.118125915527344,-11.31110668182373,0,0,0,40000
1379678,3.4195337295532227,-6.455145835876465,-177.0,164.0,11.564882278442383,-10.762493133544922,0,0,0,40000
1379688,3.3306186199188232,-6.3874711990356445,-204.0,126.0,11.351249694824219,-10.330002784729004,0,0,0,40000
1379698,3.194072723388672,-6.306305408477783,-205.0,109.0,11.05439567565918,-9.608152389526367,0,0,0,40000
1379708,3.0868213176727295,-6.253011226654053,-233.0,92.0,10.922859191894531,-9.058545112609863,0,0,0,40000
1379718,2.9289681911468506,-6.1934003829956055,-225.0,72.0,10.751676559448242,-8.201167106628418,0,0,0,40000
1379728,2.81425404548645,-6.160872459411621,-254.0,50.0,10.741729736328125,-7.598696708679199,0,0,0,40000
1379738,2.635925769805908,-6.115683078765869,-245.0,74.0,10.65462875366211,-6.609951972961426,0,0,0,40000
1379748,2.5164172649383545,-6.080631732940674,-238.0,97.0,10.627178192138672,-5.969850540161133,0,0,0,40000
1379758,2.357001543045044,-6.001733779907227,-214.0,98.0,10.334793090820312,-5.085911750793457,0,0,0,40000
1379768,2.2661123275756836,-5.965628623962402,-198.0,49.0,10.297515869140625,-4.609661102294922,0,0,0,40000
1379778,2.1446616649627686,-5.947024822235107,-188.0,3.0,10.364402770996094,-3.9467620849609375,0,0,0,40000
1379788,2.0654280185699463,-5.94875955581665,-153.0,-5.0,10.553279876708984,-3.5342559814453125,0,0,0,40000
1379798,1.9733099937438965,-5.938041687011719,-135.0,-2.0,10.667226791381836,-3.041823387145996,0,0,0,40000
1379808,1.9204943180084229,-5.941141605377197,-94.0,0.0,10.864036560058594,-2.783140182495117,0,0,0,40000
1379818,1.8589242696762085,-5.933108329772949,-65.0,39.0,10.99400520324707,-2.4701738357543945,0,0,0,40000
1379828,1.8410131931304932,-5.916403770446777,-45.0,60.0,11.071468353271484,-2.418140411376953,0,0,0,40000
1379838,1.8241071701049805,-5.866213321685791,0.0,120.0,10.947040557861328,-2.3715381622314453,0,0,0,40000
1379848,1.8267335891723633,-5.803619384765625,17.0,157.0,10.74636459350586,-2.442070960998535,0,0,0,40000
1379858,1.8507031202316284,-5.685110569000244,34.0,170.0,10.207340240478516,-2.6410932540893555,0,0,0,40000
1379868,1.874220609664917,-5.59934663772583,60.0,157.0,9.861759185791016,-2.8381290435791016,0,0,0,40000
1379878,1.9291033744812012,-5.512205123901367,82.0,108.0,9.505165100097656,-3.2245779037475586,0,0,0,40000
1379888,1.9711942672729492,-5.46886682510376,104.0,77.0,9.409698486328125,-3.5357160568237305,0,0,0,40000
1379898,2.0453672409057617,-5.415670394897461,110.0,87.0,9.253656387329102,-4.041236877441406,0,0,0,40000
1379908,2.0988333225250244,-5.3697099685668945,101.0,110.0,9.139549255371094,-4.424372673034668,0,0,0,40000
1379918,2.1859567165374756,-5.276162147521973,122.0,160.0,8.737775802612305,-5.011564254760742,0,0,0,40000
1379928,2.237119197845459,-5.204090595245361,100.0,143.0,8.462299346923828,-5.385047912597656,0,0,0,40000
1379938,2.3104662895202637,-5.122274398803711,98.0,83.0,8.125873565673828,-5.89356803894043,0,0,0,40000
1379948,2.353013753890991,-5.087979316711426,92.0,70.0,8.073143005371094,-6.218918800354004,0,0,0,40000
1379958,2.409569263458252,-5.048586368560791,78.0,42.0,7.9886627197265625,-6.629849910736084,0,0,0,40000
1379968,2.43782639503479,-5.041615962982178,40.0,29.0,8.098190307617188,-6.8722028732299805,0,0,0,40000
1379978,2.454263687133789,-5.031007766723633,3.0,7.0,8.185558319091797,-7.044346809387207,0,0,0,40000
1379988,2.4530396461486816,-5.033717155456543,-10.0,11.0,8.352825164794922,-7.110608100891113,0,0,0,40000
1379998,2.4405581951141357,-5.016192436218262,-18.0,33.0,8.398454666137695,-7.10911226272583,0,0,0,40000
1380008,2.4215786457061768,-4.9948530197143555,-44.0,56.0,8.420557022094727,-7.068134307861328,0,0,0,40000
1380018,2.3842966556549072,-4.9569220542907715,-69.0,41.0,8.342105865478516,-6.916480541229248,0,0,0,40000
1380028,2.3452670574188232,-4.932246685028076,-109.0,65.0,8.342304229736328,-6.7531585693359375,0,0,0,40000
1380038,2.2723817825317383,-4.88685941696167,-117.0,81.0,8.217170715332031,-6.384920120239258,0,0,0,40000
1380048,2.221080780029297,-4.856308460235596,-122.0,84.0,8.179908752441406,-6.144362449645996,0,0,0,40000
1380058,2.1392128467559814,-4.776274681091309,-130.0,122.0,7.844036102294922,-5.718299865722656,0,0,0,40000
1380068,2.0701730251312256,-4.716416835784912,-146.0,116.0,7.627077102661133,-5.36701774597168,0,0,0,40000
1380078,1.969551682472229,-4.642575263977051,-151.0,109.0,7.324184417724609,-4.823627471923828,0,0,0,40000
1380088,1.8937697410583496,-4.593350410461426,-172.0,89.0,7.167207717895508,-4.42665958404541,0,0,0,40000
1380098,1.784867286682129,-4.533365726470947,-156.0,69.0,6.943998336791992,-3.8280229568481445,0,0,0,40000
1380108,1.715528130531311,-4.511677265167236,-155.0,42.0,6.949451446533203,-3.4642982482910156,0,0,0,40000
1380118,1.6142603158950806,-4.491860866546631,-132.0,19.0,6.965461730957031,-2.906270980834961,0,0,0,40000
1380128,1.5486901998519897,-4.500181198120117,-147.0,-45.0,7.150239944458008,-2.5601329803466797,0,0,0,40000
1380138,1.456883430480957,-4.518894195556641,-119.0,-15.0,7.397945404052734,-2.0540385246276855,0,0,0,40000
1380148,1.3952686786651611,-4.521156311035156,-117.0,1.0,7.547145843505859,-1.7269515991210938,0,0,0,40000
1380158,1.3197898864746094,-4.519713878631592,-103.0,-3.0,7.674053192138672,-1.3145484924316406,0,0,0,40000
1380168,1.2762178182601929,-4.500635623931885,-100.0,79.0,7.694858551025391,-1.091933250427246,0,0,0,40000
1380178,1.2112071514129639,-4.426640510559082,-89.0,148.0,7.384748458862305,-0.7389683723449707,0,0,0,40000
1380188,1.1763274669647217,-4.352341651916504,-61.0,202.0,7.070463180541992,-0.5653815269470215,0,0,0,40000
1380198,1.136370062828064,-4.200364589691162,-57.0,237.0,6.2865142822265625,-0.36020898818969727,0,0,0,40000
1380208,1.123111367225647,-4.082317352294922,-35.0,264.0,5.702136993408203,-0.314483642578125,0,0,0,40000
1380218,1.1063414812088013,-3.8907554149627686,-22.0,276.0,4.671833038330078,-0.2472376823425293,0,0,0,40000
1380228,1.0983099937438965,-3.7783114910125732,5.0,218.0,4.1118316650390625,-0.23208999633789062,0,0,0,40000
1380238,1.094504475593567,-3.647752046585083,-25.0,164.0,3.439350128173828,-0.2422194480895996,0,0,0,40000
1380248,1.0890624523162842,-3.5893681049346924,-10.0,116.0,3.197376251220703,-0.24230241775512695,0,0,0,40000
1380258,1.0887328386306763,-3.5281662940979004,-3.0,83.0,2.936725616455078,-0.27300548553466797,0,0,0,40000
1380268,1.0902502536773682,-3.5062029361724854,15.0,47.0,2.9103565216064453,-0.3147902488708496,0,0,0,40000
1380278,1.1029045581817627,-3.489190101623535,29.0,1.0,2.9130687713623047,-0.42368364334106445,0,0,0,40000
1380288,1.1074131727218628,-3.490419387817383,21.0,-30.0,3.0251235961914062,-0.48392581939697266,0,0,0,40000
1380298,1.1200225353240967,-3.4995884895324707,17.0,-7.0,3.1850967407226562,-0.5930299758911133,0,0,0,40000
1380308,1.1379982233047485,-3.4844393730163574,15.0,57.0,3.198945999145508,-0.73480224609375,0,0,0,40000
1380318,1.156236171722412,-3.443338394165039,33.0,96.0,3.0562057495117188,-0.8786215782165527,0,0,0,40000
1380328,1.1684716939926147,-3.3927462100982666,51.0,113.0,2.855051040649414,-0.9869298934936523,0,0,0,40000
1380338,1.1875050067901611,-3.3019096851348877,36.0,146.0,2.410257339477539,-1.1365647315979004,0,0,0,40000
1380348,1.2029107809066772,-3.233820915222168,21.0,127.0,2.099567413330078,-1.264939308166504,0,0,0,40000
1380358,1.212087631225586,-3.1527099609375,12.0,104.0,1.70843505859375,-1.3562493324279785,0,0,0,40000
1380368,1.2211729288101196,-3.101145029067993,-5.0,109.0,1.4927120208740234,-1.4473018646240234,0,0,0,40000
1380378,1.2256766557693481,-3.0371041297912598,4.0,100.0,1.2003612518310547,-1.5109915733337402,0,0,0,40000
1380388,1.2198078632354736,-2.9905989170074463,2.0,104.0,1.011617660522461,-1.5124187469482422,0,0,0,40000
1380398,1.209934949874878,-2.907998561859131,-13.0,141.0,0.6043262481689453,-1.4896202087402344,0,0,0,40000
1380408,1.2048437595367432,-2.8447072505950928,-27.0,135.0,0.31064414978027344,-1.495321273803711,0,0,0,40000
1380418,1.1931118965148926,-2.752877712249756,-30.0,133.0,-0.1565990447998047,-1.4608912467956543,0,0,0,40000
1380428,1.1907625198364258,-2.7003567218780518,-16.0,99.0,-0.39011383056640625,-1.4825401306152344,0,0,0,40000
1380438,1.1727197170257568,-2.643342971801758,-16.0,76.0,-0.6522369384765625,-1.409656047821045,0,0,0,40000
1380448,1.1564918756484985,-2.6309585571289062,-38.0,-5.0,-0.6475143432617188,-1.347184658050537,0,0,0,40000
1380458,1.1186586618423462,-2.6660616397857666,-53.0,-80.0,-0.3575115203857422,-1.1542329788208008,0,0,0,40000
1380468,1.0974347591400146,-2.719987154006958,-51.0,-113.0,0.04696846008300781,-1.0600886344909668,0,0,0,40000
1380478,1.0596706867218018,-2.8352153301239014,-49.0,-158.0,0.8219833374023438,-0.8657474517822266,0,0,0,40000
1380488,1.0334367752075195,-2.9120659828186035,-56.0,-174.0,1.3695297241210938,-0.7396764755249023,0,0,0,40000
1380498,0.9983375072479248,-3.0328946113586426,-40.0,-181.0,2.1840476989746094,-0.5594182014465332,0,0,0,40000
1380508,0.9749770164489746,-3.109649419784546,-53.0,-169.0,2.7369327545166016,-0.44879913330078125,0,0,0,40000
1380518,0.9457547068595886,-3.1819465160369873,-47.0,-80.0,3.2655296325683594,-0.30218076705932617,0,0,0,40000
1380528,0.934234082698822,-3.1929378509521484,-39.0,11.0,3.4271764755249023,-0.2612171173095703,0,0,0,40000
1380538,0.9149583578109741,-3.1612284183502197,-16.0,76.0,3.332307815551758,-0.17318487167358398,0,0,0,40000
1380548,0.9064664244651794,-3.1181700229644775,-6.0,116.0,3.1680240631103516,-0.14952325820922852,0,0,0,40000
1380558,0.89421147108078,-3.0179736614227295,-5.0,160.0,2.6586437225341797,-0.10295963287353516,0,0,0,40000
1380568,0.8897859454154968,-2.9521756172180176,-4.0,159.0,2.353215217590332,-0.10315608978271484,0,0,0,40000
1380578,0.9064112901687622,-2.8428845405578613,31.0,154.0,1.784097671508789,-0.22980308532714844,0,0,0,40000
1380588,0.9155389666557312,-2.7746331691741943,26.0,134.0,1.4586620330810547,-0.3119063377380371,0,0,0,40000
1380598,0.9268205761909485,-2.699549436569214,44.0,88.0,1.0899543762207031,-0.4071817398071289,0,0,0,40000
1380608,0.9363160133361816,-2.691641092300415,17.0,4.0,1.1232852935791016,-0.49216222763061523,0,0,0,40000
1380618,0.9548926949501038,-2.7242233753204346,32.0,-62.0,1.4000091552734375,-0.6320300102233887,0,0,0,40000
1380628,0.97252357006073,-2.768529176712036,44.0,-92.0,1.7483558654785156,-0.766754150390625,0,0,0,40000
1380638,1.004206657409668,-2.851196527481079,35.0,-147.0,2.328826904296875,-0.9866228103637695,0,0,0,40000
1380648,1.021052598953247,-2.9164774417877197,55.0,-161.0,2.8071975708007812,-1.1181097030639648,0,0,0,40000
1380658,1.0531752109527588,-3.036318302154541,60.0,-205.0,3.6158065795898438,-1.3420367240905762,0,0,0,40000
1380668,1.0863171815872192,-3.114834785461426,42.0,-146.0,4.1794281005859375,-1.573103427886963,0,0,0,40000
1380678,1.1220775842666626,-3.1914114952087402,52.0,-81.0,4.733907699584961,-1.8209142684936523,0,0,0,40000
1380688,1.1435719728469849,-3.190570116043091,52.0,26.0,4.824642181396484,-1.9839162826538086,0,0,0,40000
1380698,1.1798006296157837,-3.141554594039917,48.0,95.0,4.625572204589844,-2.236237049102783,0,0,0,40000
1380708,1.2037241458892822,-3.083095073699951,54.0,146.0,4.368025779724121,-2.4155983924865723,0,0,0,40000
1380718,1.2473269701004028,-2.9536616802215576,68.0,205.0,3.6817264556884766,-2.7140560150146484,0,0,0,40000
1380728,1.270311713218689,-2.857462167739868,45.0,213.0,3.191387176513672,-2.8898086547851562,0,0,0,40000
1380738,1.3029427528381348,-2.712212085723877,44.0,208.0,2.4030141830444336,-3.124300956726074,0,0,0,40000
1380748,1.3261795043945312,-2.6211400032043457,27.0,198.0,1.936288833618164,-3.3032493591308594,0,0,0,40000
1380758,1.3398383855819702,-2.5179102420806885,16.0,130.0,1.393564224243164,-3.4252943992614746,0,0,0,40000
1380768,1.3443827629089355,-2.4651217460632324,2.0,74.0,1.1513729095458984,-3.49284029006958,0,0,0,40000
1380778,1.3461923599243164,-2.432175636291504,-3.0,25.0,1.026956558227539,-3.5440478324890137,0,0,0,40000
1380788,1.3335148096084595,-2.4337334632873535,-21.0,-1.0,1.1092815399169922,-3.508145332336426,0,0,0,40000
1380798,1.3177658319473267,-2.45446515083313,-24.0,-45.0,1.3069877624511719,-3.4534125328063965,0,0,0,40000
1380808,1.30850088596344,-2.484935760498047,-28.0,-69.0,1.5639839172363281,-3.4371914863586426,0,0,0,40000
1380818,1.2848845720291138,-2.524268627166748,-26.0,-56.0,1.8752403259277344,-3.334300994873047,0,0,0,40000
1380828,1.2695903778076172,-2.552541494369507,-32.0,-69.0,2.121091842651367,-3.2808098793029785,0,0,0,40000
1380838,1.2442129850387573,-2.580721139907837,-41.0,-22.0,2.3673295974731445,-3.1662068367004395,0,0,0,40000
1380848,1.222273349761963,-2.5974206924438477,-26.0,-42.0,2.5452632904052734,-3.07150936126709,0,0,0,40000
1380858,1.2037845849990845,-2.6177663803100586,-38.0,-5.0,2.7457752227783203,-2.99690580368042,0,0,0,40000
1380868,1.1928532123565674,-2.6063005924224854,-31.0,42.0,2.755350112915039,-2.9672393798828125,0,0,0,40000
1380878,1.176422357559204,-2.552560567855835,-12.0,100.0,2.510279655456543,-2.9040932655334473,0,0,0,40000
1380888,1.1681677103042603,-2.4933087825775146,-8.0,115.0,2.230274200439453,-2.8896946907043457,0,0,0,40000
1380898,1.161574363708496,-2.4170055389404297,-19.0,100.0,1.8458290100097656,-2.88510799407959,0,0,0,40000
1380908,1.1540989875793457,-2.371023416519165,-34.0,101.0,1.6416139602661133,-2.8749899864196777,0,0,0,40000
1380918,1.141405463218689,-2.312432050704956,-7.0,89.0,1.3601303100585938,-2.8331503868103027,0,0,0,40000
1380928,1.138801097869873,-2.284573554992676,-20.0,58.0,1.2618370056152344,-2.8517227172851562,0,0,0,40000
1380938,1.1323355436325073,-2.2626938819885254,6.0,14.0,1.1985969543457031,-2.846877098083496,0,0,0,40000
1380948,1.1331658363342285,-2.2686259746551514,13.0,-30.0,1.3021612167358398,-2.885831832885742,0,0,0,40000
1380958,1.1423784494400024,-2.3166208267211914,11.0,-106.0,1.6587905883789062,-2.975341320037842,0,0,0,40000
1380968,1.14606773853302,-2.376340866088867,10.0,-148.0,2.087662696838379,-3.0318331718444824,0,0,0,40000
1380978,1.152065634727478,-2.4972481727600098,3.0,-192.0,2.8864803314208984,-3.1023411750793457,0,0,0,40000
1380988,1.1587696075439453,-2.57709002494812,5.0,-188.0,3.4418888092041016,-3.177243709564209,0,0,0,40000
1380998,1.1505917310714722,-2.6884474754333496,-18.0,-137.0,4.189496040344238,-3.1628079414367676,0,0,0,40000
1381008,1.1458971500396729,-2.7453668117523193,-5.0,-95.0,4.612714767456055,-3.1690659523010254,0,0,0,40000
1381018,1.1393169164657593,-2.7882237434387207,-18.0,-32.0,4.953136444091797,-3.1639020442962646,0,0,0,40000
1381028,1.1394383907318115,-2.7893285751342773,-10.0,9.0,5.043435096740723,-3.198805809020996,0,0,0,40000
1381038,1.13752019405365,-2.7485411167144775,-2.0,99.0,4.881827354431152,-3.221424102783203,0,0,0,40000
1381048,1.1332356929779053,-2.6937105655670166,-21.0,148.0,4.634377479553223,-3.2297635078430176,0,0,0,40000
1381058,1.1264681816101074,-2.593902111053467,-27.0,153.0,4.114588737487793,-3.223068952560425,0,0,0,40000
1381068,1.1183538436889648,-2.5191733837127686,-17.0,175.0,3.7427120208740234,-3.2080159187316895,0,0,0,40000
1381078,1.1056379079818726,-2.3937675952911377,-8.0,179.0,3.0636062622070312,-3.1650137901306152,0,0,0,40000
1381088,1.092339277267456,-2.315734386444092,-26.0,158.0,2.665787696838379,-3.1181411743164062,0,0,0,40000
1381098,1.079050898551941,-2.208502769470215,-24.0,145.0,2.0899362564086914,-3.070885181427002,0,0,0,40000
1381108,1.065207839012146,-2.1466102600097656,-10.0,117.0,1.7837085723876953,-3.019939422607422,0,0,0,40000
1381118,1.0488622188568115,-2.1056969165802,-30.0,36.0,1.6017189025878906,-2.953615665435791,0,0,0,40000
1381128,1.0460419654846191,-2.094849109649658,-21.0,36.0,1.599604606628418,-2.9681105613708496,0,0,0,40000
1381138,1.0337226390838623,-2.0941202640533447,-29.0,-22.0,1.6579265594482422,-2.9254209995269775,0,0,0,40000
1381148,1.022438645362854,-2.114755392074585,-19.0,-50.0,1.8449249267578125,-2.88852596282959,0,0,0,40000
1381158,1.0084763765335083,-2.170063018798828,-27.0,-98.0,2.241124153137207,-2.8351752758026123,0,0,0,40000
1381168,0.9958431720733643,-2.2116055488586426,-47.0,-82.0,2.556262969970703,-2.789426803588867,0,0,0,40000
1381178,0.9663492441177368,-2.2621779441833496,-48.0,-81.0,2.926968574523926,-2.641859531402588,0,0,0,40000
1381188,0.9420291781425476,-2.28261661529541,-56.0,-28.0,3.117849349975586,-2.524498462677002,0,0,0,40000
1381198,0.8999469876289368,-2.290964126586914,-59.0,-6.0,3.236618995666504,-2.29951548576355,0,0,0,40000
1381208,0.8721410036087036,-2.281787395477295,-66.0,30.0,3.2501373291015625,-2.159188747406006,0,0,0,40000
1381218,0.8187328577041626,-2.272263526916504,-87.0,16.0,3.261270523071289,-1.8640170097351074,0,0,0,40000
1381228,0.7780669927597046,-2.2533109188079834,-90.0,46.0,3.215391159057617,-1.6438536643981934,0,0,0,40000
1381238,0.7174339294433594,-2.232706308364868,-90.0,15.0,3.158926010131836,-1.3023312091827393,0,0,0,40000
1381248,0.6735600233078003,-2.2281370162963867,-83.0,10.0,3.198410987854004,-1.0598089694976807,0,0,0,40000
1381258,0.6419147253036499,-2.2220542430877686,-65.0,2.0,3.215269088745117,-0.8855082988739014,0,0,0,40000
1381268,0.597175657749176,-2.203702688217163,-67.0,31.0,3.1715145111083984,-0.6355142593383789,0,0,0,40000
1381278,0.5703160166740417,-2.1768369674682617,-58.0,69.0,3.0759849548339844,-0.49179983139038086,0,0,0,40000
1381288,0.5476799011230469,-2.1229779720306396,-27.0,81.0,2.817164421081543,-0.37258386611938477,0,0,0,40000
1381298,0.5334128141403198,-2.078249454498291,-37.0,84.0,2.611654281616211,-0.3031737804412842,0,0,0,40000
1381308,0.5103210806846619,-2.0044353008270264,-27.0,108.0,2.2298460006713867,-0.18017864227294922,0,0,0,40000
1381318,0.4936928451061249,-1.9607497453689575,-15.0,101.0,2.027080535888672,-0.09541726112365723,0,0,0,40000
1381328,0.4859597086906433,-1.8858174085617065,-25.0,118.0,1.6349611282348633,-0.06372690200805664,0,0,0,40000
1381338,0.48222675919532776,-1.8395360708236694,-45.0,74.0,1.4129791259765625,-0.055834054946899414,0,0,0,40000
1381348,0.4687851667404175,-1.7839107513427734,-5.0,56.0,1.1333141326904297,0.010699272155761719,0,0,0,40000
1381358,0.4624432921409607,-1.7615907192230225,-24.0,32.0,1.0524730682373047,0.034790992736816406,0,0,0,40000
1381368,0.444607138633728,-1.7403322458267212,-32.0,28.0,0.9773693084716797,0.12823128700256348,0,0,0,40000
1381378,0.4290391206741333,-1.7446248531341553,-27.0,-21.0,1.0554018020629883,0.20856547355651855,0,0,0,40000
1381388,0.41108375787734985,-1.757875680923462,-39.0,-29.0,1.1875019073486328,0.3037538528442383,0,0,0,40000
1381398,0.3918733298778534,-1.788118600845337,-62.0,-78.0,1.422215461730957,0.4070253372192383,0,0,0,40000
1381408,0.34959885478019714,-1.8524668216705322,-57.0,-106.0,1.8630046844482422,0.6496713161468506,0,0,0,40000
1381418,0.31908994913101196,-1.8982224464416504,-60.0,-71.0,2.1940059661865234,0.8228052854537964,0,0,0,40000
1381428,0.2722577750682831,-1.9351859092712402,-61.0,-70.0,2.473390579223633,1.0950610637664795,0,0,0,40000
1381438,0.22890767455101013,-1.9600813388824463,-91.0,-15.0,2.6812877655029297,1.3477592468261719,0,0,0,40000
1381448,0.16905492544174194,-1.965105652809143,-91.0,-4.0,2.7703475952148438,1.7010730504989624,0,0,0,40000
1381458,0.12164507061243057,-1.9728416204452515,-107.0,-25.0,2.8758296966552734,1.9812904596328735,0,0,0,40000
1381468,0.05762288346886635,-1.9837318658828735,-112.0,-14.0,3.0006027221679688,2.362917900085449,0,0,0,40000
1381478,0.013736292719841003,-1.9906281232833862,-72.0,-11.0,3.10162353515625,2.6253371238708496,0,0,0,40000
1381488,-0.034617796540260315,-2.0043437480926514,-74.0,-21.0,3.2438535690307617,2.915917158126831,0,0,0,40000
1381498,-0.06871626526117325,-2.0021283626556396,-45.0,15.0,3.2906618118286133,3.1221609115600586,0,0,0,40000
1381508,-0.10392419993877411,-1.9926940202713013,-64.0,-3.0,3.293917655944824,3.336045742034912,0,0,0,40000
1381518,-0.13158480823040009,-1.992200255393982,-57.0,34.0,3.3507585525512695,3.5056161880493164,0,0,0,40000
1381528,-0.15649615228176117,-1.953477144241333,-25.0,94.0,3.1776046752929688,3.659562110900879,0,0,0,40000
1381538,-0.16381409764289856,-1.9013066291809082,3.0,127.0,2.92227840423584,3.708332061767578,0,0,0,40000
1381548,-0.1518055647611618,-1.797953724861145,14.0,160.0,2.3574342727661133,3.6410179138183594,0,0,0,40000
1381558,-0.14447133243083954,-1.7320739030838013,25.0,129.0,2.0148744583129883,3.601445436477661,0,0,0,40000
1381568,-0.12649081647396088,-1.6546881198883057,35.0,90.0,1.6010675430297852,3.4975686073303223,0,0,0,40000
1381578,-0.10989205539226532,-1.6160272359848022,48.0,66.0,1.4180097579956055,3.4014852046966553,0,0,0,40000
1381588,-0.07810305058956146,-1.585135817527771,42.0,8.0,1.2804450988769531,3.2134718894958496,0,0,0,40000
1381598,-0.06038123741745949,-1.5952540636062622,65.0,-40.0,1.3888893127441406,3.1092066764831543,0,0,0,40000
1381608,-0.03210555389523506,-1.6233139038085938,55.0,-75.0,1.6055240631103516,2.9408297538757324,0,0,0,40000
1381618,-0.006193163804709911,-1.6584571599960327,70.0,-66.0,1.8657245635986328,2.785841941833496,0,0,0,40000
1381628,0.04531548172235489,-1.7062448263168335,71.0,-62.0,2.2030839920043945,2.4760122299194336,0,0,0,40000
1381638,0.081954725086689,-1.7316745519638062,86.0,-30.0,2.4073591232299805,2.2541465759277344,0,0,0,40000
1381648,0.14434243738651276,-1.7488033771514893,79.0,-17.0,2.5624704360961914,1.8762425184249878,0,0,0,40000
1381658,0.17556247115135193,-1.7624338865280151,59.0,-33.0,2.6969375610351562,1.6840345859527588,0,0,0,40000
1381668,0.21828001737594604,-1.7885231971740723,52.0,-29.0,2.906802177429199,1.421700119972229,0,0,0,40000
1381678,0.23968419432640076,-1.8023812770843506,45.0,0.0,3.043872833251953,1.2863237857818604,0,0,0,40000
1381688,0.26764214038848877,-1.7825970649719238,32.0,72.0,2.979043960571289,1.1108858585357666,0,0,0,40000
1381698,0.2825247347354889,-1.7357282638549805,45.0,151.0,2.7505035400390625,1.013310194015503,0,0,0,40000
1381708,0.31339335441589355,-1.612497091293335,31.0,229.0,2.061140537261963,0.8190395832061768,0,0,0,40000
1381718,0.3282085955142975,-1.501430630683899,46.0,258.0,1.4411420822143555,0.7204902172088623,0,0,0,40000
1381728,0.3406333327293396,-1.3425945043563843,15.0,225.0,0.5302400588989258,0.6357874870300293,0,0,0,40000
1381738,0.34624940156936646,-1.2585073709487915,8.0,160.0,0.06446075439453125,0.5917668342590332,0,0,0,40000
1381748,0.35530638694763184,-1.188389539718628,9.0,87.0,-0.3199124336242676,0.5268757343292236,0,0,0,40000
1381758,0.3600090444087982,-1.1665840148925781,2.0,-1.0,-0.4155416488647461,0.48790812492370605,0,0,0,40000
1381768,0.3554483950138092,-1.1951982975006104,-17.0,-65.0,-0.20846223831176758,0.5044825077056885,0,0,0,40000
1381778,0.34938734769821167,-1.2432899475097656,-26.0,-127.0,0.1167764663696289,0.5303056240081787,0,0,0,40000
1381788,0.33298102021217346,-1.3503221273422241,-25.0,-178.0,0.7981171607971191,0.6185657978057861,0,0,0,40000
1381798,0.3254716396331787,-1.4238066673278809,-29.0,-169.0,1.2808637619018555,0.653773307800293,0,0,0,40000
1381808,0.30240750312805176,-1.5444755554199219,-45.0,-157.0,2.049783706665039,0.7827887535095215,0,0,0,40000
1381818,0.28602761030197144,-1.60911226272583,-24.0,-109.0,2.4851083755493164,0.8723093271255493,0,0,0,40000
1381828,0.269038587808609,-1.6706424951553345,-18.0,-48.0,2.9038009643554688,0.9660277366638184,0,0,0,40000
1381838,0.2612144351005554,-1.6781306266784668,-17.0,16.0,2.999002456665039,1.005060076713562,0,0,0,40000
1381848,0.25229138135910034,-1.62903892993927,-7.0,108.0,2.75411319732666,1.0509427785873413,0,0,0,40000
1381858,0.24875791370868683,-1.5723263025283813,-26.0,151.0,2.4617176055908203,1.0646231174468994,0,0,0,40000
1381868,0.24154134094715118,-1.444113850593567,1.0,209.0,1.737410545349121,1.100649356842041,0,0,0,40000
1381878,0.24210017919540405,-1.3432366847991943,10.0,227.0,1.1736831665039062,1.0900439023971558,0,0,0,40000
1381888,0.2525443732738495,-1.2127348184585571,4.0,167.0,0.4285163879394531,1.019921064376831,0,0,0,40000
1381898,0.259103000164032,-1.1499710083007812,4.0,99.0,0.08716011047363281,0.972894549369812,0,0,0,40000
1381908,0.2664109468460083,-1.1039162874221802,24.0,31.0,-0.15564250946044922,0.9212090969085693,0,0,0,40000
1381918,0.27463531494140625,-1.1027743816375732,4.0,-29.0,-0.12943220138549805,0.8637104034423828,0,0,0,40000
1381928,0.2953181862831116,-1.1530271768569946,29.0,-94.0,0.20589923858642578,0.7310961484909058,0,0,0,40000
1381938,0.3124743402004242,-1.197748064994812,38.0,-104.0,0.5096139907836914,0.6189634799957275,0,0,0,40000
1381948,0.3327741324901581,-1.2677605152130127,10.0,-87.0,0.966914176940918,0.4873380661010742,0,0,0,40000
1381958,0.3459976315498352,-1.3051016330718994,29.0,-70.0,1.2297015190124512,0.39780569076538086,0,0,0,40000
1381968,0.35978150367736816,-1.3550347089767456,19.0,-80.0,1.5693144798278809,0.3044605255126953,0,0,0,40000
1381978,0.37206897139549255,-1.3943973779678345,6.0,-71.0,1.846879005432129,0.21973633766174316,0,0,0,40000
1381988,0.37600061297416687,-1.431278944015503,10.0,-70.0,2.1106271743774414,0.18492650985717773,0,0,0,40000
1381998,0.3761821389198303,-1.4591906070709229,2.0,-32.0,2.321560859680176,0.1725444793701172,0,0,0,40000
1382008,0.38113468885421753,-1.4852880239486694,6.0,-40.0,2.5223913192749023,0.13149809837341309,0,0,0,40000
1382018,0.3727360963821411,-1.4995534420013428,-6.0,-4.0,2.652825355529785,0.17062044143676758,0,0,0,40000
1382028,0.3676650822162628,-1.5113577842712402,-9.0,-29.0,2.7687673568725586,0.18996953964233398,0,0,0,40000
1382038,0.3636637330055237,-1.5168293714523315,-13.0,-18.0,2.8470335006713867,0.20302295684814453,0,0,0,40000
1382048,0.35005518794059753,-1.525837779045105,-28.0,-10.0,2.9467029571533203,0.27398014068603516,0,0,0,40000
1382058,0.33968544006347656,-1.5349539518356323,-23.0,-44.0,3.0473222732543945,0.3259096145629883,0,0,0,40000
1382068,0.31898432970046997,-1.5685642957687378,-28.0,-68.0,3.295567512512207,0.4402874708175659,0,0,0,40000
1382078,0.293887197971344,-1.6036893129348755,-40.0,-53.0,3.5540428161621094,0.5817297697067261,0,0,0,40000
1382088,0.26307153701782227,-1.6393040418624878,-23.0,-48.0,3.816464900970459,0.758359432220459,0,0,0,40000
1382098,0.24968096613883972,-1.647077202796936,-32.0,-2.0,3.912471294403076,0.8310332298278809,0,0,0,40000
1382108,0.22026577591896057,-1.6324067115783691,-47.0,47.0,3.8737268447875977,1.0005395412445068,0,0,0,40000
1382118,0.20705409348011017,-1.6068516969680786,-34.0,39.0,3.7689008712768555,1.0734508037567139,0,0,0,40000
1382128,0.1744510531425476,-1.583200216293335,-67.0,39.0,3.6748104095458984,1.2633970975875854,0,0,0,40000
1382138,0.1427287757396698,-1.5597615242004395,-74.0,55.0,3.581263542175293,1.4490857124328613,0,0,0,40000
1382148,0.10181412845849991,-1.5361453294754028,-49.0,34.0,3.485868453979492,1.6911147832870483,0,0,0,40000
1382158,0.07674672454595566,-1.526706337928772,-50.0,35.0,3.475189208984375,1.8389033079147339,0,0,0,40000
1382168,0.04349583014845848,-1.4977785348892212,-43.0,45.0,3.3469161987304688,2.0367279052734375,0,0,0,40000
1382178,0.028818735852837563,-1.476932406425476,-34.0,67.0,3.2663965225219727,2.1237571239471436,0,0,0,40000
1382188,0.014537387527525425,-1.4127755165100098,-23.0,98.0,2.924635887145996,2.2088613510131836,0,0,0,40000
1382198,0.006631254218518734,-1.3650598526000977,-42.0,102.0,2.6798715591430664,2.255991220474243,0,0,0,40000
1382208,0.003965779207646847,-1.2946447134017944,-3.0,90.0,2.296955108642578,2.271907329559326,0,0,0,40000
1382218,0.00963305402547121,-1.2612110376358032,7.0,81.0,2.134608268737793,2.237698554992676,0,0,0,40000
1382228,0.01849956251680851,-1.2167426347732544,34.0,71.0,1.9048166275024414,2.1841201782226562,0,0,0,40000
1382238,0.02182445116341114,-1.1846939325332642,2.0,71.0,1.7484683990478516,2.163534641265869,0,0,0,40000
1382248,0.038499392569065094,-1.125854253768921,24.0,100.0,1.4299702644348145,2.0626230239868164,0,0,0,40000
1382258,0.061200134456157684,-1.0770167112350464,39.0,98.0,1.16981840133667,1.9248700141906738,0,0,0,40000
1382268,0.08798766136169434,-1.0370986461639404,47.0,47.0,0.9617524147033691,1.7618577480316162,0,0,0,40000
1382278,0.09887649863958359,-1.0178728103637695,27.0,33.0,0.8771581649780273,1.6937021017074585,0,0,0,40000
1382288,0.11235272884368896,-0.997586727142334,12.0,38.0,0.7856731414794922,1.6095819473266602,0,0,0,40000
1382298,0.12958969175815582,-0.967226505279541,13.0,56.0,0.6328926086425781,1.502445101737976,0,0,0,40000
1382308,0.1525791734457016,-0.9270628690719604,38.0,54.0,0.42018699645996094,1.3602865934371948,0,0,0,40000
1382318,0.17198753356933594,-0.8959721922874451,26.0,56.0,0.2608647346496582,1.2389042377471924,0,0,0,40000
1382328,0.19587068259716034,-0.8561667799949646,41.0,61.0,0.04820871353149414,1.0900626182556152,0,0,0,40000
1382338,0.20747041702270508,-0.8184331655502319,42.0,79.0,-0.15315580368041992,1.0143916606903076,0,0,0,40000
1382348,0.2369929701089859,-0.7558068633079529,16.0,109.0,-0.5054373741149902,0.8303450345993042,0,0,0,40000
1382358,0.2396935522556305,-0.7190377712249756,-11.0,92.0,-0.7040438652038574,0.8069438934326172,0,0,0,40000
1382368,0.24173879623413086,-0.6660348773002625,7.0,83.0,-1.0014328956604004,0.7874913215637207,0,0,0,40000
1382378,0.23536185920238495,-0.6270219087600708,-28.0,88.0,-1.2162296772003174,0.8185839653015137,0,0,0,40000
1382388,0.21716181933879852,-0.5391021370887756,-36.0,135.0,-1.7264533042907715,0.9210259914398193,0,0,0,40000
1382398,0.20573508739471436,-0.4734797179698944,-50.0,110.0,-2.105226755142212,0.9832324981689453,0,0,0,40000
1382408,0.1702401340007782,-0.40498846769332886,-67.0,82.0,-2.5033092498779297,1.1905817985534668,0,0,0,40000
1382418,0.13927796483039856,-0.39459165930747986,-70.0,28.0,-2.553771495819092,1.3717875480651855,0,0,0,40000
1382428,0.07978224009275436,-0.39149606227874756,-96.0,-4.0,-2.560663938522339,1.7255680561065674,0,0,0,40000
1382438,0.03900692239403725,-0.41469869017601013,-74.0,-75.0,-2.4093027114868164,1.9685810804367065,0,0,0,40000
1382448,-0.020777283236384392,-0.5012468695640564,-91.0,-157.0,-1.8762192726135254,2.327171564102173,0,0,0,40000
1382458,-0.06534907221794128,-0.5838714838027954,-108.0,-204.0,-1.363983392715454,2.596015214920044,0,0,0,40000
1382468,-0.11569302529096603,-0.7274268865585327,-50.0,-198.0,-0.48253345489501953,2.901075601577759,0,0,0,40000
1382478,-0.14290961623191833,-0.8155968189239502,-73.0,-176.0,0.06990289688110352,3.0683178901672363,0,0,0,40000
1382488,-0.18826062977313995,-0.9156538248062134,-60.0,-118.0,0.6966333389282227,3.345533847808838,0,0,0,40000
1382498,-0.20737610757350922,-0.9614047408103943,-23.0,-74.0,0.9994864463806152,3.4662628173828125,0,0,0,40000
1382508,-0.2364453226327896,-1.0047659873962402,-24.0,-47.0,1.2893095016479492,3.647414207458496,0,0,0,40000
1382518,-0.2512577772140503,-1.0089796781539917,-1.0,42.0,1.3448495864868164,3.7436554431915283,0,0,0,40000
1382528,-0.2408209890127182,-0.9608016014099121,1.0,85.0,1.0852622985839844,3.6883697509765625,0,0,0,40000
1382538,-0.23080265522003174,-0.8999233841896057,19.0,152.0,0.7477498054504395,3.6353256702423096,0,0,0,40000
1382548,-0.20292527973651886,-0.7872923612594604,46.0,170.0,0.09694957733154297,3.474524974822998,0,0,0,40000
1382558,-0.1750553399324417,-0.7187879681587219,64.0,151.0,-0.2916984558105469,3.3128867149353027,0,0,0,40000
1382568,-0.1286303550004959,-0.6392406225204468,62.0,101.0,-0.7489669322967529,3.038724899291992,0,0,0,40000
1382578,-0.09072417765855789,-0.5929911136627197,94.0,102.0,-1.0081171989440918,2.814479351043701,0,0,0,40000
1382588,-0.017617572098970413,-0.5406184792518616,103.0,58.0,-1.3055973052978516,2.377272367477417,0,0,0,40000
1382598,0.036940205842256546,-0.5197082161903381,128.0,16.0,-1.4152402877807617,2.049492120742798,0,0,0,40000
1382608,0.11903688311576843,-0.5403430461883545,125.0,-61.0,-1.2757034301757812,1.554328441619873,0,0,0,40000
1382618,0.17606255412101746,-0.5679156184196472,129.0,-46.0,-1.0935492515563965,1.2075855731964111,0,0,0,40000
1382628,0.2605747878551483,-0.5982092618942261,124.0,-44.0,-0.8942134380340576,0.6936976909637451,0,0,0,40000
1382638,0.31388211250305176,-0.6104235649108887,124.0,-21.0,-0.8027410507202148,0.365093469619751,0,0,0,40000
1382648,0.3947746157646179,-0.6165729761123657,116.0,7.0,-0.7473785877227783,-0.1311333179473877,0,0,0,40000
1382658,0.4502963423728943,-0.6295763254165649,116.0,-49.0,-0.6506359577178955,-0.47711181640625,0,0,0,40000
1382668,0.5279012322425842,-0.6581860184669495,101.0,-28.0,-0.4594907760620117,-0.957648754119873,0,0,0,40000
1382678,0.5803625583648682,-0.6636027097702026,98.0,-3.0,-0.40714430809020996,-1.289208173751831,0,0,0,40000
1382688,0.6393342018127441,-0.6479833722114563,94.0,38.0,-0.481142520904541,-1.6614651679992676,0,0,0,40000
1382698,0.6771013736724854,-0.6163069009780884,73.0,63.0,-0.6523396968841553,-1.9079501628875732,0,0,0,40000
1382708,0.7058263421058655,-0.5754944086074829,27.0,45.0,-0.879535436630249,-2.1012277603149414,0,0,0,40000
1382718,0.7203953862190247,-0.5772304534912109,34.0,-30.0,-0.8518829345703125,-2.2100725173950195,0,0,0,40000
1382728,0.7435666918754578,-0.5976641774177551,27.0,-27.0,-0.7116036415100098,-2.371131181716919,0,0,0,40000
1382738,0.7534887194633484,-0.6154558658599854,10.0,-68.0,-0.5866212844848633,-2.4531548023223877,0,0,0,40000
1382748,0.7568725943565369,-0.6635045409202576,-2.0,-60.0,-0.27898740768432617,-2.4961466789245605,0,0,0,40000
1382758,0.7482924461364746,-0.6872762441635132,-17.0,-22.0,-0.1159825325012207,-2.4672257900238037,0,0,0,40000
1382768,0.7296373844146729,-0.6982139945030212,-33.0,10.0,-0.029477596282958984,-2.377497911453247,0,0,0,40000
1382778,0.7078841924667358,-0.683306097984314,-49.0,52.0,-0.09820175170898438,-2.2684850692749023,0,0,0,40000
1382788,0.6672989130020142,-0.6400923132896423,-52.0,76.0,-0.3377232551574707,-2.0454487800598145,0,0,0,40000
1382798,0.646031379699707,-0.6010609865188599,-51.0,103.0,-0.5533955097198486,-1.9374744892120361,0,0,0,40000
1382808,0.6140784025192261,-0.5497914552688599,-60.0,77.0,-0.8439390659332275,-1.7645595073699951,0,0,0,40000
1382818,0.5862783789634705,-0.5378090739250183,-65.0,17.0,-0.8995952606201172,-1.615691900253296,0,0,0,40000
1382828,0.5370199084281921,-0.5387634634971619,-75.0,-20.0,-0.8778305053710938,-1.336898684501648,0,0,0,40000
1382838,0.5085281729698181,-0.5677565336227417,-56.0,-79.0,-0.6872594356536865,-1.1815385818481445,0,0,0,40000
1382848,0.4629858136177063,-0.6342531442642212,-63.0,-101.0,-0.270099401473999,-0.9227451086044312,0,0,0,40000
1382858,0.43368974328041077,-0.6764072179794312,-58.0,-114.0,0.0025920867919921875,-0.7603240013122559,0,0,0,40000
1382868,0.39538657665252686,-0.7344902157783508,-66.0,-73.0,0.3724846839904785,-0.542832612991333,0,0,0,40000
1382878,0.362318217754364,-0.7645682692527771,-55.0,-35.0,0.5755620002746582,-0.3556809425354004,0,0,0,40000
1382888,0.31702059507369995,-0.7667046785354614,-65.0,25.0,0.6115241050720215,-0.09396708011627197,0,0,0,40000
1382898,0.3021538555622101,-0.7383614182472229,-37.0,65.0,0.46397900581359863,-0.013983964920043945,0,0,0,40000
1382908,0.27017685770988464,-0.6997471451759338,-49.0,68.0,0.2537825107574463,0.16932892799377441,0,0,0,40000
1382918,0.24486267566680908,-0.6609988212585449,-43.0,89.0,0.041599273681640625,0.31356072425842285,0,0,0,40000
1382928,0.2129112035036087,-0.5990280508995056,-38.0,102.0,-0.3114585876464844,0.498551607131958,0,0,0,40000
1382938,0.19386370480060577,-0.5367814898490906,-60.0,160.0,-0.6680278778076172,0.6067936420440674,0,0,0,40000
1382948,0.158625066280365,-0.440363347530365,-45.0,126.0,-1.232222318649292,0.8131231069564819,0,0,0,40000
1382958,0.13586458563804626,-0.3905215859413147,-52.0,78.0,-1.5189852714538574,0.9453160166740417,0,0,0,40000
1382968,0.10304055362939835,-0.3527345657348633,-39.0,36.0,-1.734766960144043,1.138806700706482,0,0,0,40000
1382978,0.0830647200345993,-0.3502614200115204,-25.0,12.0,-1.7390823364257812,1.2559504508972168,0,0,0,40000
1382988,0.06162436679005623,-0.36086487770080566,-35.0,-32.0,-1.6648321151733398,1.382446050643921,0,0,0,40000
1382998,0.04228230565786362,-0.3840824365615845,-34.0,-59.0,-1.5166268348693848,1.4972697496414185,0,0,0,40000
1383008,0.020712554454803467,-0.4168184995651245,-21.0,-83.0,-1.3081040382385254,1.6258026361465454,0,0,0,40000
1383018,0.0014842789387330413,-0.47911885380744934,-25.0,-103.0,-0.9207420349121094,1.7408943176269531,0,0,0,40000
1383028,-0.008545948192477226,-0.5187052488327026,6.0,-77.0,-0.6681067943572998,1.8012406826019287,0,0,0,40000
1383038,-0.015856381505727768,-0.5605008006095886,-17.0,-30.0,-0.4009385108947754,1.8454360961914062,0,0,0,40000
1383048,-0.016923174262046814,-0.5689133405685425,5.0,15.0,-0.33344149589538574,1.8523465394973755,0,0,0,40000
1383058,-0.009409461170434952,-0.5454128384590149,-2.0,63.0,-0.4577035903930664,1.807626485824585,0,0,0,40000
1383068,-0.013646677136421204,-0.5051570534706116,9.0,117.0,-0.6835458278656006,1.8334081172943115,0,0,0,40000
1383078,-0.007736727595329285,-0.4164607524871826,15.0,116.0,-1.2021441459655762,1.7982630729675293,0,0,0,40000
1383088,0.010759123601019382,-0.35985517501831055,39.0,128.0,-1.530271053314209,1.6872105598449707,0,0,0,40000
1383098,0.02691425010561943,-0.29411575198173523,8.0,92.0,-1.9152069091796875,1.5895965099334717,0,0,0,40000
1383108,0.036993514746427536,-0.2563980519771576,10.0,84.0,-2.1333892345428467,1.5281200408935547,0,0,0,40000
1383118,0.049910858273506165,-0.22368939220905304,25.0,4.0,-2.3227391242980957,1.449341893196106,0,0,0,40000
1383128,0.05745185166597366,-0.22966675460338593,32.0,-14.0,-2.2800819873809814,1.4024574756622314,0,0,0,40000
1383138,0.07785768806934357,-0.2632140815258026,37.0,-91.0,-2.0715553760528564,1.277937412261963,0,0,0,40000
1383148,0.09988819062709808,-0.30054110288619995,52.0,-117.0,-1.8390201330184937,1.1430505514144897,0,0,0,40000
1383158,0.13127976655960083,-0.40294092893600464,36.0,-162.0,-1.2139039039611816,0.951115608215332,0,0,0,40000
1383168,0.15001532435417175,-0.48398491740226746,44.0,-169.0,-0.7140815258026123,0.8344413638114929,0,0,0,40000
1383178,0.18512001633644104,-0.5981887578964233,63.0,-170.0,-0.012270212173461914,0.6187736988067627,0,0,0,40000
1383188,0.2041512131690979,-0.6713935136795044,63.0,-162.0,0.44622111320495605,0.49871551990509033,0,0,0,40000
1383198,0.2412485033273697,-0.7956566214561462,55.0,-161.0,1.2141942977905273,0.2692983150482178,0,0,0,40000
1383208,0.26477596163749695,-0.8698444366455078,26.0,-163.0,1.6845216751098633,0.12043976783752441,0,0,0,40000
1383218,0.2888491749763489,-0.9735186100006104,30.0,-148.0,2.334500789642334,-0.0323868989944458,0,0,0,40000
1383228,0.30994904041290283,-1.0298128128051758,35.0,-96.0,2.7025251388549805,-0.16801691055297852,0,0,0,40000
1383238,0.3404322564601898,-1.093983769416809,43.0,-65.0,3.1196060180664062,-0.3607518672943115,0,0,0,40000
1383248,0.3523879945278168,-1.1118959188461304,40.0,-5.0,3.2602598667144775,-0.4429144859313965,0,0,0,40000
1383258,0.3709790110588074,-1.0913474559783936,33.0,61.0,3.170132875442505,-0.5653917789459229,0,0,0,40000
1383268,0.3871079385280609,-1.0546553134918213,17.0,94.0,2.982057809829712,-0.6735999584197998,0,0,0,40000
1383278,0.40601783990859985,-0.9770386219024658,18.0,139.0,2.546678066253662,-0.7990372180938721,0,0,0,40000
1383288,0.4191928803920746,-0.922748863697052,23.0,135.0,2.2492880821228027,-0.8904869556427002,0,0,0,40000
1383298,0.42851951718330383,-0.8251199722290039,11.0,125.0,1.689394474029541,-0.9592390060424805,0,0,0,40000
1383308,0.42766064405441284,-0.7749784588813782,18.0,88.0,1.412405252456665,-0.9669163227081299,0,0,0,40000
1383318,0.441267728805542,-0.7363293766975403,17.0,53.0,1.202967643737793,-1.061661720275879,0,0,0,40000
1383328,0.44754377007484436,-0.7247719764709473,24.0,12.0,1.1554841995239258,-1.1126704216003418,0,0,0,40000
1383338,0.46249622106552124,-0.7306018471717834,-7.0,-42.0,1.212165355682373,-1.2161613702774048,0,0,0,40000
1383348,0.46672990918159485,-0.747871994972229,20.0,-25.0,1.3380420207977295,-1.2554867267608643,0,0,0,40000
1383358,0.4771733283996582,-0.7934669256210327,26.0,-73.0,1.6347360610961914,-1.332300066947937,0,0,0,40000
1383368,0.47709745168685913,-0.8235639929771423,13.0,-48.0,1.8397109508514404,-1.3461697101593018,0,0,0,40000
1383378,0.48510316014289856,-0.8487504720687866,11.0,-25.0,2.0160038471221924,-1.4086799621582031,0,0,0,40000
1383388,0.49195346236228943,-0.8562240600585938,19.0,-7.0,2.086432456970215,-1.4644725322723389,0,0,0,40000
1383398,0.5127573609352112,-0.856337308883667,10.0,11.0,2.112797260284424,-1.604425311088562,19.99999989926288,0.0020073576682769685,0,40000
1383408,0.5131327509880066,-0.8567304611206055,-2.0,10.0,2.1287457942962646,118.9779281616211,19.98946147747745,0.6491762784058696,0,40000
1383418,0.5265195965766907,-0.8306732177734375,34.0,40.0,-1.904781460762024,119.41852569580078,19.957296281166514,1.3062638116924479,0,40000
1383428,0.5560591220855713,-0.7988444566726685,116.0,80.0,-6.049125671386719,119.63092803955078,19.904656812496675,1.9505479170555386,0,40000
1383438,0.6655580997467041,-0.7543604969978333,224.0,55.0,-10.213312149047852,119.23712158203125,19.829574402951728,2.6053750205683675,0,40000
1383448,0.7926343083381653,-0.7211887836456299,348.0,72.0,-14.393516540527344,118.59727478027344,19.735277843881125,3.243271253659603,0,40000
1383458,1.0935038328170776,-0.6844132542610168,521.0,19.0,-18.514148712158203,116.79010009765625,19.621357463575972,3.8732843023165113,0,40000
1383468,1.377781629562378,-0.6853334903717041,689.0,-42.0,-22.380613327026367,114.952392578125,19.48671010095365,4.502013931718886,0,40000
1383478,1.931671142578125,-0.73621666431427,901.0,-116.0,-25.953903198242188,111.3565444946289,19.32721017878325,5.143826076485974,0,40000
1383488,2.397557497024536,-0.8052610158920288,1103.0,-205.0,-29.513853073120117,108.1197509765625,19.15239957438616,5.760693581770591,0,40000
1383498,3.224759578704834,-0.9733877778053284,1326.0,-286.0,-32.3447265625,102.59803009033203,18.954968777579932,6.380372923346248,0,40000
1383508,3.8788487911224365,-1.1315382719039917,1517.0,-361.0,-35.265869140625,97.95152282714844,18.739132987757582,6.988912280686858,0,40000
1383518,4.979620456695557,-1.402949333190918,1676.0,-444.0,-37.45235061645508,90.48078918457031,18.739132987757582,6.988912280686858,0,40000
1383528,5.798643589019775,-1.6233912706375122,1817.0,-503.0,-40.05586242675781,84.48899841308594,18.238407873766803,8.207342945809021,0,40000
1383538,7.10759973526001,-1.990782618522644,1967.0,-598.0,-41.587493896484375,75.45830535888672,18.238407873766803,8.207342945809021,0,40000
1383548,8.033825874328613,-2.2640464305877686,2080.0,-659.0,-43.70110321044922,68.54005432128906,17.666683988677722,9.374874764187421,0,40000
1383558,9.48117446899414,-2.7243051528930664,2124.0,-711.0,-44.57509231567383,58.36874771118164,17.666683988677722,9.374874764187421,0,40000
1383568,10.472867965698242,-3.0339415073394775,2117.0,-727.0,-46.33534240722656,50.75718688964844,17.35215404279828,9.944986177717865,0,40000
1383578,11.948260307312012,-3.5133724212646484,2116.0,-733.0,-46.981834411621094,40.107643127441406,17.023314955094705,10.49794017603687,0,40000
1383588,12.933673858642578,-3.826544761657715,2088.0,-747.0,-48.578025817871094,32.2386360168457,16.675149366478173,11.042617153811069,0,40000
1383598,14.350783348083496,-4.299365520477295,2013.0,-766.0,-49.14871597290039,21.628582000732422,16.30984885547793,11.575354435673457,0,40000
1383608,15.260354042053223,-4.617474555969238,1888.0,-737.0,-50.56249237060547,13.930356979370117,15.929709155182248,12.09315369253624,0,40000
1383618,16.529460906982422,-5.066243648529053,1735.0,-715.0,-51.130638122558594,3.9229469299316406,15.531834762001466,12.600083687257115,0,40000
1383628,17.30881690979004,-5.359313488006592,1539.0,-717.0,-52.54296112060547,-3.2698326110839844,15.120149481348232,13.091259666727444,0,40000
1383638,18.33661460876465,-5.794050693511963,1359.0,-719.0,-53.04048156738281,-12.09857177734375,14.691006939220587,13.57108378545253,0,40000
1383648,18.939931869506836,-6.086393356323242,1164.0,-727.0,-54.36344528198242,-18.558502197265625,14.238178520033205,14.045436000055858,0,40000
1383658,19.701440811157227,-6.532536029815674,1019.0,-776.0,-51.917476654052734,-23.28262710571289,13.761097930746406,14.513172766159954,0,40000
1383668,20.101783752441406,-6.865735054016113,693.0,-818.0,-52.958160400390625,-28.732778549194336,13.287346407278717,14.948124479444814,0,40000
1383678,20.527111053466797,-7.405280590057373,474.0,-895.0,-52.56352996826172,-34.339805603027344,12.794478771352434,15.37209526933176,0,40000
1383688,20.709035873413086,-7.788642883300781,214.0,-958.0,-53.039344787597656,-38.623992919921875,12.29070343691339,15.777788470690224,0,40000
1383698,20.822860717773438,-8.41294002532959,-2.0,-1009.0,-51.9563102722168,-42.58469009399414,11.768622895626343,16.170946637118664,0,40000
1383708,20.799009323120117,-8.8583345413208,-253.0,-1043.0,-51.86763381958008,-45.84537124633789,11.238064803292536,16.5440593409537,0,40000
1383718,20.59272003173828,-9.54711627960205,-409.0,-1040.0,-50.18963623046875,-48.07124710083008,10.701901372719199,16.89583697271582,0,40000
1383728,20.36429786682129,-10.008075714111328,-625.0,-1027.0,-49.74462127685547,-50.207210540771484,10.133175436217812,17.24293349690916,0,40000
1383738,19.89690399169922,-10.72289752960205,-795.0,-1051.0,-47.740501403808594,-51.110748291015625,9.547794009782256,17.57383366106457,0,40000
1383748,19.499311447143555,-11.211559295654297,-982.0,-1038.0,-46.98869705200195,-52.537410736083984,8.97678184904774,17.8722518904196,0,40000
1383758,18.806720733642578,-11.92574691772461,-1092.0,-990.0,-44.67918014526367,-52.108009338378906,8.398438840350162,18.151204506723456,0,40000
1383768,18.271448135375977,-12.387928009033203,-1242.0,-922.0,-43.75657272338867,-52.66566467285156,7.808184577351177,18.412828506397794,0,40000
