timestamp,motor.m1,motor.m2,motor.m3,motor.m4,roll,pitch,yawdot,thrust
859315,7275.0,39959.0,65535.0,39959.0,0,0,0,40000
859325,7419.0,39815.0,65535.0,39815.0,0,0,0,40000
859335,7611.0,39623.0,65535.0,39623.0,0,0,0,40000
859345,7688.0,39546.0,65535.0,39546.0,0,0,0,40000
859355,7835.0,39399.0,65535.0,39399.0,0,0,0,40000
859365,7985.0,39249.0,65535.0,39249.0,0,0,0,40000
859375,7848.0,39386.0,65535.0,39386.0,0,0,0,40000
859385,7783.0,39451.0,65535.0,39451.0,0,0,0,40000
859395,7641.0,39593.0,65535.0,39593.0,0,0,0,40000
859405,7368.0,39866.0,65535.0,39866.0,0,0,0,40000
859415,7032.0,40202.0,65535.0,40202.0,0,0,0,40000
859425,6791.0,40443.0,65535.0,40443.0,0,0,0,40000
859435,12353.0,34881.0,65535.0,46883.0,0,0,0,40000
859445,16252.0,30982.0,60696.0,52070.0,0,0,0,40000
859455,29365.0,17869.0,45923.0,65535.0,0,0,0,40000
859465,29906.0,17328.0,44178.0,65535.0,0,0,0,40000
859475,36182.0,11052.0,36182.0,65535.0,0,0,0,40000
859485,35252.0,11982.0,35252.0,65535.0,0,0,0,40000
859495,38669.0,16595.0,30639.0,65535.0,0,0,0,40000
859505,39739.0,19017.0,28217.0,65535.0,0,0,0,40000
859515,47716.0,27442.0,19792.0,65050.0,0,0,0,40000
859525,45252.0,24922.0,22312.0,65535.0,0,0,0,40000
859535,50443.0,28813.0,18421.0,62323.0,0,0,0,40000
859545,45853.0,36371.0,24145.0,53631.0,0,0,0,40000
859555,53345.0,43557.0,17911.0,45187.0,0,0,0,40000
859565,38918.0,56034.0,32666.0,32382.0,0,0,0,40000
859575,37615.0,65535.0,35719.0,20883.0,0,0,0,40000
859585,30116.0,65535.0,43810.0,17118.0,0,0,0,40000
859595,34069.0,65535.0,40365.0,13165.0,0,0,0,40000
859605,31959.0,65535.0,41275.0,15275.0,0,0,0,40000
859615,36725.0,65535.0,37411.0,10509.0,0,0,0,40000
859625,33161.0,65535.0,40305.0,14073.0,0,0,0,40000
859635,36406.0,65535.0,37742.0,10828.0,0,0,0,40000
859645,32883.0,65535.0,40135.0,14351.0,0,0,0,40000
859655,34463.0,65535.0,39851.0,12771.0,0,0,0,40000
859665,32737.0,65535.0,41113.0,14497.0,0,0,0,40000
859675,35576.0,65535.0,39852.0,11658.0,0,0,0,40000
859685,32478.0,65535.0,42450.0,14756.0,0,0,0,40000
859695,36156.0,65278.0,40860.0,17706.0,0,0,0,40000
859705,37550.0,58896.0,39198.0,24356.0,0,0,0,40000
859715,45773.0,47875.0,32731.0,33621.0,0,0,0,40000
859725,46879.0,43179.0,31651.0,38291.0,0,0,0,40000
859735,52438.0,36324.0,27752.0,43486.0,0,0,0,40000
859745,48236.0,34742.0,31418.0,45604.0,0,0,0,40000
859755,49861.0,25187.0,30405.0,54547.0,0,0,0,40000
859765,43471.0,29555.0,36311.0,50663.0,0,0,0,40000
859775,42752.0,24758.0,36442.0,56048.0,0,0,0,40000
859785,38684.0,31912.0,39658.0,49746.0,0,0,0,40000
859795,32814.0,30298.0,46248.0,50640.0,0,0,0,40000
859805,27438.0,35674.0,50606.0,46282.0,0,0,0,40000
859815,23403.0,33963.0,54497.0,48137.0,0,0,0,40000
859825,19875.0,39331.0,57775.0,43019.0,0,0,0,40000
859835,16985.0,38719.0,61411.0,42885.0,0,0,0,40000
859845,16683.0,41911.0,60871.0,40535.0,0,0,0,40000
859855,15111.0,39373.0,62493.0,43023.0,0,0,0,40000
859865,17016.0,39214.0,61852.0,41918.0,0,0,0,40000
859875,17899.0,37571.0,60715.0,43815.0,0,0,0,40000
859885,20951.0,39273.0,57589.0,42187.0,0,0,0,40000
859895,22991.0,35263.0,54747.0,46999.0,0,0,0,40000
859905,25865.0,34101.0,54113.0,45921.0,0,0,0,40000
859915,29882.0,32956.0,48652.0,48510.0,0,0,0,40000
859925,33474.0,33806.0,46174.0,46546.0,0,0,0,40000
859935,34939.0,32481.0,43383.0,49197.0,0,0,0,40000
859945,36874.0,32722.0,43218.0,47186.0,0,0,0,40000
859955,37018.0,33302.0,42048.0,47632.0,0,0,0,40000
859965,37557.0,36995.0,42693.0,42755.0,0,0,0,40000
859975,39804.0,38384.0,40416.0,41396.0,0,0,0,40000
859985,36576.0,41936.0,44844.0,36644.0,0,0,0,40000
859995,36834.0,44538.0,43420.0,35208.0,0,0,0,40000
860005,37234.0,45378.0,44208.0,33180.0,0,0,0,40000
860015,37095.0,48123.0,43929.0,30853.0,0,0,0,40000
860025,36184.0,48454.0,45452.0,29910.0,0,0,0,40000
860035,37199.0,50023.0,44065.0,28713.0,0,0,0,40000
860045,37430.0,48756.0,44338.0,29476.0,0,0,0,40000
860055,38295.0,49701.0,43425.0,28579.0,0,0,0,40000
860065,38893.0,48609.0,42625.0,29873.0,0,0,0,40000
860075,38829.0,50401.0,41079.0,29691.0,0,0,0,40000
860085,40067.0,46253.0,41153.0,32527.0,0,0,0,40000
860095,40131.0,44997.0,40485.0,34387.0,0,0,0,40000
860105,40289.0,43531.0,40953.0,35227.0,0,0,0,40000
860115,40910.0,43400.0,39064.0,36626.0,0,0,0,40000
860125,41444.0,41036.0,39380.0,38140.0,0,0,0,40000
860135,39635.0,41279.0,40085.0,39001.0,0,0,0,40000
860145,39399.0,39809.0,39673.0,41119.0,0,0,0,40000
860155,37455.0,40337.0,41477.0,40731.0,0,0,0,40000
860165,36236.0,39864.0,43282.0,40618.0,0,0,0,40000
860175,33604.0,40028.0,45246.0,41122.0,0,0,0,40000
860185,33008.0,40440.0,45756.0,40796.0,0,0,0,40000
860195,32248.0,42146.0,46174.0,39432.0,0,0,0,40000
860205,29976.0,41324.0,48664.0,40036.0,0,0,0,40000
860215,30482.0,41628.0,47850.0,40040.0,0,0,0,40000
860225,29729.0,40979.0,48651.0,40641.0,0,0,0,40000
860235,30405.0,39709.0,48209.0,41677.0,0,0,0,40000
860245,28583.0,39743.0,49993.0,41681.0,0,0,0,40000
860255,31646.0,39942.0,46774.0,41638.0,0,0,0,40000
860265,31619.0,37851.0,46851.0,43679.0,0,0,0,40000
860275,32670.0,37204.0,46214.0,43912.0,0,0,0,40000
860285,31376.0,37428.0,46924.0,44272.0,0,0,0,40000
860295,33373.0,37353.0,45925.0,43349.0,0,0,0,40000
860305,31422.0,39444.0,46866.0,42268.0,0,0,0,40000
860315,33042.0,39556.0,46568.0,40834.0,0,0,0,40000
860325,31704.0,41158.0,46720.0,40418.0,0,0,0,40000
860335,32179.0,40839.0,47543.0,39439.0,0,0,0,40000
860345,32209.0,42231.0,47959.0,37601.0,0,0,0,40000
860355,33473.0,42263.0,46233.0,38031.0,0,0,0,40000
860365,32253.0,42217.0,47361.0,38169.0,0,0,0,40000
860375,32631.0,43629.0,46921.0,36819.0,0,0,0,40000
860385,33878.0,43284.0,46276.0,36562.0,0,0,0,40000
860395,34632.0,43788.0,45650.0,35930.0,0,0,0,40000
860405,34689.0,43135.0,45701.0,36475.0,0,0,0,40000
860415,35328.0,42880.0,44534.0,37258.0,0,0,0,40000
860425,34994.0,43426.0,45140.0,36440.0,0,0,0,40000
860435,35797.0,41977.0,44471.0,37755.0,0,0,0,40000
860445,36202.0,42844.0,43798.0,37156.0,0,0,0,40000
860455,37311.0,42429.0,42737.0,37523.0,0,0,0,40000
860465,36834.0,42830.0,43410.0,36926.0,0,0,0,40000
860475,36287.0,42213.0,43725.0,37775.0,0,0,0,40000
860485,35804.0,41254.0,44260.0,38682.0,0,0,0,40000
860495,35941.0,40981.0,43635.0,39443.0,0,0,0,40000
860505,35019.0,43367.0,44609.0,37005.0,0,0,0,40000
860515,34272.0,42098.0,45380.0,38250.0,0,0,0,40000
860525,33637.0,41789.0,46105.0,38469.0,0,0,0,40000
860535,32362.0,41220.0,47606.0,38812.0,0,0,0,40000
860545,32273.0,41473.0,46989.0,39265.0,0,0,0,40000
860555,31894.0,42398.0,47612.0,38096.0,0,0,0,40000
860565,32097.0,41165.0,47079.0,39659.0,0,0,0,40000
860575,33251.0,39867.0,46389.0,40493.0,0,0,0,40000
860585,32247.0,39835.0,46677.0,41241.0,0,0,0,40000
860595,32287.0,39461.0,47683.0,40569.0,0,0,0,40000
860605,31600.0,40356.0,47432.0,40612.0,0,0,0,40000
860615,32562.0,40182.0,46720.0,40536.0,0,0,0,40000
860625,31707.0,40129.0,46875.0,41289.0,0,0,0,40000
860635,31746.0,39312.0,47712.0,41230.0,0,0,0,40000
860645,31569.0,39899.0,48097.0,40435.0,0,0,0,40000
860655,32104.0,40750.0,47404.0,39742.0,0,0,0,40000
860665,31205.0,41753.0,48279.0,38763.0,0,0,0,40000
860675,31946.0,41842.0,47546.0,38666.0,0,0,0,40000
860685,31485.0,41239.0,47901.0,39375.0,0,0,0,40000
860695,30528.0,41994.0,49048.0,38430.0,0,0,0,40000
860705,33655.0,40487.0,45727.0,40131.0,0,0,0,40000
860715,33930.0,39976.0,46352.0,39742.0,0,0,0,40000
860725,33457.0,40817.0,46191.0,39535.0,0,0,0,40000
860735,34638.0,38892.0,44860.0,41610.0,0,0,0,40000
860745,33872.0,40066.0,45780.0,40282.0,0,0,0,40000
860755,34249.0,39961.0,45553.0,40237.0,0,0,0,40000
860765,34894.0,39956.0,44806.0,40344.0,0,0,0,40000
860775,35021.0,40459.0,44765.0,39755.0,0,0,0,40000
860785,34458.0,41356.0,45982.0,38204.0,0,0,0,40000
860795,33525.0,40907.0,46519.0,39049.0,0,0,0,40000
860805,33457.0,42215.0,46089.0,38239.0,0,0,0,40000
860815,33493.0,42671.0,45827.0,38009.0,0,0,0,40000
860825,32005.0,44547.0,47917.0,35531.0,0,0,0,40000
860835,33047.0,41527.0,47369.0,38057.0,0,0,0,40000
860845,32962.0,43044.0,47006.0,36988.0,0,0,0,40000
860855,31866.0,43578.0,48130.0,36426.0,0,0,0,40000
860865,31041.0,45135.0,48745.0,35079.0,0,0,0,40000
860875,31026.0,44836.0,48616.0,35522.0,0,0,0,40000
860885,30935.0,45085.0,48571.0,35409.0,0,0,0,40000
860895,31592.0,43876.0,48248.0,36284.0,0,0,0,40000
860905,32143.0,42513.0,48035.0,37309.0,0,0,0,40000
860915,32978.0,42614.0,46718.0,37690.0,0,0,0,40000
860925,32862.0,42682.0,46520.0,37936.0,0,0,0,40000
860935,33590.0,41142.0,46376.0,38892.0,0,0,0,40000
860945,34651.0,39597.0,44789.0,40963.0,0,0,0,40000
860955,34516.0,39450.0,45156.0,40878.0,0,0,0,40000
860965,34928.0,39752.0,44964.0,40356.0,0,0,0,40000
860975,34646.0,41108.0,45012.0,39234.0,0,0,0,40000
860985,34027.0,40905.0,45565.0,39503.0,0,0,0,40000
860995,33263.0,41123.0,46127.0,39487.0,0,0,0,40000
861005,33349.0,40655.0,46579.0,39417.0,0,0,0,40000
861015,31807.0,40803.0,47921.0,39469.0,0,0,0,40000
861025,31809.0,42347.0,47795.0,38049.0,0,0,0,40000
861035,31745.0,42177.0,47691.0,38387.0,0,0,0,40000
861045,31421.0,42409.0,48183.0,37987.0,0,0,0,40000
861055,30107.0,43087.0,49133.0,37673.0,0,0,0,40000
861065,32403.0,43117.0,47211.0,37269.0,0,0,0,40000
861075,32584.0,41066.0,47284.0,39066.0,0,0,0,40000
861085,32876.0,40616.0,47110.0,39398.0,0,0,0,40000
861095,33595.0,40011.0,45799.0,40595.0,0,0,0,40000
861105,33416.0,39980.0,46032.0,40572.0,0,0,0,40000
861115,33345.0,40399.0,46415.0,39841.0,0,0,0,40000
861125,35368.0,39406.0,43842.0,41384.0,0,0,0,40000
861135,35536.0,39838.0,44652.0,39974.0,0,0,0,40000
861145,34283.0,39383.0,45617.0,40717.0,0,0,0,40000
861155,34581.0,39965.0,45283.0,40171.0,0,0,0,40000
861165,34105.0,41313.0,45095.0,39487.0,0,0,0,40000
861175,34327.0,41133.0,45539.0,39001.0,0,0,0,40000
861185,34066.0,41946.0,46008.0,37980.0,0,0,0,40000
861195,34154.0,41266.0,45898.0,38682.0,0,0,0,40000
861205,33579.0,42141.0,46081.0,38199.0,0,0,0,40000
861215,33756.0,41986.0,46016.0,38242.0,0,0,0,40000
861225,34134.0,42502.0,46194.0,37170.0,0,0,0,40000
861235,33174.0,43052.0,46434.0,37340.0,0,0,0,40000
861245,34212.0,42336.0,45264.0,38188.0,0,0,0,40000
861255,34258.0,42822.0,45744.0,37176.0,0,0,0,40000
861265,35762.0,41468.0,44068.0,38702.0,0,0,0,40000
861275,36057.0,41101.0,44115.0,38727.0,0,0,0,40000
861285,36335.0,41407.0,43285.0,38973.0,0,0,0,40000
861295,35710.0,40832.0,43954.0,39504.0,0,0,0,40000
861305,36963.0,40845.0,42735.0,39457.0,0,0,0,40000
861315,36203.0,39949.0,43873.0,39975.0,0,0,0,40000
861325,35056.0,41008.0,44434.0,39502.0,0,0,0,40000
861335,35239.0,40787.0,44441.0,39533.0,0,0,0,40000
861345,34870.0,41468.0,44422.0,39240.0,0,0,0,40000
861355,35226.0,40990.0,44772.0,39012.0,0,0,0,40000
861365,33612.0,41742.0,45800.0,38846.0,0,0,0,40000
861375,33092.0,40352.0,46842.0,39714.0,0,0,0,40000
861385,32980.0,42654.0,46442.0,37924.0,0,0,0,40000
861395,32721.0,43015.0,47227.0,37037.0,0,0,0,40000
861405,30343.0,45409.0,48715.0,35533.0,0,0,0,40000
861415,31678.0,42590.0,48278.0,37454.0,0,0,0,40000
861425,31241.0,42083.0,48353.0,38323.0,0,0,0,40000
861435,33334.0,41124.0,46380.0,39162.0,0,0,0,40000
861445,33722.0,41392.0,45742.0,39144.0,0,0,0,40000
861455,33734.0,40428.0,46028.0,39810.0,0,0,0,40000
861465,34298.0,39434.0,45492.0,40776.0,0,0,0,40000
861475,35032.0,39008.0,44568.0,41392.0,0,0,0,40000
861485,35189.0,39849.0,43803.0,41159.0,0,0,0,40000
861495,35330.0,39820.0,45096.0,39754.0,0,0,0,40000
861505,34621.0,40163.0,44595.0,40621.0,0,0,0,40000
861515,34880.0,40538.0,45034.0,39548.0,0,0,0,40000
861525,33936.0,40512.0,45352.0,40200.0,0,0,0,40000
861535,34572.0,39834.0,45716.0,39878.0,0,0,0,40000
861545,34492.0,41834.0,44902.0,38772.0,0,0,0,40000
861555,34754.0,41620.0,45196.0,38430.0,0,0,0,40000
861565,34270.0,42096.0,44930.0,38704.0,0,0,0,40000
861575,34890.0,41058.0,45356.0,38696.0,0,0,0,40000
861585,34307.0,40715.0,44911.0,40067.0,0,0,0,40000
861595,34576.0,40980.0,45532.0,38912.0,0,0,0,40000
861605,34308.0,41576.0,45486.0,38630.0,0,0,0,40000
861615,35985.0,40837.0,43981.0,39197.0,0,0,0,40000
861625,34318.0,42090.0,44912.0,38680.0,0,0,0,40000
861635,34641.0,41329.0,45741.0,38289.0,0,0,0,40000
861645,33382.0,42548.0,45938.0,38132.0,0,0,0,40000
861655,35507.0,41443.0,44809.0,38241.0,0,0,0,40000
861665,33806.0,43768.0,44970.0,37456.0,0,0,0,40000
861675,35458.0,42000.0,45198.0,37344.0,0,0,0,40000
861685,33332.0,41816.0,45992.0,38860.0,0,0,0,40000
861695,35541.0,41161.0,44573.0,38725.0,0,0,0,40000
861705,34152.0,42432.0,44846.0,38570.0,0,0,0,40000
861715,35008.0,41364.0,45248.0,38380.0,0,0,0,40000
861725,33785.0,41325.0,45855.0,39035.0,0,0,0,40000
861735,35020.0,39150.0,45252.0,40578.0,0,0,0,40000
861745,35398.0,40338.0,44116.0,40148.0,0,0,0,40000
861755,35532.0,40770.0,44206.0,39492.0,0,0,0,40000
861765,33266.0,42206.0,45446.0,39082.0,0,0,0,40000
861775,34296.0,41572.0,46238.0,37894.0,0,0,0,40000
861785,33434.0,42406.0,45932.0,38228.0,0,0,0,40000
861795,34469.0,41489.0,45811.0,38231.0,0,0,0,40000
861805,32565.0,43205.0,46157.0,38073.0,0,0,0,40000
861815,33649.0,40765.0,46911.0,38675.0,0,0,0,40000
861825,33368.0,40768.0,45954.0,39910.0,0,0,0,40000
861835,34814.0,41260.0,45194.0,38732.0,0,0,0,40000
861845,33549.0,40125.0,45585.0,40741.0,0,0,0,40000
861855,34110.0,40084.0,46474.0,39332.0,0,0,0,40000
861865,32591.0,42001.0,45557.0,39851.0,0,0,0,40000
861875,35015.0,41347.0,45961.0,37677.0,0,0,0,40000
861885,33743.0,41949.0,45017.0,39291.0,0,0,0,40000
861895,34590.0,40364.0,46088.0,38958.0,0,0,0,40000
861905,34401.0,40695.0,44569.0,40335.0,0,0,0,40000
861915,34806.0,39676.0,45700.0,39818.0,0,0,0,40000
861925,34722.0,40448.0,44060.0,40770.0,0,0,0,40000
861935,34857.0,40667.0,45551.0,38925.0,0,0,0,40000
861945,34067.0,40359.0,44457.0,41117.0,0,0,0,40000
861955,34924.0,39028.0,45706.0,40342.0,0,0,0,40000
861965,33368.0,40218.0,45624.0,40790.0,0,0,0,40000
861975,33682.0,40214.0,46416.0,39688.0,0,0,0,40000
861985,33896.0,42166.0,45484.0,38454.0,0,0,0,40000
861995,33952.0,40712.0,45916.0,39420.0,0,0,0,40000
862005,32997.0,42673.0,47027.0,37303.0,0,0,0,40000
862015,32519.0,42309.0,46827.0,38345.0,0,0,0,40000
862025,33312.0,42556.0,46760.0,37372.0,0,0,0,40000
862035,33403.0,42745.0,46139.0,37713.0,0,0,0,40000
862045,33497.0,42281.0,46421.0,37801.0,0,0,0,40000
862055,34860.0,41826.0,44892.0,38422.0,0,0,0,40000
862065,34242.0,41536.0,45480.0,38742.0,0,0,0,40000
862075,35122.0,41152.0,44306.0,39420.0,0,0,0,40000
862085,37321.0,41273.0,43053.0,38353.0,0,0,0,40000
862095,35811.0,40263.0,43745.0,40181.0,0,0,0,40000
862105,35492.0,40890.0,44182.0,39436.0,0,0,0,40000
862115,36285.0,39801.0,43061.0,40853.0,0,0,0,40000
862125,37411.0,39583.0,42825.0,40181.0,0,0,0,40000
862135,37474.0,38852.0,42094.0,41580.0,0,0,0,40000
862145,35068.0,41422.0,44500.0,39010.0,0,0,0,40000
862155,34989.0,41849.0,44607.0,38555.0,0,0,0,40000
862165,34525.0,41493.0,45257.0,38725.0,0,0,0,40000
862175,34468.0,42764.0,45308.0,37460.0,0,0,0,40000
862185,33826.0,42884.0,45630.0,37660.0,0,0,0,40000
862195,33196.0,43178.0,47342.0,36284.0,0,0,0,40000
862205,32349.0,43275.0,46991.0,37385.0,0,0,0,40000
862215,33078.0,43518.0,46580.0,36824.0,0,0,0,40000
862225,33414.0,44102.0,45840.0,36644.0,0,0,0,40000
862235,33346.0,43566.0,46910.0,36178.0,0,0,0,40000
862245,32955.0,41479.0,46743.0,38823.0,0,0,0,40000
862255,33889.0,41271.0,46105.0,38735.0,0,0,0,40000
862265,34317.0,41417.0,44803.0,39463.0,0,0,0,40000
862275,34674.0,40960.0,45156.0,39210.0,0,0,0,40000
862285,35207.0,41221.0,44423.0,39149.0,0,0,0,40000
862295,35266.0,38898.0,44538.0,41298.0,0,0,0,40000
862305,34534.0,39034.0,44934.0,41498.0,0,0,0,40000
862315,34843.0,38837.0,44925.0,41395.0,0,0,0,40000
862325,34733.0,40571.0,45095.0,39601.0,0,0,0,40000
862335,34895.0,41441.0,44461.0,39203.0,0,0,0,40000
862345,34071.0,40933.0,45751.0,39245.0,0,0,0,40000
862355,32622.0,41408.0,46804.0,39166.0,0,0,0,40000
862365,33019.0,41389.0,46859.0,38733.0,0,0,0,40000
862375,33502.0,41944.0,46144.0,38410.0,0,0,0,40000
862385,33625.0,41315.0,45963.0,39097.0,0,0,0,40000
862395,33761.0,40743.0,46185.0,39311.0,0,0,0,40000
862405,34310.0,41384.0,44956.0,39350.0,0,0,0,40000
862415,34018.0,39978.0,45692.0,40312.0,0,0,0,40000
862425,33957.0,40511.0,45635.0,39897.0,0,0,0,40000
862435,34960.0,40860.0,45144.0,39036.0,0,0,0,40000
862445,34376.0,40706.0,45106.0,39812.0,0,0,0,40000
862455,34278.0,40712.0,45424.0,39586.0,0,0,0,40000
862465,33112.0,40640.0,46570.0,39678.0,0,0,0,40000
862475,35166.0,41254.0,44126.0,39454.0,0,0,0,40000
862485,35588.0,40806.0,44598.0,39008.0,0,0,0,40000
862495,33912.0,41366.0,45906.0,38816.0,0,0,0,40000
862505,34418.0,41168.0,45118.0,39296.0,0,0,0,40000
862515,34520.0,41286.0,44762.0,39432.0,0,0,0,40000
862525,34897.0,41863.0,44945.0,38295.0,0,0,0,40000
862535,34711.0,41505.0,45461.0,38323.0,0,0,0,40000
862545,33851.0,41745.0,45481.0,38923.0,0,0,0,40000
862555,34932.0,40250.0,45082.0,39736.0,0,0,0,40000
862565,35204.0,40208.0,44440.0,40148.0,0,0,0,40000
862575,34290.0,40586.0,45506.0,39618.0,0,0,0,40000
862585,33837.0,40855.0,45941.0,39367.0,0,0,0,40000
862595,34874.0,40920.0,44744.0,39462.0,0,0,0,40000
862605,34399.0,40077.0,45647.0,39877.0,0,0,0,40000
862615,33705.0,41399.0,45727.0,39169.0,0,0,0,40000
862625,33942.0,43232.0,45486.0,37340.0,0,0,0,40000
862635,33462.0,41092.0,46610.0,38836.0,0,0,0,40000
862645,33759.0,41541.0,45545.0,39155.0,0,0,0,40000
862655,33541.0,41451.0,47001.0,38007.0,0,0,0,40000
862665,33265.0,41489.0,45353.0,39893.0,0,0,0,40000
862675,34602.0,40892.0,45948.0,38558.0,0,0,0,40000
862685,34512.0,40696.0,44582.0,40210.0,0,0,0,40000
862695,34512.0,40446.0,45264.0,39778.0,0,0,0,40000
862705,34288.0,41418.0,45614.0,38680.0,0,0,0,40000
862715,34793.0,41197.0,45327.0,38683.0,0,0,0,40000
862725,33874.0,40890.0,45622.0,39614.0,0,0,0,40000
862735,34574.0,40928.0,45462.0,39036.0,0,0,0,40000
862745,34152.0,41190.0,45096.0,39562.0,0,0,0,40000
862755,34586.0,41876.0,45764.0,37774.0,0,0,0,40000
862765,32999.0,42831.0,45961.0,38209.0,0,0,0,40000
862775,33559.0,41897.0,46979.0,37565.0,0,0,0,40000
862785,32293.0,42933.0,46857.0,37917.0,0,0,0,40000
862795,34081.0,41939.0,46125.0,37855.0,0,0,0,40000
862805,34021.0,42587.0,45015.0,38377.0,0,0,0,40000
862815,34165.0,42097.0,45697.0,38041.0,0,0,0,40000
862825,33986.0,41054.0,46008.0,38952.0,0,0,0,40000
862835,35298.0,41118.0,44908.0,38676.0,0,0,0,40000
862845,33460.0,40824.0,45356.0,40360.0,0,0,0,40000
862855,33388.0,41274.0,46638.0,38700.0,0,0,0,40000
862865,33872.0,41442.0,45408.0,39278.0,0,0,0,40000
862875,33961.0,40269.0,46313.0,39457.0,0,0,0,40000
862885,33320.0,41190.0,45540.0,39950.0,0,0,0,40000
862895,33190.0,40252.0,47110.0,39448.0,0,0,0,40000
862905,33816.0,40592.0,46146.0,39446.0,0,0,0,40000
862915,34161.0,39915.0,45443.0,40481.0,0,0,0,40000
862925,33730.0,40252.0,45760.0,40258.0,0,0,0,40000
862935,33434.0,39572.0,46338.0,40656.0,0,0,0,40000
862945,34265.0,40349.0,45385.0,40001.0,0,0,0,40000
862955,34203.0,39707.0,45583.0,40507.0,0,0,0,40000
862965,33991.0,39567.0,45989.0,40453.0,0,0,0,40000
862975,33817.0,39259.0,46115.0,40809.0,0,0,0,40000
862985,33155.0,41131.0,45849.0,39865.0,0,0,0,40000
862995,34320.0,40718.0,45744.0,39218.0,0,0,0,40000
863005,33589.0,41135.0,45905.0,39371.0,0,0,0,40000
863015,34244.0,40652.0,45622.0,39482.0,0,0,0,40000
863025,34118.0,40564.0,45734.0,39584.0,0,0,0,40000
863035,32993.0,41945.0,46887.0,38175.0,0,0,0,40000
863045,33268.0,40930.0,46324.0,39478.0,0,0,0,40000
863055,32840.0,41378.0,46642.0,39140.0,0,0,0,40000
863065,33063.0,40939.0,46853.0,39145.0,0,0,0,40000
863075,33242.0,42800.0,46516.0,37442.0,0,0,0,40000
863085,34101.0,41909.0,45695.0,38295.0,0,0,0,40000
863095,34572.0,41712.0,44338.0,39378.0,0,0,0,40000
863105,34766.0,41812.0,46026.0,37396.0,0,0,0,40000
863115,34609.0,41441.0,44769.0,39181.0,0,0,0,40000
863125,35099.0,40509.0,44981.0,39411.0,0,0,0,40000
863135,34903.0,41247.0,44255.0,39595.0,0,0,0,40000
863145,34967.0,40299.0,45523.0,39211.0,0,0,0,40000
863155,34823.0,40625.0,44223.0,40329.0,0,0,0,40000
863165,35569.0,40043.0,44361.0,40027.0,0,0,0,40000
863175,34573.0,40607.0,44785.0,40035.0,0,0,0,40000
863185,34106.0,41482.0,46150.0,38262.0,0,0,0,40000
863195,34550.0,41074.0,44938.0,39438.0,0,0,0,40000
863205,35508.0,41292.0,43996.0,39204.0,0,0,0,40000
863215,34592.0,40526.0,45032.0,39850.0,0,0,0,40000
863225,33746.0,39922.0,46324.0,40008.0,0,0,0,40000
863235,33711.0,40959.0,45767.0,39563.0,0,0,0,40000
863245,34153.0,41127.0,45701.0,39019.0,0,0,0,40000
863255,34559.0,41497.0,45189.0,38755.0,0,0,0,40000
863265,33648.0,41038.0,46158.0,39156.0,0,0,0,40000
863275,33855.0,40097.0,45859.0,40189.0,0,0,0,40000
863285,33823.0,41335.0,45505.0,39337.0,0,0,0,40000
863295,35286.0,40548.0,44838.0,39328.0,0,0,0,40000
863305,33909.0,41575.0,45647.0,38869.0,0,0,0,40000
863315,34471.0,40675.0,45221.0,39633.0,0,0,0,40000
863325,34423.0,40589.0,44977.0,40011.0,0,0,0,40000
863335,34971.0,41377.0,45269.0,38383.0,0,0,0,40000
863345,33740.0,41692.0,45604.0,38964.0,0,0,0,40000
863355,34147.0,42023.0,45687.0,38143.0,0,0,0,40000
863365,34453.0,41789.0,45131.0,38627.0,0,0,0,40000
863375,34679.0,41923.0,45177.0,38221.0,0,0,0,40000
863385,34081.0,41427.0,45721.0,38771.0,0,0,0,40000
863395,34715.0,41685.0,44827.0,38773.0,0,0,0,40000
863405,35591.0,40965.0,44489.0,38955.0,0,0,0,40000
863415,35402.0,40884.0,44106.0,39608.0,0,0,0,40000
863425,34760.0,41286.0,45658.0,38296.0,0,0,0,40000
863435,34645.0,41383.0,44423.0,39549.0,0,0,0,40000
863445,34672.0,41336.0,44828.0,39164.0,0,0,0,40000
863455,35519.0,40805.0,44267.0,39409.0,0,0,0,40000
863465,34258.0,41006.0,45742.0,38994.0,0,0,0,40000
863475,34091.0,41231.0,45541.0,39137.0,0,0,0,40000
863485,33721.0,43327.0,45989.0,36963.0,0,0,0,40000
863495,33045.0,42615.0,46507.0,37833.0,0,0,0,40000
863505,33345.0,41639.0,46675.0,38341.0,0,0,0,40000
863515,32234.0,42428.0,47282.0,38056.0,0,0,0,40000
863525,33935.0,41225.0,45767.0,39073.0,0,0,0,40000
863535,33232.0,41696.0,46304.0,38768.0,0,0,0,40000
863545,34315.0,40509.0,46057.0,39119.0,0,0,0,40000
863555,33649.0,41433.0,45419.0,39499.0,0,0,0,40000
863565,34425.0,40645.0,45389.0,39541.0,0,0,0,40000
863575,33618.0,41440.0,45960.0,38982.0,0,0,0,40000
863585,34543.0,40997.0,45255.0,39205.0,0,0,0,40000
863595,34058.0,40358.0,45526.0,40058.0,0,0,0,40000
863605,34343.0,39145.0,45373.0,41139.0,0,0,0,40000
863615,35141.0,39927.0,44839.0,40093.0,0,0,0,40000
863625,35681.0,40741.0,44081.0,39497.0,0,0,0,40000
863635,35133.0,40927.0,43995.0,39945.0,0,0,0,40000
863645,34116.0,40170.0,45744.0,39066.0,0,0,0,40000
863655,34224.0,40446.0,45880.0,39450.0,0,0,0,40000
863665,33234.0,42448.0,45886.0,38432.0,0,0,0,40000
863675,34785.0,42081.0,45445.0,37689.0,0,0,0,40000
863685,33497.0,43029.0,45973.0,37501.0,0,0,0,40000
863695,33764.0,42004.0,46454.0,37778.0,0,0,0,40000
863705,33267.0,42983.0,45941.0,37809.0,0,0,0,40000
863715,34514.0,41088.0,45928.0,38470.0,0,0,0,40000
863725,35374.0,41786.0,44424.0,38416.0,0,0,0,40000
863735,32896.0,42714.0,46476.0,37914.0,0,0,0,40000
863745,34561.0,42859.0,45077.0,37503.0,0,0,0,40000
863755,34802.0,41802.0,44778.0,38618.0,0,0,0,40000
863765,34377.0,41647.0,45511.0,38465.0,0,0,0,40000
863775,34207.0,40943.0,45557.0,39293.0,0,0,0,40000
863785,35252.0,40146.0,44708.0,39894.0,0,0,0,40000
863795,36555.0,40339.0,43197.0,39909.0,0,0,0,40000
863805,36787.0,40509.0,43199.0,39505.0,0,0,0,40000
863815,34619.0,42841.0,44525.0,38015.0,0,0,0,40000
863825,35296.0,39792.0,44634.0,40278.0,0,0,0,40000
863835,34141.0,41611.0,45341.0,38907.0,0,0,0,40000
863845,33618.0,42374.0,46172.0,37836.0,0,0,0,40000
863855,33532.0,42394.0,46062.0,38012.0,0,0,0,40000
863865,34741.0,41831.0,45607.0,37821.0,0,0,0,40000
863875,33816.0,42872.0,45202.0,38110.0,0,0,0,40000
863885,34670.0,40794.0,45540.0,38996.0,0,0,0,40000
863895,32922.0,41714.0,46466.0,38898.0,0,0,0,40000
863905,34650.0,40482.0,45696.0,39172.0,0,0,0,40000
863915,33108.0,42626.0,45822.0,38444.0,0,0,0,40000
863925,33825.0,42331.0,46195.0,37649.0,0,0,0,40000
863935,33120.0,42582.0,46456.0,37842.0,0,0,0,40000
863945,33822.0,42148.0,46194.0,37836.0,0,0,0,40000
863955,34173.0,42015.0,45455.0,38357.0,0,0,0,40000
863965,34339.0,42071.0,45559.0,38031.0,0,0,0,40000
863975,35489.0,41065.0,44875.0,38571.0,0,0,0,40000
863985,35447.0,41305.0,44179.0,39069.0,0,0,0,40000
863995,34634.0,41362.0,44324.0,39680.0,0,0,0,40000
864005,35666.0,40730.0,44272.0,39332.0,0,0,0,40000
864015,34809.0,42527.0,45175.0,37489.0,0,0,0,40000
864025,35609.0,42003.0,44457.0,37931.0,0,0,0,40000
864035,34940.0,41606.0,44472.0,38982.0,0,0,0,40000
864045,34866.0,41412.0,44764.0,38958.0,0,0,0,40000
864055,35287.0,42665.0,44487.0,37561.0,0,0,0,40000
864065,34400.0,42118.0,44996.0,38486.0,0,0,0,40000
864075,35907.0,39983.0,43763.0,40347.0,0,0,0,40000
864085,34875.0,41711.0,45237.0,38177.0,0,0,0,40000
864095,34359.0,43611.0,45235.0,36795.0,0,0,0,40000
864105,34090.0,42506.0,45568.0,37836.0,0,0,0,40000
864115,34028.0,42798.0,45824.0,37350.0,0,0,0,40000
864125,34212.0,42478.0,45388.0,37922.0,0,0,0,40000
864135,32911.0,42805.0,46721.0,37563.0,0,0,0,40000
864145,32657.0,44187.0,46815.0,36341.0,0,0,0,40000
864155,32957.0,43547.0,47219.0,36277.0,0,0,0,40000
864165,32673.0,43569.0,47303.0,36455.0,0,0,0,40000
864175,32248.0,43258.0,47030.0,37464.0,0,0,0,40000
864185,32765.0,41447.0,46891.0,38897.0,0,0,0,40000
864195,33867.0,41109.0,45809.0,39215.0,0,0,0,40000
864205,35268.0,40706.0,45180.0,38846.0,0,0,0,40000
864215,34958.0,39898.0,44118.0,41026.0,0,0,0,40000
864225,36220.0,38720.0,43632.0,41428.0,0,0,0,40000
864235,35895.0,39369.0,43283.0,41453.0,0,0,0,40000
864245,36001.0,40291.0,44299.0,39409.0,0,0,0,40000
864255,35848.0,41102.0,43192.0,39858.0,0,0,0,40000
864265,35474.0,40060.0,44644.0,39822.0,0,0,0,40000
864275,34789.0,41411.0,45075.0,38725.0,0,0,0,40000
864285,33667.0,40441.0,46589.0,39303.0,0,0,0,40000
864295,33436.0,43068.0,45882.0,37614.0,0,0,0,40000
864305,33750.0,42522.0,45872.0,37856.0,0,0,0,40000
864315,33353.0,42805.0,46319.0,37523.0,19.99999994048117,0.0015429689550340636,0,40000
864325,18081.0,29153.0,61891.0,50875.0,19.989641101526175,0.64362149760198,0,40000
864335,17713.0,29521.0,61625.0,51141.0,19.95881570279709,1.282838938362987,0,40000
864345,18079.0,29387.0,61931.0,50603.0,19.90067890011806,1.9907233143749123,0,40000
864355,18004.0,30264.0,61498.0,50234.0,19.825046730854737,2.6396064326762585,0,40000
864365,19667.0,29745.0,60627.0,49961.0,19.825046730854737,2.6396064326762585,0,40000
864375,18928.0,31746.0,60370.0,48956.0,19.60987686258395,3.9309959850265215,0,40000
864385,21013.0,37057.0,59325.0,42605.0,19.473578334451826,4.558480761390626,0,40000
864395,23516.0,37958.0,55882.0,42644.0,19.473578334451826,4.558480761390626,0,40000
864405,27673.0,39567.0,53059.0,39701.0,19.14150509128833,5.796790736276661,0,40000
864415,28495.0,38159.0,51361.0,41985.0,19.14150509128833,5.796790736276661,0,40000
864425,32103.0,41435.0,48151.0,38311.0,18.9459270963896,6.407171486568023,0,40000
864435,34907.0,41689.0,45445.0,37959.0,18.73052853850662,7.011939864844044,0,40000
864445,39841.0,44969.0,40963.0,34227.0,18.494434202371586,7.612877480568572,0,40000
864455,38189.0,48249.0,42843.0,30719.0,18.240939740379904,8.201714295671916,0,40000
864465,44199.0,50071.0,37543.0,28187.0,17.968407231967337,8.782729732047086,0,40000
864475,42048.0,51374.0,39180.0,27398.0,17.67691840856942,9.355562814538711,0,40000
864485,45291.0,51605.0,36635.0,26469.0,17.367738190599336,9.91774521465425,0,40000
864495,43221.0,52459.0,38575.0,25745.0,17.041366985010843,10.468610761805145,0,40000
864505,47889.0,54165.0,35115.0,22831.0,16.69499773994423,11.012586002536239,0,40000
864515,45307.0,55005.0,37099.0,22589.0,16.330483719870394,11.546224555024384,0,40000
864525,48190.0,53764.0,34300.0,23746.0,15.947373225685626,12.069850338785699,0,40000
864535,45057.0,51263.0,37543.0,26137.0,15.547866154021477,12.580296421652132,0,40000
864545,46210.0,53342.0,36218.0,24230.0,15.134985339907407,13.074104893291468,0,40000
864555,42487.0,52837.0,39701.0,24975.0,14.70906715627985,13.551507052429606,0,40000
864565,44567.0,52419.0,37559.0,25455.0,14.262175374221862,14.021068204489255,0,40000
864575,42369.0,52137.0,38621.0,26873.0,13.804388308890662,14.472002743827918,0,40000
864585,42398.0,49816.0,39238.0,28548.0,13.331167615788127,14.909056643522485,0,40000
864595,39804.0,46458.0,40044.0,33694.0,12.83951216218777,15.334501212528316,0,40000
864605,42759.0,46623.0,37665.0,32953.0,12.339475584390343,15.739674148540516,0,40000
864615,40586.0,44870.0,38648.0,35896.0,11.82133327774654,16.132454231654968,0,40000
864625,39542.0,42208.0,40040.0,38210.0,11.289089883527462,16.509283739812513,0,40000
864635,37271.0,43841.0,40347.0,38541.0,10.747686504811318,16.86674938434483,0,40000
864645,36711.0,41199.0,41221.0,40869.0,10.202009824453928,17.202296228752296,0,40000
864655,34203.0,41811.0,41771.0,42215.0,9.642625522165906,17.521979712329163,0,40000
864665,34416.0,37898.0,41736.0,45950.0,9.07504994239947,17.822555050916673,0,40000
864675,32093.0,40603.0,43765.0,43539.0,8.498129560031925,18.10474506810056,0,40000
864685,31099.0,39451.0,43929.0,45521.0,7.910630047848227,18.369048212851986,0,40000
864695,29605.0,42553.0,45155.0,42687.0,7.318575782343345,18.612857075637194,0,40000
864705,28126.0,38548.0,45964.0,47362.0,6.716254949260386,18.83857530325835,0,40000
864715,26083.0,41333.0,47959.0,44625.0,6.109540522372747,19.04398893628867,0,40000
864725,24726.0,39784.0,48206.0,47284.0,5.492526193202893,19.231020670182332,0,40000
864735,26968.0,41824.0,46664.0,44544.0,4.870152632528341,19.397979619946952,0,40000
864745,25519.0,41353.0,47677.0,45451.0,4.244977988352757,19.544312775802595,0,40000
864755,27370.0,40550.0,46172.0,45908.0,3.608252845716533,19.671820236098604,0,40000
864765,25562.0,40232.0,48102.0,46104.0,2.9756642108696156,19.77739675751462,0,40000
864775,28661.0,40397.0,45137.0,45805.0,2.9756642108696156,19.77739675751462,0,40000
864785,27530.0,40032.0,45850.0,46588.0,1.6907961894295438,19.928402049482305,0,40000
864795,29045.0,42287.0,45007.0,43661.0,1.6907961894295438,19.928402049482305,0,40000
864805,29806.0,40028.0,44410.0,45756.0,1.045655983726166,19.972646383584166,0,40000
864815,30078.0,42392.0,44740.0,42790.0,0.3999318680954817,19.99600096271456,0,40000
864825,31758.0,40302.0,42776.0,45164.0,-0.9053982630896509,19.979495839114517,0,40000
864835,35369.0,44437.0,40067.0,40127.0,-0.9053982630896509,19.979495839114517,0,40000
864845,35399.0,43117.0,40173.0,41311.0,-1.5497429448470668,19.939867020742557,0,40000
864855,36982.0,45580.0,38952.0,38486.0,-2.1971483847141995,19.878947129451994,0,40000
864865,37056.0,47176.0,39078.0,36690.0,-2.84541922630057,19.79655498885094,0,40000
864875,38009.0,47451.0,39001.0,35539.0,-3.4875251538866268,19.693581906321867,0,40000
864885,36382.0,47212.0,40014.0,36392.0,-4.1220300844143765,19.57061235585598,0,40000
864895,38199.0,48309.0,38793.0,34699.0,-4.748810782040806,19.42804149049443,0,40000
864905,37623.0,49819.0,39219.0,33339.0,-5.378564551591455,19.263204389829948,0,40000
864915,35315.0,47705.0,41989.0,34991.0,-6.012450744002736,19.07486398512296,0,40000
864925,34097.0,48385.0,42589.0,34929.0,-6.632500420626373,18.868225623263864,0,40000
864935,36467.0,47859.0,41261.0,34413.0,-7.243023698679551,18.64238739272324,0,40000
864945,35672.0,47530.0,40576.0,36222.0,-7.839507469900888,18.3995141954718,0,40000
864955,36565.0,46439.0,40493.0,36503.0,-8.425212837215604,18.138792370155667,0,40000
864965,35792.0,45654.0,40418.0,38136.0,-9.003919441943001,17.858595540607354,0,40000
864975,36795.0,46845.0,39221.0,37139.0,-9.578449357068987,17.557144070550446,0,40000
864985,35671.0,45299.0,40303.0,38727.0,-10.137243441999505,17.240542201382127,0,40000
864995,36376.0,45498.0,39322.0,38804.0,-10.687432536761616,16.904992924345432,0,40000
865005,34770.0,43834.0,40204.0,41192.0,-11.23501624622124,16.546129757352467,0,40000
865015,36015.0,44247.0,39687.0,40051.0,-11.761245301318484,16.17631320672958,0,40000
865025,33039.0,47653.0,41065.0,38243.0,-12.274471121175948,15.79041983911187,0,40000
865035,33379.0,46503.0,41329.0,38789.0,-12.77778757570988,15.385972334241156,0,40000
865045,30482.0,45062.0,43500.0,40956.0,-13.268604477373627,14.964763119509128,0,40000
865055,32088.0,45966.0,42574.0,39372.0,-13.77422394504433,14.500715662055008,0,40000
865065,30006.0,45302.0,43750.0,40942.0,-14.23273849423558,14.050948542881535,0,40000
865075,32392.0,45860.0,41584.0,40164.0,-14.677968724790052,13.585184360695484,0,40000
865085,27364.0,44068.0,46216.0,42352.0,-15.107866301824693,13.105433064427512,0,40000
865095,29835.0,45051.0,44069.0,41045.0,-15.522373873518163,12.611736967234954,0,40000
865105,28355.0,42631.0,45327.0,43687.0,-15.522373873518163,12.611736967234954,0,40000
865115,29566.0,44282.0,44074.0,42078.0,-15.921172609278525,12.10439022609397,0,40000
865125,27653.0,42337.0,46613.0,43397.0,-16.30277968293253,11.585308567740535,0,40000
865135,29622.0,42834.0,43876.0,43668.0,-17.018611110966763,10.505564042624208,0,40000
865145,28026.0,42348.0,46334.0,43292.0,-17.018611110966763,10.505564042624208,0,40000
865155,33236.0,42004.0,40764.0,43996.0,-17.34860724722812,9.951172120982733,0,40000
865165,30642.0,40864.0,44272.0,44222.0,-17.663066389208765,9.381688852781444,0,40000
865175,34843.0,40701.0,39981.0,44475.0,-17.956035246652633,8.80799626594882,0,40000
865185,33720.0,38440.0,41738.0,46102.0,-18.230506159177267,8.224879645332186,0,40000
865195,36080.0,39072.0,39180.0,45668.0,-18.50240135815309,7.5934935294510355,0,40000
865205,29713.0,40825.0,45823.0,43639.0,-18.73963547949263,6.9875648187148185,0,40000
865215,32531.0,41659.0,43517.0,42293.0,-18.95924648277277,6.367650493350613,0,40000
865225,30312.0,41480.0,46308.0,41900.0,-19.1568682861261,5.745815648627789,0,40000
865235,32421.0,42725.0,44417.0,40437.0,-19.335897463914684,5.111073200901918,0,40000
865245,31692.0,42178.0,44794.0,41336.0,-19.490594191756493,4.485168676010752,0,40000
865255,32706.0,42566.0,44578.0,40150.0,-19.62466628050169,3.856484588189086,0,40000
865265,32403.0,42093.0,45551.0,39953.0,-19.738119743427355,3.225930717502031,0,40000
865275,34192.0,42080.0,43688.0,40040.0,-19.83161730581777,2.5897789549668366,0,40000
865285,31928.0,43604.0,45776.0,38692.0,-19.904478488879903,1.9523667907740025,0,40000
865295,33804.0,42964.0,44258.0,38974.0,-19.95761269830831,1.3014205255500275,0,40000
865305,33400.0,42800.0,45140.0,38660.0,-19.9891168780959,0.6597017764275006,0,40000
865315,34258.0,43238.0,44264.0,38240.0,-19.999987909841245,0.021991048270078136,0,40000
865325,34373.0,42773.0,44421.0,38433.0,-19.990353002967783,-0.6211173936840743,0,40000
865335,36450.0,42206.0,42048.0,39296.0,-19.959360621992232,-1.2743325944453812,0,40000
865345,34857.0,41799.0,44331.0,39013.0,-19.90796314447116,-1.916508136788886,0,40000
865355,35693.0,41585.0,43431.0,39291.0,-19.83578319167831,-2.557675736431872,0,40000
865365,34275.0,40561.0,44953.0,40211.0,-19.742884639253212,-3.1966398172361634,0,40000
865375,35347.0,41863.0,43355.0,39435.0,-19.6294231587904,-3.832198644791667,0,40000
865385,34023.0,42929.0,44793.0,38255.0,-19.495861742060125,-4.462216370199488,0,40000
865395,35523.0,40869.0,43715.0,39893.0,-19.342816470548737,-5.084825561085495,0,40000
865405,34210.0,42668.0,44912.0,38210.0,-19.169731001928017,-5.702754888097487,0,40000
865415,35127.0,41343.0,44745.0,38785.0,-18.977208485273053,-6.313917809607629,0,40000
865425,34533.0,41327.0,44221.0,39919.0,-18.762940978719097,-6.924741571286518,0,40000
865435,34789.0,38967.0,44955.0,41289.0,-18.762940978719097,-6.924741571286518,0,40000
865445,35455.0,37671.0,43795.0,43079.0,-18.266693575920133,-8.144194607414425,0,40000
865455,34542.0,39956.0,45242.0,40260.0,-18.266693575920133,-8.144194607414425,0,40000
865465,36419.0,38749.0,43201.0,41631.0,-17.99496698855085,-8.728182117770295,0,40000
865475,32904.0,39440.0,46126.0,41530.0,-17.697721662851265,-9.316149845523364,0,40000
865485,34995.0,37017.0,45279.0,42709.0,-17.3904608496525,-9.877847510298167,0,40000
865495,32804.0,38548.0,46378.0,42270.0,-17.06272201596818,-10.433768130727977,0,40000
865505,33831.0,41027.0,45831.0,39311.0,-16.7187559009348,-10.976484005589306,0,40000
865515,32847.0,40741.0,46401.0,40011.0,-16.3517652688868,-11.516065846947356,0,40000
865525,33796.0,40354.0,45598.0,40252.0,-15.973255513554506,-12.035576774658562,0,40000
865535,33672.0,40520.0,46076.0,39732.0,-15.56986345064531,-12.55306146437033,0,40000
865545,35061.0,38721.0,44131.0,42087.0,-15.15816037982328,-13.047228590760406,0,40000
865555,34506.0,40522.0,45172.0,39800.0,-14.73168172777048,-13.52691958546636,0,40000
865565,34147.0,40629.0,45007.0,40217.0,-14.280205957873612,-14.002703946049525,0,40000
865575,33774.0,42570.0,45286.0,38370.0,-13.812710939780285,-14.464059474921765,0,40000
865585,34861.0,40955.0,44711.0,39473.0,-13.338904614977052,-14.902134869626698,0,40000
865595,33766.0,43290.0,44946.0,37998.0,-12.852693062956355,-15.323455257527057,0,40000
865605,33997.0,41363.0,45137.0,39503.0,-12.35327603300491,-15.728845197673811,0,40000
865615,33521.0,43421.0,45129.0,37929.0,-11.839124979019196,-16.11940196567986,0,40000
865625,33302.0,40824.0,45604.0,40270.0,-11.314945028177918,-16.49157418226992,0,40000
865635,33078.0,44750.0,45060.0,37112.0,-10.778746486246714,-16.846917349628807,0,40000
865645,32633.0,43583.0,46145.0,37639.0,-10.22635179334773,-17.187836658483047,0,40000
865655,32318.0,45242.0,45752.0,36688.0,-9.66782713756099,-17.508087229570204,0,40000
865665,33474.0,42778.0,44442.0,39306.0,-9.099070506873288,-17.810303644546565,0,40000
865675,32412.0,43950.0,45328.0,38310.0,-8.52094547433142,-18.094018023188518,0,40000
865685,32643.0,43375.0,44515.0,39467.0,-7.933105793022203,-18.359352724884328,0,40000
865695,35079.0,42715.0,43131.0,39075.0,-7.337657559633658,-18.60534282236022,0,40000
865705,34589.0,41995.0,42459.0,40957.0,-6.723916317794019,-18.835842146060347,0,40000
865715,33825.0,42979.0,43963.0,39233.0,-6.723916317794019,-18.835842146060347,0,40000
865725,33743.0,41255.0,42983.0,42019.0,-5.468927814049023,-19.23774489291094,0,40000
865735,34435.0,41687.0,42689.0,41189.0,-4.847657915543328,-19.403613393743704,0,40000
865745,33773.0,42139.0,42257.0,41831.0,-4.2209522462610725,-19.549515649621185,0,40000
865755,34425.0,44135.0,42453.0,38987.0,-4.2209522462610725,-19.549515649621185,0,40000
865765,32526.0,39382.0,43834.0,44258.0,-2.947826615990654,-19.78156511103348,0,40000
865775,31634.0,40742.0,45220.0,42404.0,-2.947826615990654,-19.78156511103348,0,40000
865785,30116.0,39908.0,45732.0,44244.0,-2.299112851994289,-19.86741251632418,0,40000
865795,31294.0,41328.0,45274.0,42104.0,-1.6560145301316775,-19.93132248186238,0,40000
865805,30202.0,39872.0,45128.0,44798.0,-1.0043198662416688,-19.974767623336007,0,40000
865815,30336.0,41642.0,46216.0,41806.0,-0.3594025390094604,-19.9967704846296,0,40000
865825,31232.0,43534.0,44154.0,41080.0,0.311008061087902,-19.997581703444503,0,40000
865835,33450.0,43344.0,42976.0,40230.0,0.950949096617653,-19.977379603332416,0,40000
865845,32018.0,43044.0,43170.0,41768.0,1.5926632026925072,-19.936484743374127,0,40000
865855,32956.0,44224.0,42936.0,39884.0,2.2387153434413616,-19.874308883859086,0,40000
865865,32065.0,42375.0,43003.0,42557.0,2.880245536484729,-19.791518022869287,0,40000
865875,33664.0,43732.0,42404.0,40200.0,3.5145747664271942,-19.688772542014732,0,40000
865885,31309.0,43019.0,43285.0,42387.0,4.172779113592883,-19.559854663804714,0,40000
865895,33097.0,42479.0,42333.0,42091.0,4.800482178590321,-19.415338545929007,0,40000
865905,31617.0,42545.0,42995.0,42843.0,5.431179250680204,-19.248436090939464,0,40000
865915,33545.0,44151.0,41931.0,40373.0,6.048715409143309,-19.06339534026382,0,40000
865925,32670.0,41952.0,42240.0,43138.0,6.658441532502385,-18.859086837868034,0,40000
865935,32761.0,44273.0,42303.0,40663.0,7.263726963355236,-18.63433043073526,0,40000
865945,31531.0,43259.0,43275.0,41935.0,7.85883857483443,-18.391265759993093,0,40000
865955,32532.0,44602.0,42066.0,40800.0,8.45267448167445,-18.126011533342066,0,40000
865965,31875.0,44095.0,42833.0,41197.0,9.02746733575533,-17.8467037153047,0,40000
865975,32413.0,45743.0,42121.0,39723.0,9.611571654966157,-17.539033334863447,0,40000
865985,30994.0,43596.0,42948.0,42462.0,10.192550868057499,-17.207902452131123,0,40000
865995,33516.0,46140.0,41558.0,38786.0,10.756275844392656,-16.861273082402025,0,40000
866005,31177.0,44579.0,42721.0,41523.0,11.304875697559737,-16.498478277184333,0,40000
866015,29202.0,45106.0,45566.0,40126.0,11.833546239982818,-16.123497864489224,0,40000
866025,30960.0,44402.0,43118.0,41520.0,12.344072860353744,-15.73606892518834,0,40000
866035,33731.0,45531.0,41097.0,39641.0,12.850466295497904,-15.325322704213193,0,40000
866045,31970.0,43612.0,42578.0,41840.0,13.33668324702021,-14.904122918462882,0,40000
866055,32962.0,44352.0,42082.0,40604.0,13.811660026290307,-14.465062990466873,0,40000
866065,27708.0,43472.0,46886.0,41934.0,13.811660026290307,-14.465062990466873,0,40000
866075,30326.0,43212.0,44898.0,41564.0,14.717549897151558,-13.542293935107676,0,40000
866085,28700.0,43862.0,46064.0,41374.0,14.717549897151558,-13.542293935107676,0,40000
866095,30436.0,44078.0,44660.0,40826.0,15.1528721818101,-13.053369857692903,0,40000
866105,28312.0,44600.0,47078.0,40010.0,15.564737834903443,-12.559416233676039,0,40000
866115,29501.0,44441.0,46285.0,39773.0,15.95924470064952,-12.054149019519802,0,40000
866125,32415.0,42795.0,43215.0,41575.0,16.34681260873974,-11.523094963365853,0,40000
866135,28751.0,44445.0,46735.0,40069.0,16.70782942568933,-10.993108563189475,0,40000
866145,31884.0,43492.0,44028.0,40596.0,17.05688933354045,-10.443300544528727,0,40000
866155,33062.0,43772.0,43342.0,39824.0,17.396206652642185,-9.867724869419893,0,40000
866165,30985.0,42573.0,45251.0,41191.0,17.709367914320918,-9.29399204191723,0,40000
866175,32844.0,41842.0,43418.0,41896.0,17.998822374636617,-8.720228960656954,0,40000
866185,32321.0,41513.0,43843.0,42323.0,18.26976673285207,-8.137298294100555,0,40000
866195,33764.0,42928.0,42772.0,40536.0,18.52365696920685,-7.5414940487382465,0,40000
866205,33251.0,41475.0,43237.0,42037.0,18.756366145430093,-6.942530447795234,0,40000
866215,32538.0,41334.0,43562.0,42566.0,18.96996982030168,-6.33563296102634,0,40000
866225,31457.0,41191.0,45657.0,41695.0,19.167568274744372,-5.710019827725036,0,40000
866235,33886.0,42392.0,42992.0,40730.0,19.341276908231386,-5.090678496930972,0,40000
866245,32615.0,42455.0,44493.0,40437.0,19.49492547973299,-4.466305020893388,0,40000
866255,33822.0,42524.0,42992.0,40662.0,19.628389111755446,-3.8374914824036015,0,40000
866265,32041.0,42419.0,45065.0,40475.0,19.741544479302558,-3.2049058600399993,0,40000
866275,33320.0,43206.0,44222.0,39252.0,19.834125768409745,-2.5704970342143114,0,40000
866285,32224.0,42892.0,44854.0,40030.0,19.90778362077337,-1.9183720464152907,0,40000
866295,34450.0,42632.0,43180.0,39738.0,19.960388713391154,-1.258126547819033,0,40000
866305,32099.0,42969.0,45383.0,39549.0,19.99335180465447,-0.5156390358767579,0,40000
866315,32718.0,45560.0,44942.0,36780.0,19.99335180465447,-0.5156390358767579,0,40000
866325,33408.0,43062.0,43968.0,39562.0,19.999550508561963,0.13408749188112198,0,40000
866335,34597.0,43037.0,43419.0,38947.0,19.98468687421741,0.7824899612662556,0,40000
866345,31106.0,45116.0,46674.0,37104.0,19.94872342577907,1.4312350197550598,0,40000
866355,32865.0,45393.0,45517.0,36225.0,19.81503034461982,2.7137745746092694,0,40000
866365,31370.0,46876.0,46464.0,35290.0,19.81503034461982,2.7137745746092694,0,40000
866375,32628.0,46760.0,45434.0,35178.0,19.718079573088584,3.3462423626131472,0,40000
866385,32512.0,46772.0,45970.0,34746.0,19.600502833716387,3.9774726479858917,0,40000
866395,34010.0,46056.0,44154.0,35780.0,19.462572291173828,4.605244815515531,0,40000
866405,34754.0,43368.0,43442.0,38436.0,19.30201257219133,5.2375863394284785,0,40000
866415,36703.0,42543.0,42383.0,38371.0,19.12197647900485,5.860888630266343,0,40000
866425,35162.0,43360.0,43328.0,38150.0,18.92047394272508,6.481949227096827,0,40000
866435,35864.0,42834.0,42558.0,38744.0,18.699162074006793,7.095162981216565,0,40000
866445,34350.0,44794.0,44170.0,36686.0,18.460005818372366,7.695985004251144,0,40000
866455,36566.0,42630.0,42688.0,38116.0,18.2031332292525,8.285284584012995,0,40000
866465,36171.0,43637.0,42163.0,38029.0,17.9274143409748,8.866104840741002,0,40000
866475,35939.0,41603.0,43281.0,39177.0,17.633861392815515,9.436468215331967,0,40000
866485,34401.0,42955.0,44895.0,37749.0,17.320498088826053,10.00001729773369,0,40000
866495,36745.0,41395.0,42039.0,39821.0,16.987122770485207,10.556403742774478,0,40000
866505,36102.0,42640.0,42574.0,38684.0,16.637660299057092,11.099020667301211,0,40000
866515,36034.0,40888.0,42514.0,40564.0,16.264588416701052,11.638864361926121,0,40000
866525,34038.0,41458.0,44962.0,39542.0,15.873387461978027,12.166986910567415,0,40000
866535,36466.0,41586.0,42178.0,39770.0,15.466384438064152,12.68033723581542,0,40000
866545,35434.0,43170.0,43590.0,37806.0,15.05068170867865,13.171066020032162,0,40000
866555,35830.0,40460.0,42572.0,41138.0,14.620151701563957,13.647386717729388,0,40000
866565,33659.0,42881.0,44849.0,38611.0,14.176139416317282,14.108049874066065,0,40000
866575,33943.0,41093.0,44253.0,40711.0,13.715482546564669,14.556288624332783,0,40000
866585,34466.0,42702.0,44316.0,38516.0,13.239110789030219,14.990862067132218,0,40000
866595,35086.0,43248.0,42038.0,39628.0,12.746264887459251,15.412096918288679,0,40000
866605,35934.0,42344.0,42868.0,38854.0,12.243211368379008,15.814669626305665,0,40000
866615,32439.0,43641.0,45025.0,38895.0,11.72609248909289,16.20181332250311,0,40000
866625,32817.0,44157.0,45439.0,37587.0,11.199744283081941,16.570024984699735,0,40000
866635,34870.0,44284.0,42336.0,38510.0,10.663351101930452,16.920193358143358,0,40000
866645,36170.0,42580.0,42488.0,38762.0,10.11477843163622,17.253731691402493,0,40000
866655,36042.0,42214.0,40754.0,40990.0,10.11477843163622,17.253731691402493,0,40000
866665,35621.0,42685.0,42549.0,39145.0,9.552334942663524,17.571365830326606,0,40000
866675,34883.0,41917.0,41727.0,41473.0,8.406078771155494,18.147667610277882,0,40000
866685,35387.0,44027.0,42269.0,38317.0,8.406078771155494,18.147667610277882,0,40000
866695,34979.0,42779.0,41243.0,40999.0,7.817906472772298,18.408702789251205,0,40000
866705,34501.0,45239.0,42911.0,37349.0,7.221920351637191,18.65057281786832,0,40000
866715,34792.0,47472.0,41960.0,35776.0,6.603294609250025,18.878466577120335,0,40000
866725,34970.0,49318.0,41498.0,34214.0,5.975549608066983,19.086456111115297,0,40000
866735,35809.0,48833.0,40213.0,35145.0,5.355273171852541,19.26969250545624,0,40000
866745,36214.0,48134.0,40478.0,35174.0,4.727867877894736,19.43314862108483,0,40000
866755,35976.0,48488.0,39464.0,36072.0,4.096505853295386,19.57597097959426,0,40000
866765,35434.0,48690.0,40190.0,35686.0,3.4656918763982176,19.69743586911422,0,40000
866775,36506.0,46932.0,39622.0,36940.0,2.828351260446072,19.79900071083218,0,40000
866785,36900.0,47938.0,38178.0,36984.0,2.1909988704136376,19.879625850348546,0,40000
866795,34360.0,42612.0,41160.0,41868.0,1.5512812700241447,19.939747401140075,0,40000
866805,33223.0,45029.0,41749.0,39999.0,0.9042609274580671,19.97954734660104,0,40000
866815,33372.0,43004.0,41420.0,42204.0,0.26427442862799255,19.998253899437653,0,40000
866825,33647.0,44033.0,41013.0,41307.0,-0.38270784319426643,19.996338032418777,0,40000
866835,33765.0,44055.0,40319.0,41861.0,-1.026103036483745,19.97366046969155,0,40000
866845,33736.0,44528.0,40802.0,40934.0,-1.6659121469192932,19.930497653564668,0,40000
866855,34283.0,42537.0,39955.0,43225.0,-2.3165822210950813,19.865383127765398,0,40000
866865,34341.0,44889.0,38957.0,41813.0,-2.956079244580468,19.78033355380441,0,40000
866875,33126.0,43892.0,41316.0,41666.0,-3.595108894230419,19.674226593150372,0,40000
866885,30884.0,45944.0,41984.0,41188.0,-4.238097411907475,19.545805952356716,0,40000
866895,31461.0,43859.0,42605.0,42075.0,-4.867668072129867,19.398603236820108,0,40000
866905,31595.0,46445.0,41013.0,40947.0,-5.4888529953151535,19.232069384125566,0,40000
866915,31103.0,43339.0,42787.0,42771.0,-6.102022805078469,19.04639907400615,0,40000
866925,30538.0,45578.0,42126.0,41758.0,-6.714321794897281,18.839264392076657,0,40000
866935,30240.0,44242.0,43234.0,42284.0,-7.313459051888276,18.614868162207152,0,40000
866945,32030.0,45678.0,40492.0,41800.0,-7.906915043771337,18.370647633945367,0,40000
866955,30232.0,42462.0,43632.0,43674.0,-8.492772708298684,18.10725853698392,0,40000
866965,30969.0,45443.0,41077.0,42511.0,-9.088743688513217,17.815575718020206,0,40000
866975,30718.0,42246.0,42636.0,44400.0,-9.659787357275391,17.51252432438632,0,40000
866985,31395.0,44763.0,41727.0,42115.0,-10.218587770011805,17.19245369301791,0,40000
866995,35534.0,45572.0,41950.0,43638.0,-10.769760526430032,16.852663237700725,0,40000
867005,32151.0,44299.0,41281.0,42269.0,-11.308533266960962,16.495971488519167,0,40000
867015,36625.0,44583.0,36425.0,42367.0,-11.834500280662434,16.122797620357353,0,40000
867025,32170.0,43884.0,41862.0,42084.0,-11.834500280662434,16.122797620357353,0,40000
867035,35779.0,45383.0,37545.0,41293.0,-12.350024178244158,15.731398628119011,0,40000
867045,31926.0,43698.0,42194.0,42182.0,-12.849203574848511,15.326381421982823,0,40000
867055,36287.0,45063.0,37971.0,40679.0,-13.338089775718068,14.902864192325085,0,40000
867065,35744.0,44344.0,39000.0,40912.0,-13.814780051140934,14.46208325721431,0,40000
867075,31220.0,44012.0,43084.0,41684.0,-14.277552181297406,14.005409801584875,0,40000
867085,35991.0,45351.0,38141.0,40517.0,-14.723401246127239,13.53593202352682,0,40000
867095,32300.0,44580.0,42250.0,40870.0,-15.154837218735633,13.051088417202038,0,40000
867105,36473.0,43545.0,38757.0,41225.0,-15.571912970523066,12.550518970881463,0,40000
867115,32879.0,45215.0,41281.0,40625.0,-15.972885898559026,12.036067300892523,0,40000
867125,37899.0,44425.0,38069.0,39607.0,-16.352981400715983,11.514338856740194,0,40000
867135,32282.0,44364.0,42514.0,40840.0,-16.714068099099777,10.983620877409015,0,40000
867145,34334.0,42320.0,41404.0,41942.0,-17.059587415740193,10.438892527692714,0,40000
867155,34946.0,44248.0,40396.0,40410.0,-17.39381143545957,9.871946299878049,0,40000
867165,34225.0,44567.0,41185.0,40023.0,-17.713403814863828,9.286297717151196,0,40000
867175,33768.0,43476.0,41600.0,41156.0,-18.003724738936512,8.710103071985163,0,40000
867185,33469.0,43071.0,42771.0,40689.0,-18.273708020551382,8.128443589004979,0,40000
867195,33604.0,43920.0,41928.0,40548.0,-18.526784745871684,7.533806938071638,0,40000
867205,32085.0,43565.0,44101.0,40249.0,-18.76622206899967,6.915844797057677,0,40000
867215,33428.0,44952.0,42894.0,38726.0,-18.979406418328594,6.307307825681842,0,40000
867225,32485.0,44833.0,42909.0,39773.0,-19.17255207654965,5.693263288483308,0,40000
867235,33654.0,43824.0,42766.0,39756.0,-19.345715477525708,5.073784845913583,0,40000
867245,31326.0,42746.0,45014.0,40914.0,-19.498782034734376,4.449438072601969,0,40000
867255,33925.0,42743.0,42637.0,40695.0,-19.631801773009514,3.8199946525172686,0,40000
867265,31947.0,42465.0,44565.0,41023.0,-19.745151868867435,3.182605485347014,0,40000
867275,33646.0,43582.0,42600.0,40172.0,-19.83722258518973,2.5464877980541316,0,40000
867285,32298.0,42356.0,44718.0,40628.0,-19.908868144542144,1.9070839528544858,0,40000
867295,36309.0,39693.0,40255.0,43743.0,-19.959973940720687,1.2646897982316043,0,40000
867305,32277.0,41177.0,45125.0,41421.0,-19.990368349307936,0.6206232826663536,0,40000
867315,33034.0,42304.0,43590.0,41072.0,-19.999988798808573,-0.021167133287448608,0,40000
867325,32787.0,42525.0,44689.0,39999.0,-19.988986535141887,-0.6636394336659162,0,40000
867335,34005.0,41593.0,43437.0,40965.0,-19.988986535141887,-0.6636394336659162,0,40000
867345,33248.0,38272.0,44186.0,44294.0,-19.9049298219673,-1.9477599396631986,0,40000
867355,33046.0,41258.0,44784.0,40912.0,-19.83231103437572,-2.584461072598902,0,40000
867365,34586.0,38784.0,43068.0,43562.0,-19.83231103437572,-2.584461072598902,0,40000
867375,36370.0,38556.0,42044.0,43030.0,-19.73938675773795,-3.2181688004888276,0,40000
867385,35031.0,38589.0,42451.0,43929.0,-19.625947716414636,-3.8499579520507856,0,40000
867395,36383.0,37007.0,42079.0,44531.0,-19.4910744819312,-4.483081032037061,0,40000
867405,35498.0,38242.0,42686.0,43574.0,-19.336846540202263,-5.107481363712234,0,40000
867415,34147.0,40761.0,44943.0,40149.0,-19.159998529177496,-5.73536889501592,0,40000
867425,34307.0,39099.0,43541.0,43053.0,-18.9656470289674,-6.3485614726975825,0,40000
867435,36540.0,37446.0,42402.0,43612.0,-18.75152033623043,-6.955608174698783,0,40000
867445,32998.0,42516.0,45218.0,39268.0,-18.519015896695322,-7.5528835697332095,0,40000
867455,34554.0,40326.0,45008.0,40112.0,-18.266217735679174,-8.145261790314638,0,40000
867465,32548.0,42600.0,45538.0,39314.0,-17.990178811304148,-8.73804705510924,0,40000
867475,33786.0,41566.0,45450.0,39198.0,-17.700107533266525,-9.311616041848032,0,40000
867485,33598.0,43144.0,45090.0,38168.0,-17.38880330804488,-9.880765127970978,0,40000
867495,35173.0,42007.0,44173.0,38647.0,-17.061018110012014,-10.436554079285079,0,40000
867505,33306.0,45276.0,44980.0,36438.0,-16.711402095744916,-10.987676733246769,0,40000
867515,34305.0,41919.0,44733.0,39043.0,-16.34839192087112,-11.520854204510876,0,40000
867525,32598.0,43434.0,45454.0,38514.0,-15.966004705401707,-12.045193802803283,0,40000
867535,34525.0,41099.0,44829.0,39547.0,-15.554554156538341,-12.572026288204931,0,40000
867545,35138.0,41136.0,43662.0,40064.0,-15.141828354375672,-13.066179016323973,0,40000
867555,36323.0,41181.0,42581.0,39915.0,-14.71602829898762,-13.543947397394732,0,40000
867565,34500.0,42504.0,43742.0,39254.0,-14.259717692513656,-14.023567710458455,0,40000
867575,35389.0,41057.0,42895.0,40659.0,-13.78949805769053,-14.486191470395147,0,40000
867585,35024.0,41832.0,43348.0,39796.0,-13.316767021829051,-14.92192065674946,0,40000
867595,35303.0,42105.0,43059.0,39533.0,-12.832067879634002,-15.340731205925788,0,40000
867605,34623.0,42435.0,43943.0,38999.0,-12.332471556442448,-15.745162600288952,0,40000
867615,33450.0,41732.0,44440.0,40378.0,-11.818155105000198,-16.134782611307713,0,40000
867625,33493.0,42027.0,44989.0,39491.0,-11.291414520485468,-16.507693906980766,0,40000
867635,33456.0,42046.0,44212.0,40286.0,-10.743997285528714,-16.86909963004996,0,40000
867645,32899.0,43553.0,44795.0,38753.0,-10.183166189755449,-17.21345771051887,0,40000
867655,33151.0,41271.0,44397.0,41181.0,-9.621764329259507,-17.533443791571276,0,40000
867665,34353.0,42975.0,43359.0,39313.0,-9.621764329259507,-17.533443791571276,0,40000
867675,34450.0,41524.0,43020.0,41006.0,-8.478068061730244,-18.11414811523494,0,40000
867685,34582.0,42992.0,42738.0,39688.0,-8.478068061730244,-18.11414811523494,0,40000
867695,32405.0,38637.0,44479.0,44479.0,-7.303279716670029,-18.618864234428376,0,40000
867705,32241.0,38771.0,44579.0,44409.0,-7.303279716670029,-18.618864234428376,0,40000
867715,32472.0,37552.0,44186.0,45790.0,-6.676745327089561,-18.852614456281326,0,40000
867725,32425.0,39701.0,44463.0,43411.0,-6.0632065920744385,-19.058791300127748,0,40000
867735,31418.0,39484.0,44580.0,44518.0,-5.444326604960821,-19.24472155731321,0,40000
867745,32152.0,41206.0,44086.0,42556.0,-4.8242407959925835,-19.40944874905727,0,40000
867755,31646.0,39320.0,44748.0,44286.0,-4.198531254115341,-19.554343131596536,0,40000
867765,32547.0,44305.0,43303.0,39845.0,-3.5623746740035456,-19.6801800469919,0,40000
867775,33112.0,41680.0,42890.0,42318.0,-2.9226803519045843,-19.78529604429994,0,40000
867785,31792.0,44632.0,43090.0,40486.0,-2.287862469737328,-19.868711214358303,0,40000
867795,32481.0,43213.0,43289.0,41017.0,-1.6481618315995006,-19.931973373874918,0,40000
867805,32413.0,44317.0,42713.0,40557.0,-1.0064443767622349,-19.974660690897448,0,40000
867815,33183.0,41709.0,43067.0,42041.0,-0.3644950004410037,-19.996678309025565,0,40000
867825,32812.0,43988.0,41894.0,41306.0,0.28815071800336733,-19.997924121361052,0,40000
867835,31349.0,42621.0,43247.0,42783.0,0.9314663812533143,-19.978297484535435,0,40000
867845,33986.0,43430.0,40806.0,41778.0,1.5844202123618891,-19.93714153510124,0,40000
867855,32943.0,42225.0,41727.0,43105.0,2.222116522203446,-19.876171617334926,0,40000
867865,33031.0,43885.0,41489.0,41595.0,2.8861009397944826,-19.790665005636303,0,40000
867875,33036.0,42772.0,41634.0,42558.0,3.532181476443081,-19.685621504475606,0,40000
867885,29904.0,43856.0,43858.0,42382.0,4.162713595209947,-19.561999272166798,0,40000
867895,30628.0,44652.0,44326.0,40394.0,4.789429206669865,-19.418068077805724,0,40000
867905,31368.0,46122.0,42160.0,40350.0,5.413530135252721,-19.253407269226678,0,40000
867915,29855.0,46487.0,44389.0,39269.0,6.029036071758212,-19.069628314297013,0,40000
867925,30133.0,45971.0,43599.0,40297.0,6.640301030055977,-18.8654817651243,0,40000
867935,29433.0,44961.0,44351.0,41255.0,7.251624388101936,-18.639043530553955,0,40000
867945,32062.0,46758.0,41946.0,39234.0,7.844482302866259,-18.39739376650992,0,40000
867955,32249.0,44915.0,41447.0,41389.0,8.43143482573289,-18.13590104680268,0,40000
867965,32798.0,46088.0,40278.0,40836.0,9.01070059647069,-17.85517501344534,0,40000
867975,31921.0,43233.0,41559.0,43287.0,9.581026761190932,-17.555737700288848,0,40000
867985,33566.0,43500.0,39802.0,43132.0,10.136197437258625,-17.241157197616165,0,40000
867995,32485.0,42637.0,41223.0,43655.0,10.695560354448098,-16.89985173616497,0,40000
868005,34121.0,44259.0,39797.0,41823.0,11.231892938593893,-16.548250089237975,0,40000
868015,31214.0,43188.0,41990.0,43608.0,11.754980299796781,-16.18086642152977,0,40000
868025,33136.0,44386.0,40718.0,41760.0,11.754980299796781,-16.18086642152977,0,40000
868035,31775.0,44695.0,42231.0,41299.0,12.285916668416153,-15.781516138088067,0,40000
868045,32340.0,45306.0,41876.0,40478.0,12.79035632969616,-15.375525518153887,0,40000
868055,26737.0,43857.0,46969.0,42437.0,13.288925019279386,-14.946721106382174,0,40000
868065,26949.0,44169.0,47193.0,41689.0,13.765478143632674,-14.509018280957921,0,40000
868075,26359.0,44875.0,48261.0,40505.0,14.228528112321348,-14.055212120664745,0,40000
868085,28645.0,44603.0,45941.0,40811.0,14.674498402590093,-13.588932873201662,0,40000
868095,26562.0,43196.0,47898.0,42344.0,15.110153235525294,-13.102796235878223,0,40000
868105,32314.0,43632.0,42420.0,41634.0,15.533391853948558,-12.59816405321365,0,40000
868115,31245.0,42625.0,43299.0,42831.0,15.931665462187771,-12.090576313845974,0,40000
868125,32537.0,43097.0,42659.0,41707.0,16.311634702577752,-11.572837738846129,0,40000
868135,31021.0,42415.0,43489.0,43075.0,16.673627330232993,-11.04491519444615,0,40000
868145,32660.0,42872.0,42208.0,42260.0,17.030254352896687,-10.486679010804298,0,40000
868155,32311.0,42619.0,43111.0,41959.0,17.361383235953248,-9.928865601586189,0,40000
868165,34083.0,42189.0,41067.0,42661.0,17.670565590945472,-9.367556335357364,0,40000
868175,31362.0,42372.0,43796.0,42470.0,17.96230473545156,-8.795203726507667,0,40000
868185,34125.0,42417.0,41023.0,42435.0,18.24195937046222,-8.199446220715496,0,40000
868195,32083.0,44109.0,43343.0,40465.0,18.49678260844517,-7.607169850602807,0,40000
868205,33402.0,43892.0,42318.0,40388.0,18.732791192353034,-7.005892815601782,0,40000
868215,31666.0,42606.0,43840.0,41888.0,18.954653341144482,-6.381309953061392,0,40000
868225,31695.0,43575.0,44281.0,40449.0,19.149238232628953,-5.771193560263047,0,40000
868235,32188.0,43522.0,43926.0,40364.0,19.324757606351834,-5.153032452425163,0,40000
868245,33257.0,44757.0,42809.0,39177.0,19.48020878861519,-4.530062422523505,0,40000
868255,31494.0,44614.0,44198.0,39694.0,19.615366523111543,-3.903510748543544,0,40000
868265,34266.0,42684.0,41828.0,41222.0,19.731526108053693,-3.2660185925979457,0,40000
868275,31472.0,43064.0,44604.0,40860.0,19.826217196922308,-2.630800574057665,0,40000
868285,34649.0,42531.0,42127.0,40693.0,19.901792587079253,-1.9795584914008697,0,40000
868295,33950.0,43422.0,42328.0,40300.0,19.95524197739939,-1.3372799345826194,0,40000
868305,34669.0,41661.0,42337.0,41333.0,19.987874699607428,-0.6963224775872898,0,40000
868315,33313.0,42525.0,43279.0,40883.0,19.999925175951457,-0.05470791846840975,0,40000
868325,33874.0,42730.0,43658.0,39738.0,19.99106555610875,0.5977440349867937,0,40000
868335,33416.0,43768.0,43044.0,39772.0,19.961690548143885,1.2372996646499972,0,40000
868345,32519.0,44575.0,44843.0,38063.0,19.961690548143885,1.2372996646499972,0,40000
