timestamp,stabilizer.roll,stabilizer.pitch,stateEstimateZ.rateRoll,stateEstimateZ.ratePitch,controller.pitchRate,controller.rollRate,roll,pitch,yawdot,thrust
1514080,-44.62705993652344,63.777347564697266,1.0,9.0,-384.5774230957031,269.1011962890625,0,0,0,40000
1514090,-44.63741683959961,63.76927185058594,-10.0,-13.0,-386.44219970703125,270.5022888183594,0,0,0,40000
1514100,-44.655059814453125,63.75478744506836,7.0,-24.0,-388.26812744140625,271.94757080078125,0,0,0,40000
1514110,-44.65861892700195,63.69743347167969,-9.0,-98.0,-389.8357849121094,273.30865478515625,0,0,0,40000
1514120,-44.606475830078125,63.61603927612305,-42.0,-305.0,-391.2569274902344,274.3345642089844,0,0,0,40000
1514130,-44.25974655151367,63.35187530517578,-26.0,-550.0,-391.5760192871094,273.5867614746094,0,0,0,40000
1514140,-43.860877990722656,63.086612701416016,0.0,-913.0,-391.8803405761719,272.51458740234375,0,0,0,40000
1514150,-42.828269958496094,62.46781921386719,30.0,-1401.0,-390.0498046875,267.6175537109375,0,0,0,40000
1514160,-41.81672668457031,61.87076187133789,46.0,-2044.0,-388.33099365234375,262.8153381347656,0,0,0,40000
1514170,-39.82255172729492,60.63310241699219,13.0,-2762.0,-382.7400817871094,252.0704345703125,0,0,0,40000
1514180,-38.19047927856445,59.54068374633789,71.0,-3559.0,-377.98529052734375,243.44366455078125,0,0,0,40000
1514190,-35.380741119384766,57.3995475769043,124.0,-4417.0,-366.88775634765625,227.68133544921875,0,0,0,40000
1514200,-33.32166290283203,55.600196838378906,157.0,-5353.0,-357.7817687988281,216.35134887695312,0,0,0,40000
1514210,-30.116361618041992,52.301666259765625,180.0,-6257.0,-339.60113525390625,198.06155395507812,0,0,0,40000
1514220,-27.96712875366211,49.69762420654297,263.0,-7140.0,-325.49951171875,186.03091430664062,0,0,0,40000
1514230,-24.873647689819336,45.242401123046875,432.0,-7848.0,-300.1805725097656,168.25296020507812,0,0,0,40000
1514240,-22.94502067565918,41.97862243652344,651.0,-8327.0,-281.896728515625,157.3926544189453,0,0,0,40000
1514250,-20.302492141723633,36.7826042175293,876.0,-8539.0,-251.8870391845703,142.17764282226562,0,0,0,40000
1514260,-18.69861602783203,33.21592330932617,1126.0,-8539.0,-231.52621459960938,133.1343994140625,0,0,0,40000
1514270,-16.476484298706055,27.88932228088379,1417.0,-8266.0,-200.46693420410156,120.32199096679688,0,0,0,40000
1514280,-15.079360008239746,24.441757202148438,1725.0,-7819.0,-180.55601501464844,112.40827178955078,0,0,0,40000
1514290,-13.043367385864258,19.59606170654297,2038.0,-7131.0,-152.12657165527344,100.60787200927734,0,0,0,40000
1514300,-11.707345008850098,16.683420181274414,2305.0,-6289.0,-135.18572998046875,92.9589614868164,0,0,0,40000
1514310,-9.678404808044434,12.937719345092773,2580.0,-5169.0,-113.14227294921875,81.10017395019531,0,0,0,40000
1514320,-8.299578666687012,10.93677043914795,2836.0,-3922.0,-101.48810577392578,73.0927963256836,0,0,0,40000
1514330,-6.192438125610352,8.76513957977295,2962.0,-2653.0,-88.74463653564453,60.6610221862793,0,0,0,40000
1514340,-4.7649712562561035,7.881153583526611,3044.0,-1343.0,-83.68707275390625,52.256324768066406,0,0,0,40000
1514350,-2.598803997039795,7.3554582595825195,3104.0,-261.0,-80.75752258300781,39.36338424682617,0,0,0,40000
1514360,-1.1567763090133667,7.452852725982666,3104.0,635.0,-81.56382751464844,30.76324462890625,0,0,0,40000
1514370,0.9895073771476746,8.096441268920898,3044.0,1242.0,-85.65921020507812,17.88153076171875,0,0,0,40000
1514380,2.384222984313965,8.757822036743164,2925.0,1659.0,-89.88206481933594,9.458368301391602,0,0,0,40000
1514390,4.389430522918701,9.969902992248535,2723.0,1894.0,-97.43862915039062,-2.6809539794921875,0,0,0,40000
1514400,5.660821914672852,10.840120315551758,2557.0,1952.0,-102.97465515136719,-10.463970184326172,0,0,0,40000
1514410,7.434503078460693,12.141291618347168,2350.0,1943.0,-111.13038635253906,-21.308177947998047,0,0,0,40000
1514420,8.515018463134766,12.964369773864746,2099.0,1794.0,-116.44801330566406,-28.033884048461914,0,0,0,40000
1514430,9.96753215789795,14.04108715057373,1811.0,1534.0,-123.31721496582031,-37.03112030029297,0,0,0,40000
1514440,10.829952239990234,14.616596221923828,1599.0,1180.0,-127.20208740234375,-42.520301818847656,0,0,0,40000
1514450,11.918598175048828,15.169538497924805,1244.0,678.0,-130.96925354003906,-49.39751434326172,0,0,0,40000
1514460,12.489521026611328,15.323493003845215,969.0,127.0,-132.3511199951172,-53.191078186035156,0,0,0,40000
1514470,13.09632682800293,15.165701866149902,681.0,-516.0,-131.86260986328125,-57.21831130981445,0,0,0,40000
1514480,13.3333101272583,14.755688667297363,427.0,-1233.0,-129.85052490234375,-59.03756332397461,0,0,0,40000
1514490,13.495654106140137,13.656366348266602,162.0,-1961.0,-123.67898559570312,-60.41516876220703,0,0,0,40000
1514500,13.425896644592285,12.600000381469727,-148.0,-2743.0,-117.73184967041016,-60.400352478027344,0,0,0,40000
1514510,13.14719295501709,10.592094421386719,-411.0,-3265.0,-106.02737426757812,-59.12647247314453,0,0,0,40000
1514520,12.864045143127441,9.044458389282227,-662.0,-3654.0,-97.03170013427734,-57.81695556640625,0,0,0,40000
1514530,12.23493766784668,6.516867160797119,-901.0,-3858.0,-82.09239196777344,-54.41729736328125,0,0,0,40000
1514540,11.739190101623535,4.807666778564453,-1102.0,-3775.0,-72.00190734863281,-51.801048278808594,0,0,0,40000
1514550,10.839303016662598,2.3709657192230225,-1324.0,-3510.0,-57.48151397705078,-46.73814392089844,0,0,0,40000
1514560,10.162652969360352,0.8944151997566223,-1464.0,-3091.0,-48.66656494140625,-42.99138641357422,0,0,0,40000
1514570,9.091531753540039,-1.0143870115280151,-1645.0,-2543.0,-37.20508575439453,-36.85078811645508,0,0,0,40000
1514580,8.342649459838867,-2.038093090057373,-1746.0,-1956.0,-31.013671875,-32.61689758300781,0,0,0,40000
1514590,7.164771556854248,-3.18455171585083,-1764.0,-1377.0,-24.051891326904297,-25.77880859375,0,0,0,40000
1514600,6.3502278327941895,-3.69734525680542,-1751.0,-820.0,-20.870037078857422,-21.091794967651367,0,0,0,40000
1514610,5.127142429351807,-4.105743408203125,-1706.0,-335.0,-18.300296783447266,-13.921724319458008,0,0,0,40000
1514620,4.3302788734436035,-4.1846771240234375,-1654.0,2.0,-17.701889038085938,-9.279998779296875,0,0,0,40000
1514630,3.203531265258789,-4.093273639678955,-1567.0,261.0,-18.125839233398438,-2.628976821899414,0,0,0,40000
1514640,2.5093209743499756,-3.9170420169830322,-1447.0,449.0,-19.06351661682129,1.4527740478515625,0,0,0,40000
1514650,1.553788423538208,-3.5963313579559326,-1312.0,496.0,-20.87592315673828,7.128208160400391,0,0,0,40000
1514660,0.9921340346336365,-3.3721210956573486,-1148.0,479.0,-22.117332458496094,10.461721420288086,0,0,0,40000
1514670,0.2455964982509613,-3.0954833030700684,-986.0,319.0,-23.68130111694336,14.924924850463867,0,0,0,40000
1514680,-0.1819172203540802,-3.001544237136841,-824.0,79.0,-24.153900146484375,17.490407943725586,0,0,0,40000
1514690,-0.68682861328125,-3.015137195587158,-637.0,-140.0,-23.982521057128906,20.53480339050293,0,0,0,40000
1514700,-0.9253432750701904,-3.143993854522705,-462.0,-417.0,-23.116756439208984,21.99083709716797,0,0,0,40000
1514710,-1.1563444137573242,-3.5222151279449463,-252.0,-680.0,-20.746797561645508,23.409191131591797,0,0,0,40000
1514720,-1.2146975994110107,-3.887220621109009,-57.0,-920.0,-18.444639205932617,23.795190811157227,0,0,0,40000
1514730,-1.1807879209518433,-4.572417259216309,154.0,-1060.0,-14.204839706420898,23.62802505493164,0,0,0,40000
1514740,-1.0706647634506226,-5.08679723739624,342.0,-1117.0,-10.97216796875,23.000822067260742,0,0,0,40000
1514750,-0.7837283611297607,-5.849142551422119,506.0,-1066.0,-6.2316436767578125,21.30650520324707,0,0,0,40000
1514760,-0.5191695094108582,-6.313459873199463,622.0,-946.0,-3.261821746826172,19.73799705505371,0,0,0,40000
1514770,-0.03643309697508812,-6.909937858581543,751.0,-785.0,0.5175514221191406,16.84879493713379,0,0,0,40000
1514780,0.34918642044067383,-7.212697982788086,857.0,-568.0,2.546966552734375,14.529303550720215,0,0,0,40000
1514790,0.9738507270812988,-7.5257887840271,942.0,-343.0,4.6480255126953125,10.759766578674316,0,0,0,40000
1514800,1.4207205772399902,-7.647974491119385,973.0,-189.0,5.609203338623047,8.041295051574707,0,0,0,40000
1514810,2.1198859214782715,-7.718128204345703,1002.0,-39.0,6.261203765869141,3.7911176681518555,0,0,0,40000
1514820,2.5895938873291016,-7.712123394012451,1007.0,90.0,6.456668853759766,0.9008255004882812,0,0,0,40000
1514830,3.2838516235351562,-7.609348773956299,978.0,192.0,6.069793701171875,-3.354930877685547,0,0,0,40000
1514840,3.7349510192871094,-7.500543117523193,937.0,244.0,5.643310546875,-6.168169021606445,0,0,0,40000
1514850,4.380232810974121,-7.3213725090026855,884.0,235.0,4.790061950683594,-10.163650512695312,0,0,0,40000
1514860,4.784337997436523,-7.217296600341797,795.0,178.0,4.3833465576171875,-12.72702407836914,0,0,0,40000
1514870,5.319621562957764,-7.117894649505615,721.0,89.0,4.0015106201171875,-16.092063903808594,0,0,0,40000
1514880,5.630335330963135,-7.106721878051758,649.0,3.0,4.14776611328125,-18.12155532836914,0,0,0,40000
1514890,6.014909267425537,-7.167179584503174,516.0,-130.0,4.72454833984375,-20.605091094970703,0,0,0,40000
1514900,6.220081329345703,-7.239859580993652,388.0,-196.0,5.376899719238281,-22.02035903930664,0,0,0,40000
1514910,6.447112560272217,-7.4030890464782715,262.0,-293.0,6.5762481689453125,-23.573505401611328,0,0,0,40000
1514920,6.53964376449585,-7.548691272735596,141.0,-361.0,7.674541473388672,-24.323833465576172,0,0,0,40000
1514930,6.597224235534668,-7.8227458000183105,25.0,-423.0,9.550113677978516,-24.86679458618164,0,0,0,40000
1514940,6.5697245597839355,-8.02765941619873,-104.0,-461.0,11.01791000366211,-24.899303436279297,0,0,0,40000
1514950,6.455398082733154,-8.328038215637207,-207.0,-387.0,13.066631317138672,-24.408620834350586,0,0,0,40000
1514960,6.330682754516602,-8.494876861572266,-319.0,-334.0,14.320545196533203,-23.85181427001953,0,0,0,40000
1514970,6.073844909667969,-8.682485580444336,-393.0,-233.0,15.704627990722656,-22.496232986450195,0,0,0,40000
1514980,5.875380039215088,-8.770764350891113,-463.0,-143.0,16.496421813964844,-21.484113693237305,0,0,0,40000
1514990,5.52829647064209,-8.823542594909668,-509.0,-32.0,17.077407836914062,-19.571720123291016,0,0,0,40000
1515000,5.2698445320129395,-8.808632850646973,-555.0,72.0,17.252460479736328,-18.182235717773438,0,0,0,40000
1515010,4.8569536209106445,-8.743623733520508,-587.0,126.0,17.12560272216797,-15.855619430541992,0,0,0,40000
1515020,4.5715203285217285,-8.66858959197998,-608.0,187.0,16.936370849609375,-14.283605575561523,0,0,0,40000
1515030,4.140311241149902,-8.524812698364258,-595.0,244.0,16.33126449584961,-11.825634002685547,0,0,0,40000
1515040,3.8579001426696777,-8.419149398803711,-599.0,246.0,15.951122283935547,-10.250312805175781,0,0,0,40000
1515050,3.444194793701172,-8.254719734191895,-570.0,231.0,15.214149475097656,-7.876262664794922,0,0,0,40000
1515060,3.1909964084625244,-8.152181625366211,-531.0,215.0,14.84469985961914,-6.455799102783203,0,0,0,40000
1515070,2.8388102054595947,-8.004781723022461,-496.0,199.0,14.202140808105469,-4.432046890258789,0,0,0,40000
1515080,2.628167152404785,-7.940125465393066,-422.0,92.0,14.053119659423828,-3.249540328979492,0,0,0,40000
1515090,2.3512368202209473,-7.917449951171875,-371.0,-2.0,14.154594421386719,-1.6616888046264648,0,0,0,40000
1515100,2.1973843574523926,-7.933112621307373,-302.0,-43.0,14.486358642578125,-0.8062982559204102,0,0,0,40000
1515110,2.0153634548187256,-7.986754417419434,-236.0,-78.0,15.047126770019531,0.22333908081054688,0,0,0,40000
1515120,1.925702452659607,-8.025157928466797,-163.0,-83.0,15.517837524414062,0.7025089263916016,0,0,0,40000
1515130,1.8356738090515137,-8.069637298583984,-105.0,-61.0,16.026329040527344,1.186720848083496,0,0,0,40000
1515140,1.816602110862732,-8.08285903930664,-26.0,-11.0,16.34801483154297,1.246450424194336,0,0,0,40000
1515150,1.8248636722564697,-8.087608337402344,35.0,17.0,16.619144439697266,1.1423377990722656,0,0,0,40000
1515160,1.8465667963027954,-8.068225860595703,97.0,46.0,16.74515151977539,0.9570121765136719,0,0,0,40000
1515170,1.928048849105835,-8.019554138183594,124.0,90.0,16.694427490234375,0.4114112854003906,0,0,0,40000
1515180,2.0116512775421143,-7.964048385620117,180.0,149.0,16.601024627685547,-0.14952850341796875,0,0,0,40000
1515190,2.1565749645233154,-7.848517894744873,221.0,180.0,16.144763946533203,-1.0819034576416016,0,0,0,40000
1515200,2.274637460708618,-7.760432720184326,277.0,202.0,15.850162506103516,-1.8570613861083984,0,0,0,40000
1515210,2.4615180492401123,-7.618314266204834,263.0,198.0,15.227682113647461,-3.049984931945801,0,0,0,40000
1515220,2.5874342918395996,-7.517601490020752,281.0,195.0,14.850128173828125,-3.8815908432006836,0,0,0,40000
1515230,2.7809622287750244,-7.409523010253906,258.0,144.0,14.425106048583984,-5.123930931091309,0,0,0,40000
1515240,2.8977363109588623,-7.357743740081787,238.0,92.0,14.335731506347656,-5.910127639770508,0,0,0,40000
1515250,3.056941032409668,-7.2996392250061035,219.0,87.0,14.206794738769531,-6.955156326293945,0,0,0,40000
1515260,3.1607248783111572,-7.259513854980469,228.0,77.0,14.184318542480469,-7.671408653259277,0,0,0,40000
1515270,3.2991065979003906,-7.218031883239746,183.0,67.0,14.152488708496094,-8.599129676818848,0,0,0,40000
1515280,3.3746583461761475,-7.176129341125488,155.0,56.0,14.116859436035156,-9.152788162231445,0,0,0,40000
1515290,3.453073740005493,-7.142269134521484,100.0,45.0,14.128345489501953,-9.726070404052734,0,0,0,40000
1515300,3.491079092025757,-7.113536357879639,73.0,61.0,14.169689178466797,-10.058390617370605,0,0,0,40000
1515310,3.5212783813476562,-7.07516622543335,44.0,54.0,14.152118682861328,-10.344891548156738,0,0,0,40000
1515320,3.5264735221862793,-7.060644626617432,2.0,1.0,14.276947021484375,-10.481802940368652,0,0,0,40000
1515330,3.502065658569336,-7.061885833740234,-61.0,-2.0,14.496238708496094,-10.44084644317627,0,0,0,40000
1515340,3.459484100341797,-7.064699649810791,-108.0,4.0,14.725040435791016,-10.289694786071777,0,0,0,40000
1515350,3.385047435760498,-7.058290004730225,-118.0,0.0,14.898365020751953,-9.945577621459961,0,0,0,40000
1515360,3.3092198371887207,-7.059830188751221,-163.0,-6.0,15.119380950927734,-9.590805053710938,0,0,0,40000
1515370,3.180114507675171,-7.074488639831543,-200.0,-40.0,15.41928482055664,-8.913150787353516,0,0,0,40000
1515380,3.0758213996887207,-7.074181079864502,-207.0,47.0,15.629722595214844,-8.380922317504883,0,0,0,40000
1515390,2.935969114303589,-7.032561302185059,-212.0,87.0,15.59157943725586,-7.631543159484863,0,0,0,40000
1515400,2.8313233852386475,-6.9786200523376465,-240.0,145.0,15.477973937988281,-7.089899063110352,0,0,0,40000
1515410,2.668513536453247,-6.854795455932617,-226.0,214.0,14.942340850830078,-6.1949968338012695,0,0,0,40000
1515420,2.5585620403289795,-6.732697486877441,-222.0,293.0,14.413249969482422,-5.613356590270996,0,0,0,40000
1515430,2.404650926589966,-6.530459880828857,-194.0,303.0,13.398195266723633,-4.763808250427246,0,0,0,40000
1515440,2.3118155002593994,-6.397880554199219,-193.0,276.0,12.79623031616211,-4.277284622192383,0,0,0,40000
1515450,2.1915695667266846,-6.227401256561279,-177.0,238.0,11.96213150024414,-3.623004913330078,0,0,0,40000
1515460,2.117457389831543,-6.1355180740356445,-138.0,183.0,11.595977783203125,-3.242709159851074,0,0,0,40000
1515470,2.0353963375091553,-6.03395414352417,-101.0,132.0,11.168712615966797,-2.8122406005859375,0,0,0,40000
1515480,1.9819016456604004,-5.9883222579956055,-87.0,77.0,11.075084686279297,-2.5513505935668945,0,0,0,40000
1515490,1.9210033416748047,-5.948980331420898,-67.0,59.0,11.01797866821289,-2.244274139404297,0,0,0,40000
1515500,1.8926680088043213,-5.921594142913818,-54.0,60.0,11.03165054321289,-2.131392478942871,0,0,0,40000
1515510,1.87356698513031,-5.886120319366455,-23.0,56.0,10.995800018310547,-2.0731515884399414,0,0,0,40000
1515520,1.8703869581222534,-5.86832332611084,20.0,37.0,11.065265655517578,-2.1101837158203125,0,0,0,40000
1515530,1.8930786848068237,-5.836038112640381,32.0,63.0,11.047046661376953,-2.3027772903442383,0,0,0,40000
1515540,1.9116610288619995,-5.799367904663086,65.0,86.0,11.00145149230957,-2.471381187438965,0,0,0,40000
1515550,1.9632580280303955,-5.726698875427246,68.0,120.0,10.738162994384766,-2.8392333984375,0,0,0,40000
1515560,2.01222825050354,-5.6606645584106445,113.0,133.0,10.512590408325195,-3.1928176879882812,0,0,0,40000
1515570,2.0723981857299805,-5.579721450805664,101.0,99.0,10.195194244384766,-3.6152706146240234,0,0,0,40000
1515580,2.1163721084594727,-5.540166854858398,105.0,76.0,10.124519348144531,-3.942068099975586,0,0,0,40000
1515590,2.1911051273345947,-5.500475883483887,117.0,41.0,10.051769256591797,-4.455286979675293,0,0,0,40000
1515600,2.241924285888672,-5.492602825164795,110.0,17.0,10.169410705566406,-4.826834678649902,0,0,0,40000
1515610,2.316288948059082,-5.483278751373291,101.0,24.0,10.278106689453125,-5.341663360595703,0,0,0,40000
1515620,2.3644139766693115,-5.467780590057373,100.0,48.0,10.34935188293457,-5.700767517089844,0,0,0,40000
1515630,2.431475877761841,-5.404323577880859,96.0,106.0,10.131624221801758,-6.175298690795898,0,0,0,40000
1515640,2.469219446182251,-5.344974517822266,91.0,140.0,9.93661117553711,-6.475362777709961,0,0,0,40000
1515650,2.516974687576294,-5.257689952850342,63.0,109.0,9.57162094116211,-6.836848258972168,0,0,0,40000
1515660,2.5368218421936035,-5.202509880065918,40.0,116.0,9.397272109985352,-7.031830787658691,0,0,0,40000
1515670,2.555802583694458,-5.129937171936035,15.0,105.0,9.116596221923828,-7.222221374511719,0,0,0,40000
1515680,2.5560944080352783,-5.098217964172363,-11.0,61.0,9.079599380493164,-7.300664901733398,0,0,0,40000
1515690,2.54575252532959,-5.074906826019287,-14.0,29.0,9.092218399047852,-7.315108299255371,0,0,0,40000
1515700,2.5277602672576904,-5.068410396575928,-43.0,8.0,9.205366134643555,-7.283219814300537,0,0,0,40000
1515710,2.4807345867156982,-5.063551902770996,-65.0,4.0,9.328180313110352,-7.07607889175415,0,0,0,40000
1515720,2.4432239532470703,-5.06294059753418,-92.0,1.0,9.47641372680664,-6.924779891967773,0,0,0,40000
1515730,2.3810741901397705,-5.05876350402832,-84.0,10.0,9.603202819824219,-6.624035358428955,0,0,0,40000
1515740,2.3392298221588135,-5.05063009262085,-99.0,38.0,9.706008911132812,-6.443665027618408,0,0,0,40000
1515750,2.270214319229126,-5.010313510894775,-92.0,82.0,9.615022659301758,-6.098501205444336,0,0,0,40000
1515760,2.2148356437683105,-4.95062780380249,-132.0,142.0,9.376476287841797,-5.820065498352051,0,0,0,40000
1515770,2.1650404930114746,-4.87963342666626,-119.0,196.0,9.097801208496094,-5.586829662322998,0,0,0,40000
1515780,2.0742228031158447,-4.72683572769165,-135.0,244.0,8.324760437011719,-5.105271339416504,0,0,0,40000
1515790,2.0204813480377197,-4.615624904632568,-106.0,240.0,7.797296524047852,-4.84404993057251,0,0,0,40000
1515800,1.9340766668319702,-4.454246997833252,-137.0,208.0,6.964469909667969,-4.384739875793457,0,0,0,40000
1515810,1.874840259552002,-4.363714694976807,-128.0,175.0,6.5532379150390625,-4.086287498474121,0,0,0,40000
1515820,1.7912366390228271,-4.253266334533691,-138.0,132.0,6.019342422485352,-3.6394424438476562,0,0,0,40000
1515830,1.7352010011672974,-4.219455242156982,-121.0,57.0,5.943424224853516,-3.355947971343994,0,0,0,40000
1515840,1.6519166231155396,-4.18585205078125,-104.0,35.0,5.867765426635742,-2.906744956970215,0,0,0,40000
1515850,1.6045550107955933,-4.1759867668151855,-102.0,-3.0,5.933935165405273,-2.6713104248046875,0,0,0,40000
1515860,1.5287971496582031,-4.19106912612915,-98.0,-23.0,6.149936676025391,-2.2635254859924316,0,0,0,40000
1515870,1.4875006675720215,-4.1950907707214355,-95.0,5.0,6.299861907958984,-2.0608749389648438,0,0,0,40000
1515880,1.4324756860733032,-4.20465087890625,-71.0,-24.0,6.483175277709961,-1.774301528930664,0,0,0,40000
1515890,1.4037123918533325,-4.215476989746094,-56.0,-15.0,6.674442291259766,-1.6441535949707031,0,0,0,40000
1515900,1.367741584777832,-4.239150524139404,-39.0,-30.0,6.943338394165039,-1.4697952270507812,0,0,0,40000
1515910,1.3398373126983643,-4.244486331939697,-57.0,7.0,7.102664947509766,-1.342933177947998,0,0,0,40000
1515920,1.3086740970611572,-4.233218669891357,-42.0,31.0,7.162260055541992,-1.1955986022949219,0,0,0,40000
1515930,1.292641043663025,-4.201539516448975,-17.0,82.0,7.098651885986328,-1.1383342742919922,0,0,0,40000
1515940,1.281650185585022,-4.1546311378479,-16.0,79.0,6.9424285888671875,-1.110945701599121,0,0,0,40000
1515950,1.2750096321105957,-4.103145599365234,-26.0,111.0,6.757240295410156,-1.1094403266906738,0,0,0,40000
1515960,1.2506740093231201,-4.038267612457275,-21.0,97.0,6.489891052246094,-1.0012211799621582,0,0,0,40000
1515970,1.2452914714813232,-3.9943904876708984,-10.0,104.0,6.346990585327148,-1.0063390731811523,0,0,0,40000
1515980,1.230749487876892,-3.9241580963134766,-36.0,118.0,6.044166564941406,-0.956265926361084,0,0,0,40000
1515990,1.2290836572647095,-3.872709035873413,-11.0,114.0,5.852251052856445,-0.9831342697143555,0,0,0,40000
1516000,1.230470061302185,-3.785886287689209,10.0,120.0,5.445940017700195,-1.028317928314209,0,0,0,40000
1516010,1.2283471822738647,-3.732306480407715,8.0,94.0,5.237068176269531,-1.0524506568908691,0,0,0,40000
1516020,1.2399754524230957,-3.6654787063598633,25.0,102.0,4.946920394897461,-1.159233570098877,0,0,0,40000
1516030,1.2421101331710815,-3.629434108734131,7.0,75.0,4.8399658203125,-1.209284782409668,0,0,0,40000
1516040,1.2521942853927612,-3.5951740741729736,25.0,33.0,4.742603302001953,-1.307176113128662,0,0,0,40000
1516050,1.2622649669647217,-3.5914218425750732,43.0,38.0,4.827857971191406,-1.405348777770996,0,0,0,40000
1516060,1.2777352333068848,-3.574105739593506,39.0,18.0,4.831333160400391,-1.5363335609436035,0,0,0,40000
1516070,1.2942142486572266,-3.5506951808929443,31.0,45.0,4.797698974609375,-1.6738572120666504,0,0,0,40000
1516080,1.323094367980957,-3.521422863006592,46.0,27.0,4.728036880493164,-1.8864707946777344,0,0,0,40000
1516090,1.3427379131317139,-3.5075595378875732,34.0,29.0,4.750240325927734,-2.0443949699401855,0,0,0,40000
1516100,1.3629109859466553,-3.479722023010254,27.0,47.0,4.687959671020508,-2.2061333656311035,0,0,0,40000
1516110,1.365340232849121,-3.4551002979278564,15.0,67.0,4.644191741943359,-2.2616634368896484,0,0,0,40000
1516120,1.3785202503204346,-3.4029242992401123,13.0,83.0,4.433870315551758,-2.381959915161133,0,0,0,40000
1516130,1.3844503164291382,-3.362879753112793,-8.0,71.0,4.294944763183594,-2.4590234756469727,0,0,0,40000
1516140,1.3844013214111328,-3.3038954734802246,0.0,83.0,4.040890693664551,-2.500244617462158,0,0,0,40000
1516150,1.3830509185791016,-3.268609046936035,-21.0,71.0,3.92764949798584,-2.5336527824401855,0,0,0,40000
1516160,1.3680692911148071,-3.223172187805176,-25.0,81.0,3.7523193359375,-2.4849677085876465,0,0,0,40000
1516170,1.3522542715072632,-3.193720579147339,-4.0,87.0,3.6717748641967773,-2.430765151977539,0,0,0,40000
1516180,1.3400250673294067,-3.129045248031616,-9.0,96.0,3.378368377685547,-2.397808074951172,0,0,0,40000
1516190,1.3342163562774658,-3.0849382877349854,-18.0,108.0,3.2068052291870117,-2.4030542373657227,0,0,0,40000
1516200,1.3253662586212158,-3.0091135501861572,-11.0,105.0,2.8430328369140625,-2.3897933959960938,0,0,0,40000
1516210,1.3124918937683105,-2.981928825378418,-20.0,59.0,2.769704818725586,-2.352072238922119,0,0,0,40000
1516220,1.299631953239441,-2.9660861492156982,-26.0,-8.0,2.7636756896972656,-2.314067840576172,0,0,0,40000
1516230,1.2907263040542603,-2.971484899520874,-4.0,13.0,2.885190963745117,-2.299461841583252,0,0,0,40000
1516240,1.2813924551010132,-2.9761805534362793,-13.0,-6.0,3.002532958984375,-2.2820448875427246,0,0,0,40000
1516250,1.2697153091430664,-2.973629951477051,-16.0,3.0,3.076486587524414,-2.250213623046875,0,0,0,40000
1516260,1.2606626749038696,-2.9734246730804443,-8.0,13.0,3.164459228515625,-2.2338080406188965,0,0,0,40000
1516270,1.2542402744293213,-2.965303659439087,-2.0,15.0,3.2047996520996094,-2.2329773902893066,0,0,0,40000
1516280,1.2539796829223633,-2.955249786376953,0.0,33.0,3.2333240509033203,-2.2690577507019043,0,0,0,40000
1516290,1.2499592304229736,-2.9435181617736816,8.0,19.0,3.2514047622680664,-2.282467842102051,0,0,0,40000
1516300,1.2579776048660278,-2.9222571849823,20.0,63.0,3.211864471435547,-2.368170738220215,0,0,0,40000
1516310,1.2661482095718384,-2.890432119369507,10.0,69.0,3.107987403869629,-2.455108165740967,0,0,0,40000
1516320,1.284117579460144,-2.8446552753448486,16.0,59.0,2.919187545776367,-2.601226329803467,0,0,0,40000
1516330,1.294985294342041,-2.819368362426758,0.0,35.0,2.852325439453125,-2.7051496505737305,0,0,0,40000
1516340,1.3024556636810303,-2.7937798500061035,11.0,15.0,2.782895088195801,-2.788893222808838,0,0,0,40000
1516350,1.3094136714935303,-2.7923285961151123,27.0,19.0,2.8579626083374023,-2.869792938232422,0,0,0,40000
1516360,1.3195679187774658,-2.7773542404174805,32.0,15.0,2.8516082763671875,-2.9701924324035645,0,0,0,40000
1516370,1.3264527320861816,-2.7779815196990967,13.0,-7.0,2.938692092895508,-3.0512189865112305,0,0,0,40000
1516380,1.3388022184371948,-2.7909536361694336,18.0,-59.0,3.1000070571899414,-3.1653246879577637,0,0,0,40000
1516390,1.3367087841033936,-2.8338162899017334,1.0,-95.0,3.44167423248291,-3.192892074584961,0,0,0,40000
1516400,1.3238897323608398,-2.907081127166748,-25.0,-111.0,3.9675846099853516,-3.155935287475586,0,0,0,40000
1516410,1.315506100654602,-2.959965705871582,-29.0,-119.0,4.373053550720215,-3.1451916694641113,0,0,0,40000
1516420,1.2885053157806396,-3.0338170528411865,-41.0,-119.0,4.906284332275391,-3.022190570831299,0,0,0,40000
1516430,1.2706133127212524,-3.088901996612549,-73.0,-98.0,5.328779220581055,-2.9532036781311035,0,0,0,40000
1516440,1.222248911857605,-3.133253335952759,-45.0,-28.0,5.688528060913086,-2.7001447677612305,0,0,0,40000
1516450,1.2026758193969727,-3.1262967586517334,-59.0,56.0,5.740732192993164,-2.6190013885498047,0,0,0,40000
1516460,1.1682333946228027,-3.0618228912353516,-54.0,149.0,5.446749687194824,-2.4478187561035156,0,0,0,40000
1516470,1.1445456743240356,-2.981254816055298,-49.0,215.0,5.053775787353516,-2.3403053283691406,0,0,0,40000
1516480,1.1168735027313232,-2.8256430625915527,-31.0,233.0,4.206792831420898,-2.2080793380737305,0,0,0,40000
1516490,1.1066274642944336,-2.7133562564849854,-29.0,231.0,3.6158456802368164,-2.1799240112304688,0,0,0,40000
1516500,1.0915892124176025,-2.565129041671753,-33.0,187.0,2.8051414489746094,-2.1226439476013184,0,0,0,40000
1516510,1.0704127550125122,-2.488962411880493,-35.0,134.0,2.4237146377563477,-2.027952194213867,0,0,0,40000
1516520,1.042006492614746,-2.4213597774505615,-38.0,57.0,2.091385841369629,-1.8891324996948242,0,0,0,40000
1516530,1.0292178392410278,-2.406608819961548,-52.0,17.0,2.075193405151367,-1.8434758186340332,0,0,0,40000
1516540,1.0064351558685303,-2.4077045917510986,-13.0,-22.0,2.153902053833008,-1.737161636352539,0,0,0,40000
1516550,1.001905918121338,-2.4317986965179443,-17.0,-59.0,2.371105194091797,-1.740067481994629,0,0,0,40000
1516560,0.9840602874755859,-2.4767746925354004,-16.0,-66.0,2.714750289916992,-1.6627368927001953,0,0,0,40000
1516570,0.975271999835968,-2.5138962268829346,-26.0,-98.0,3.0124073028564453,-1.6393771171569824,0,0,0,40000
1516580,0.9627245664596558,-2.5811045169830322,-11.0,-120.0,3.4922866821289062,-1.593122959136963,0,0,0,40000
1516590,0.9591367244720459,-2.6355717182159424,-33.0,-110.0,3.8974790573120117,-1.600423812866211,0,0,0,40000
1516600,0.9483163356781006,-2.702174186706543,4.0,-82.0,4.377471923828125,-1.5640044212341309,0,0,0,40000
1516610,0.9467160105705261,-2.727415084838867,14.0,-25.0,4.6104736328125,-1.582812786102295,0,0,0,40000
1516620,0.9542386531829834,-2.7285568714141846,3.0,-3.0,4.699227333068848,-1.6565337181091309,0,0,0,40000
1516630,0.9587898254394531,-2.719698190689087,-11.0,30.0,4.727788925170898,-1.712580680847168,0,0,0,40000
1516640,0.9624007344245911,-2.693197011947632,17.0,49.0,4.649967193603516,-1.7630233764648438,0,0,0,40000
1516650,0.9634026288986206,-2.664034366607666,9.0,67.0,4.555289268493652,-1.7979240417480469,0,0,0,40000
1516660,0.9704815149307251,-2.598041296005249,22.0,103.0,4.238151550292969,-1.8693366050720215,0,0,0,40000
1516670,0.9778622388839722,-2.5461511611938477,16.0,135.0,4.003850936889648,-1.9428715705871582,0,0,0,40000
1516680,0.9792817831039429,-2.4694764614105225,-7.0,106.0,3.6187782287597656,-1.9807977676391602,0,0,0,40000
1516690,0.9707716703414917,-2.430072069168091,-14.0,70.0,3.4556922912597656,-1.9589691162109375,0,0,0,40000
1516700,0.9711353778839111,-2.394991159439087,-4.0,50.0,3.3174619674682617,-1.9902985095977783,0,0,0,40000
1516710,0.9644155502319336,-2.3755578994750977,-11.0,45.0,3.2723894119262695,-1.978990077972412,0,0,0,40000
1516720,0.9678018093109131,-2.350026845932007,31.0,51.0,3.190005302429199,-2.028196334838867,0,0,0,40000
1516730,0.9680055975914001,-2.331735372543335,22.0,47.0,3.150444984436035,-2.0584349632263184,0,0,0,40000
1516740,0.9730431437492371,-2.289820909500122,-5.0,81.0,2.9682254791259766,-2.117853879928589,0,0,0,40000
1516750,0.9749709367752075,-2.2483150959014893,6.0,93.0,2.7871389389038086,-2.1586408615112305,0,0,0,40000
1516760,0.9780013561248779,-2.1838366985321045,3.0,114.0,2.466625213623047,-2.206122398376465,0,0,0,40000
1516770,0.9749361872673035,-2.134286880493164,2.0,116.0,2.233957290649414,-2.2170023918151855,0,0,0,40000
1516780,0.9718271493911743,-2.0656380653381348,-10.0,85.0,1.8847551345825195,-2.227581262588501,0,0,0,40000
1516790,0.9600332975387573,-2.0326437950134277,-10.0,76.0,1.7481756210327148,-2.1857523918151855,0,0,0,40000
1516800,0.9538789987564087,-1.9786598682403564,-24.0,76.0,1.4842863082885742,-2.1775383949279785,0,0,0,40000
1516810,0.9451767802238464,-1.9638171195983887,-29.0,33.0,1.4543027877807617,-2.153763771057129,0,0,0,40000
1516820,0.9190776944160461,-1.9581904411315918,-37.0,-8.0,1.4792966842651367,-2.0250329971313477,0,0,0,40000
1516830,0.8973506689071655,-1.9813206195831299,-44.0,-57.0,1.6772079467773438,-1.9218473434448242,0,0,0,40000
1516840,0.8490731716156006,-2.0531654357910156,-62.0,-146.0,2.168825149536133,-1.6582868099212646,0,0,0,40000
1516850,0.8143324851989746,-2.115109443664551,-53.0,-144.0,2.603191375732422,-1.474663257598877,0,0,0,40000
1516860,0.7655735015869141,-2.1986613273620605,-50.0,-122.0,3.1695432662963867,-1.2056174278259277,0,0,0,40000
1516870,0.735222339630127,-2.2314038276672363,-79.0,-44.0,3.432558059692383,-1.0459465980529785,0,0,0,40000
1516880,0.6958975791931152,-2.228208541870117,-50.0,21.0,3.4804420471191406,-0.831315279006958,0,0,0,40000
1516890,0.6711227297782898,-2.208911657333374,-43.0,64.0,3.4311695098876953,-0.7030854225158691,0,0,0,40000
1516900,0.6439528465270996,-2.123810291290283,-34.0,152.0,2.9854888916015625,-0.5596909523010254,0,0,0,40000
1516910,0.6235858798027039,-2.0544073581695557,-57.0,156.0,2.631533622741699,-0.4564552307128906,0,0,0,40000
1516920,0.5981495380401611,-1.9416147470474243,-36.0,166.0,2.014397621154785,-0.3220839500427246,0,0,0,40000
1516930,0.5831750631332397,-1.8754727840423584,-20.0,160.0,1.6746063232421875,-0.2499372959136963,0,0,0,40000
1516940,0.5724021792411804,-1.758327841758728,-23.0,157.0,1.0258674621582031,-0.20260930061340332,0,0,0,40000
1516950,0.5668063163757324,-1.6931759119033813,-18.0,112.0,0.6864967346191406,-0.18610143661499023,0,0,0,40000
1516960,0.5524976849555969,-1.627617359161377,-20.0,82.0,0.3426799774169922,-0.11698627471923828,0,0,0,40000
1516970,0.5476481914520264,-1.5998862981796265,-15.0,53.0,0.22457313537597656,-0.10439395904541016,0,0,0,40000
1516980,0.5427210330963135,-1.5847324132919312,-4.0,23.0,0.18135833740234375,-0.09114360809326172,0,0,0,40000
1516990,0.5420358180999756,-1.5765516757965088,-2.0,-22.0,0.17963600158691406,-0.10329818725585938,0,0,0,40000
1517000,0.543117344379425,-1.5891791582107544,2.0,-40.0,0.30289649963378906,-0.12603044509887695,0,0,0,40000
1517010,0.5276588797569275,-1.5985662937164307,-6.0,-28.0,0.40706634521484375,-0.04928445816040039,0,0,0,40000
1517020,0.5163378119468689,-1.590680718421936,-7.0,40.0,0.4077596664428711,0.0030117034912109375,0,0,0,40000
1517030,0.5122089385986328,-1.5675405263900757,-11.0,47.0,0.3162221908569336,0.012360572814941406,0,0,0,40000
1517040,0.4928896725177765,-1.535854697227478,-34.0,51.0,0.17260360717773438,0.1132497787475586,0,0,0,40000
1517050,0.4789119362831116,-1.5215444564819336,-45.0,46.0,0.1325550079345703,0.18257808685302734,0,0,0,40000
1517060,0.4476865530014038,-1.5213192701339722,-35.0,-16.0,0.17669391632080078,0.3561530113220215,0,0,0,40000
1517070,0.4239547550678253,-1.5203074216842651,-32.0,-23.0,0.21622943878173828,0.48556017875671387,0,0,0,40000
1517080,0.3904990255832672,-1.5384341478347778,-47.0,-19.0,0.37097644805908203,0.6741583347320557,0,0,0,40000
1517090,0.36739566922187805,-1.5403358936309814,-56.0,1.0,0.42859649658203125,0.8014562129974365,0,0,0,40000
1517100,0.33365967869758606,-1.5378568172454834,-59.0,15.0,0.45991039276123047,0.9934165477752686,0,0,0,40000
1517110,0.3211740553379059,-1.5251020193099976,-18.0,31.0,0.4293022155761719,1.0585896968841553,0,0,0,40000
1517120,0.2952001690864563,-1.5035252571105957,-28.0,40.0,0.3452272415161133,1.2053159475326538,0,0,0,40000
1517130,0.27168896794319153,-1.490689754486084,-27.0,31.0,0.3130674362182617,1.3379535675048828,0,0,0,40000
1517140,0.24744002521038055,-1.4770148992538452,-26.0,20.0,0.27549266815185547,1.4757080078125,0,0,0,40000
1517150,0.23280125856399536,-1.4775738716125488,-43.0,1.0,0.32319164276123047,1.556381106376648,0,0,0,40000
1517160,0.20286279916763306,-1.459751009941101,-32.0,27.0,0.2603158950805664,1.72960364818573,0,0,0,40000
1517170,0.18989837169647217,-1.4521602392196655,-16.0,13.0,0.2584066390991211,1.8015453815460205,0,0,0,40000
1517180,0.1796305924654007,-1.4298077821731567,-22.0,27.0,0.1674509048461914,1.857612133026123,0,0,0,40000
1517190,0.1750211864709854,-1.417939305305481,-3.0,26.0,0.13889598846435547,1.8799647092819214,0,0,0,40000
1517200,0.1784115433692932,-1.4039548635482788,20.0,35.0,0.09734153747558594,1.8544389009475708,0,0,0,40000
1517210,0.1870725154876709,-1.4014581441879272,21.0,11.0,0.12445449829101562,1.7969748973846436,0,0,0,40000
1517220,0.21380555629730225,-1.4018893241882324,45.0,-8.0,0.1690835952758789,1.6305339336395264,0,0,0,40000
1517230,0.2276589423418045,-1.4187763929367065,40.0,-71.0,0.31272029876708984,1.5407421588897705,0,0,0,40000
1517240,0.26769962906837463,-1.4564200639724731,65.0,-79.0,0.5817775726318359,1.2929749488830566,0,0,0,40000
1517250,0.29725468158721924,-1.4918854236602783,57.0,-67.0,0.8389196395874023,1.1070821285247803,0,0,0,40000
1517260,0.3422684371471405,-1.529309868812561,58.0,-40.0,1.1089611053466797,0.827254056930542,0,0,0,40000
1517270,0.37030836939811707,-1.536525845527649,89.0,11.0,1.1982831954956055,0.6482675075531006,0,0,0,40000
1517280,0.4213976562023163,-1.5186049938201904,71.0,23.0,1.136561393737793,0.32970595359802246,0,0,0,40000
1517290,0.4501176178455353,-1.493899941444397,33.0,76.0,1.0334396362304688,0.14417028427124023,0,0,0,40000
1517300,0.4876510500907898,-1.4301921129226685,40.0,103.0,0.6949424743652344,-0.09523987770080566,0,0,0,40000
1517310,0.5084390044212341,-1.373216986656189,30.0,96.0,0.3949446678161621,-0.23497962951660156,0,0,0,40000
1517320,0.5276773571968079,-1.3075921535491943,31.0,85.0,0.04118967056274414,-0.3659482002258301,0,0,0,40000
1517330,0.5421465039253235,-1.2725446224212646,39.0,52.0,-0.13052988052368164,-0.4688248634338379,0,0,0,40000
1517340,0.5590527653694153,-1.27806556224823,0.0,-42.0,-0.05932331085205078,-0.5869548320770264,0,0,0,40000
1517350,0.5623711347579956,-1.320185661315918,11.0,-101.0,0.23245954513549805,-0.6236865520477295,0,0,0,40000
1517360,0.5666173696517944,-1.414567470550537,-14.0,-145.0,0.8400177955627441,-0.6662132740020752,0,0,0,40000
1517370,0.5648698806762695,-1.467437982559204,-9.0,-130.0,1.200638771057129,-0.6726727485656738,0,0,0,40000
1517380,0.5503118634223938,-1.5439938306808472,-5.0,-97.0,1.7055048942565918,-0.6019501686096191,0,0,0,40000
1517390,0.5358932018280029,-1.57924485206604,-17.0,-71.0,1.9639840126037598,-0.531679630279541,0,0,0,40000
1517400,0.5208035707473755,-1.6129285097122192,-22.0,-29.0,2.2141809463500977,-0.4569673538208008,0,0,0,40000
1517410,0.5136131048202515,-1.617531418800354,-33.0,15.0,2.290297031402588,-0.42931509017944336,0,0,0,40000
1517420,0.5035987496376038,-1.5835518836975098,-6.0,64.0,2.134431838989258,-0.3843555450439453,0,0,0,40000
1517430,0.48494747281074524,-1.5522944927215576,-52.0,117.0,1.9938750267028809,-0.2872483730316162,0,0,0,40000
1517440,0.45774731040000916,-1.4710718393325806,-50.0,96.0,1.5516266822814941,-0.13805389404296875,0,0,0,40000
1517450,0.4396990239620209,-1.4014995098114014,-27.0,134.0,1.1770744323730469,-0.04315686225891113,0,0,0,40000
1517460,0.42788422107696533,-1.3141306638717651,-19.0,108.0,0.6933050155639648,0.014754772186279297,0,0,0,40000
1517470,0.41944625973701477,-1.2619959115982056,-10.0,106.0,0.4114103317260742,0.05271196365356445,0,0,0,40000
1517480,0.4097635746002197,-1.2346467971801758,-12.0,55.0,0.2846488952636719,0.10089540481567383,0,0,0,40000
1517490,0.39616820216178894,-1.2090338468551636,-24.0,20.0,0.16748762130737305,0.17040014266967773,0,0,0,40000
1517500,0.3919471204280853,-1.209764003753662,-18.0,-10.0,0.20811796188354492,0.18395280838012695,0,0,0,40000
1517510,0.39326217770576477,-1.231542706489563,5.0,-19.0,0.37548255920410156,0.16438508033752441,0,0,0,40000
1517520,0.39649128913879395,-1.2325706481933594,-3.0,-1.0,0.41861486434936523,0.13315439224243164,0,0,0,40000
1517530,0.39512577652931213,-1.2448170185089111,0.0,-47.0,0.529181957244873,0.12948393821716309,0,0,0,40000
1517540,0.3948887884616852,-1.2609933614730835,13.0,-18.0,0.6639080047607422,0.1190638542175293,0,0,0,40000
1517550,0.3975464403629303,-1.2704390287399292,0.0,6.0,0.7586774826049805,0.09119939804077148,0,0,0,40000
1517560,0.403216689825058,-1.2649651765823364,25.0,7.0,0.7638397216796875,0.04515504837036133,0,0,0,40000
1517570,0.4247943162918091,-1.274699330329895,43.0,-24.0,0.860285758972168,-0.09674429893493652,0,0,0,40000
1517580,0.4388352036476135,-1.278542160987854,17.0,25.0,0.9216651916503906,-0.19403600692749023,0,0,0,40000
1517590,0.46590518951416016,-1.2525581121444702,33.0,42.0,0.8036966323852539,-0.3700263500213623,0,0,0,40000
1517600,0.47897660732269287,-1.2291032075881958,10.0,69.0,0.7001175880432129,-0.46268343925476074,0,0,0,40000
1517610,0.4940425455570221,-1.1732094287872314,10.0,65.0,0.4006032943725586,-0.5677061080932617,0,0,0,40000
1517620,0.49290087819099426,-1.1413547992706299,20.0,56.0,0.2440967559814453,-0.5756545066833496,0,0,0,40000
1517630,0.5155408382415771,-1.098736047744751,28.0,49.0,0.021834850311279297,-0.7266824245452881,0,0,0,40000
1517640,0.5318307280540466,-1.0884190797805786,24.0,18.0,-0.007294654846191406,-0.8401784896850586,0,0,0,40000
1517650,0.5513651967048645,-1.0916441679000854,19.0,-17.0,0.04471874237060547,-0.9736990928649902,0,0,0,40000
1517660,0.5543946623802185,-1.107442855834961,12.0,-32.0,0.17252683639526367,-1.0084881782531738,0,0,0,40000
1517670,0.575455904006958,-1.1173477172851562,16.0,-27.0,0.2653646469116211,-1.1519091129302979,0,0,0,40000
1517680,0.5838895440101624,-1.134416103363037,17.0,-31.0,0.4015789031982422,-1.2199325561523438,0,0,0,40000
1517690,0.5979393124580383,-1.157799482345581,14.0,-43.0,0.5763230323791504,-1.3220019340515137,0,0,0,40000
1517700,0.604236900806427,-1.1670244932174683,14.0,-43.0,0.6665658950805664,-1.3778610229492188,0,0,0,40000
1517710,0.6027641296386719,-1.1899242401123047,-17.0,-16.0,0.8394956588745117,-1.3872265815734863,0,0,0,40000
1517720,0.6005005240440369,-1.2110768556594849,-26.0,-44.0,1.0024819374084473,-1.391676902770996,0,0,0,40000
1517730,0.5809341073036194,-1.2525856494903564,-11.0,-53.0,1.288647174835205,-1.2918848991394043,0,0,0,40000
1517740,0.5689318776130676,-1.2731391191482544,-57.0,-37.0,1.4499359130859375,-1.2371149063110352,0,0,0,40000
1517750,0.527380645275116,-1.300784707069397,-44.0,-29.0,1.654524803161621,-1.004094123840332,0,0,0,40000
1517760,0.514926552772522,-1.3067784309387207,-51.0,-29.0,1.7296085357666016,-0.9450037479400635,0,0,0,40000
1517770,0.48591190576553345,-1.3115547895431519,-49.0,18.0,1.797694206237793,-0.7858476638793945,0,0,0,40000
1517780,0.4727438688278198,-1.301612138748169,-42.0,25.0,1.7772130966186523,-0.7211623191833496,0,0,0,40000
1517790,0.44451257586479187,-1.2798678874969482,-28.0,43.0,1.6854491233825684,-0.5654177665710449,0,0,0,40000
1517800,0.4231492280960083,-1.2611371278762817,-34.0,34.0,1.6111245155334473,-0.4502131938934326,0,0,0,40000
1517810,0.40300554037094116,-1.2519670724868774,-29.0,0.0,1.5936813354492188,-0.34168481826782227,0,0,0,40000
1517820,0.3934931457042694,-1.2574703693389893,-22.0,-42.0,1.6643342971801758,-0.29650282859802246,0,0,0,40000
1517830,0.3876431882381439,-1.2773634195327759,10.0,-24.0,1.8218164443969727,-0.27295756340026855,0,0,0,40000
1517840,0.3700110614299774,-1.2837419509887695,-10.0,6.0,1.898569107055664,-0.17849087715148926,0,0,0,40000
1517850,0.3561839461326599,-1.2714989185333252,-11.0,27.0,1.8634185791015625,-0.10639190673828125,0,0,0,40000
1517860,0.35213199257850647,-1.2535160779953003,15.0,41.0,1.7933835983276367,-0.09269595146179199,0,0,0,40000
1517870,0.35023972392082214,-1.2112611532211304,-2.0,66.0,1.5767297744750977,-0.09192371368408203,0,0,0,40000
1517880,0.35535895824432373,-1.1683309078216553,4.0,90.0,1.3547368049621582,-0.13321459293365479,0,0,0,40000
1517890,0.35315513610839844,-1.1034435033798218,-18.0,68.0,0.9992589950561523,-0.13064539432525635,0,0,0,40000
1517900,0.3503672182559967,-1.0788686275482178,9.0,19.0,0.8844542503356934,-0.12443220615386963,0,0,0,40000
1517910,0.34538817405700684,-1.0692970752716064,0.0,-5.0,0.8591465950012207,-0.10504913330078125,0,0,0,40000
1517920,0.33339929580688477,-1.0741074085235596,-17.0,-12.0,0.9201712608337402,-0.04329121112823486,0,0,0,40000
1517930,0.3109731376171112,-1.0910370349884033,-46.0,-28.0,1.0542106628417969,0.081573486328125,0,0,0,40000
1517940,0.29614660143852234,-1.1055214405059814,-46.0,-30.0,1.1741118431091309,0.16149353981018066,0,0,0,40000
1517950,0.26961371302604675,-1.1096837520599365,-45.0,12.0,1.2324118614196777,0.31230974197387695,0,0,0,40000
1517960,0.2475760281085968,-1.1092833280563354,-27.0,14.0,1.2632908821105957,0.4368547201156616,0,0,0,40000
1517970,0.22464485466480255,-1.0761007070541382,-39.0,30.0,1.096959114074707,0.5674093961715698,0,0,0,40000
1517980,0.21460199356079102,-1.0557138919830322,-35.0,53.0,1.0065655708312988,0.6210983991622925,0,0,0,40000
1517990,0.19712629914283752,-1.008307933807373,-38.0,80.0,0.7530174255371094,0.7197777032852173,0,0,0,40000
1518000,0.17833107709884644,-0.9732378125190735,-43.0,145.0,0.5722541809082031,0.8269879817962646,0,0,0,40000
1518010,0.14618469774723053,-0.8660409450531006,-41.0,173.0,-0.04359292984008789,1.015076994895935,0,0,0,40000
1518020,0.12259882688522339,-0.7810862064361572,-50.0,201.0,-0.5288758277893066,1.1526285409927368,0,0,0,40000
1518030,0.09793746471405029,-0.6424163579940796,-53.0,190.0,-1.3399879932403564,1.2973383665084839,0,0,0,40000
1518040,0.07568453997373581,-0.5644884705543518,-45.0,141.0,-1.7897210121154785,1.4283497333526611,0,0,0,40000
1518050,0.051614947617053986,-0.4799593389034271,-36.0,98.0,-2.2815451622009277,1.5709714889526367,0,0,0,40000
1518060,0.03167862817645073,-0.45252376794815063,-34.0,30.0,-2.4322967529296875,1.6894118785858154,0,0,0,40000
1518070,0.0040540243498981,-0.44684284925460815,-37.0,-20.0,-2.4530320167541504,1.854689121246338,0,0,0,40000
1518080,-0.006392208393663168,-0.46756502985954285,-23.0,-85.0,-2.314966917037964,1.91741943359375,0,0,0,40000
1518090,-0.02455408126115799,-0.5344918370246887,-43.0,-98.0,-1.8982000350952148,2.0268380641937256,0,0,0,40000
1518100,-0.0341990664601326,-0.5830119252204895,-11.0,-98.0,-1.5901703834533691,2.0856335163116455,0,0,0,40000
1518110,-0.03807416930794716,-0.6668534874916077,-4.0,-135.0,-1.068192481994629,2.110020637512207,0,0,0,40000
1518120,-0.031067654490470886,-0.7222909927368164,-8.0,-139.0,-0.7145652770996094,2.068985939025879,0,0,0,40000
1518130,-0.03574364632368088,-0.8015684485435486,-1.0,-89.0,-0.2157115936279297,2.098076105117798,0,0,0,40000
1518140,-0.03494501858949661,-0.8363655209541321,-8.0,-59.0,0.017761707305908203,2.0943028926849365,0,0,0,40000
1518150,-0.03789956867694855,-0.8569476008415222,-17.0,8.0,0.16680097579956055,2.1130640506744385,0,0,0,40000
1518160,-0.03672156110405922,-0.8340011835098267,-10.0,70.0,0.05444192886352539,2.107086658477783,0,0,0,40000
1518170,-0.034259408712387085,-0.7772791981697083,10.0,102.0,-0.26180362701416016,2.0934903621673584,0,0,0,40000
1518180,-0.028224682435393333,-0.7182340621948242,25.0,114.0,-0.5937981605529785,2.0582315921783447,0,0,0,40000
1518190,-0.006129561457782984,-0.647704541683197,17.0,86.0,-0.9967660903930664,1.9260610342025757,0,0,0,40000
1518200,0.003310580737888813,-0.6155381798744202,9.0,30.0,-1.1709561347961426,1.8694133758544922,0,0,0,40000
1518210,0.008905320428311825,-0.6194020509719849,-9.0,-9.0,-1.129303216934204,1.8356484174728394,0,0,0,40000
1518220,0.014219817705452442,-0.6333543658256531,8.0,-71.0,-1.0268402099609375,1.8034018278121948,0,0,0,40000
1518230,0.029701653867959976,-0.6882261037826538,17.0,-70.0,-0.6776447296142578,1.7098175287246704,0,0,0,40000
1518240,0.04163341224193573,-0.7203404307365417,13.0,-64.0,-0.4637289047241211,1.637144684791565,0,0,0,40000
1518250,0.051363397389650345,-0.7706515192985535,0.0,-66.0,-0.1393446922302246,1.5773365497589111,0,0,0,40000
1518260,0.05701328068971634,-0.7843968272209167,21.0,-40.0,-0.033481597900390625,1.5418205261230469,0,0,0,40000
1518270,0.06625363975763321,-0.7986838817596436,24.0,-3.0,0.07615470886230469,1.484503149986267,0,0,0,40000
1518280,0.07772605866193771,-0.799612283706665,9.0,-10.0,0.1056661605834961,1.4134337902069092,0,0,0,40000
1518290,0.08900956064462662,-0.7924472689628601,15.0,44.0,0.08673620223999023,1.3432540893554688,0,0,0,40000
1518300,0.08825983852148056,-0.7751368880271912,0.0,48.0,0.006332874298095703,1.3450754880905151,0,0,0,40000
1518310,0.09057413786649704,-0.7381432056427002,-2.0,66.0,-0.19298744201660156,1.328460454940796,0,0,0,40000
1518320,0.09048008173704147,-0.7287359237670898,-6.0,42.0,-0.22745513916015625,1.3263137340545654,0,0,0,40000
1518330,0.08473454415798187,-0.7027332782745361,-8.0,31.0,-0.3620796203613281,1.358188271522522,0,0,0,40000
1518340,0.08179678022861481,-0.6878825426101685,-15.0,31.0,-0.43036842346191406,1.3733305931091309,0,0,0,40000
1518350,0.07481904327869415,-0.6669150590896606,-30.0,50.0,-0.5358595848083496,1.4127779006958008,0,0,0,40000
1518360,0.06974966078996658,-0.6456302404403687,-12.0,55.0,-0.6439797878265381,1.441070795059204,0,0,0,40000
1518370,0.053146976977586746,-0.6031183004379272,-28.0,66.0,-0.8803884983062744,1.5388888120651245,0,0,0,40000
1518380,0.03546224161982536,-0.5753701329231262,-28.0,48.0,-1.0293045043945312,1.6437228918075562,0,0,0,40000
1518390,0.014558781869709492,-0.5581539869308472,-30.0,23.0,-1.1157124042510986,1.7684364318847656,0,0,0,40000
1518400,-0.00047734883264638484,-0.5530341267585754,-42.0,17.0,-1.1297836303710938,1.8584728240966797,0,0,0,40000
1518410,-0.02404746599495411,-0.5427539944648743,-29.0,8.0,-1.175065040588379,2.0003178119659424,0,0,0,40000
1518420,-0.04423009976744652,-0.5377205014228821,-29.0,5.0,-1.1890754699707031,2.122515916824341,0,0,0,40000
1518430,-0.06467271596193314,-0.5400206446647644,-20.0,-13.0,-1.1591496467590332,2.246919870376587,0,0,0,40000
1518440,-0.07559216022491455,-0.5596373677253723,-29.0,-55.0,-1.0249238014221191,2.3145651817321777,0,0,0,40000
1518450,-0.08955158293247223,-0.6101200580596924,-5.0,-75.0,-0.7043471336364746,2.400930881500244,0,0,0,40000
1518460,-0.09696337580680847,-0.6371926665306091,-19.0,-58.0,-0.5231051445007324,2.4482240676879883,0,0,0,40000
1518470,-0.11398184299468994,-0.677146852016449,-29.0,-47.0,-0.26346540451049805,2.553537130355835,0,0,0,40000
1518480,-0.11734849214553833,-0.6851287484169006,-18.0,-22.0,-0.19510841369628906,2.5772271156311035,0,0,0,40000
1518490,-0.11986437439918518,-0.7138466238975525,20.0,-44.0,-0.0017380714416503906,2.5960073471069336,0,0,0,40000
1518500,-0.11929216980934143,-0.7254831194877625,25.0,-37.0,0.08970403671264648,2.5961763858795166,0,0,0,40000
1518510,-0.11183343827724457,-0.7315071821212769,8.0,0.0,0.14779901504516602,2.55484676361084,0,0,0,40000
1518520,-0.10356704890727997,-0.7228321433067322,-4.0,25.0,0.1175088882446289,2.5084099769592285,0,0,0,40000
1518530,-0.08683804422616959,-0.6807097792625427,10.0,78.0,-0.11414575576782227,2.4108641147613525,0,0,0,40000
1518540,-0.07593224197626114,-0.6314018964767456,33.0,121.0,-0.3904407024383545,2.347872734069824,0,0,0,40000
1518550,-0.06294313073158264,-0.5395323634147644,38.0,146.0,-0.9243087768554688,2.271998882293701,0,0,0,40000
1518560,-0.0526498481631279,-0.4657820165157318,23.0,168.0,-1.351935863494873,2.2119393348693848,0,0,0,40000
1518570,-0.02672642096877098,-0.33588874340057373,44.0,188.0,-2.1196048259735107,2.057588815689087,0,0,0,40000
1518580,-0.008411621674895287,-0.26251423358917236,36.0,160.0,-2.551112413406372,1.948164463043213,0,0,0,40000
1518590,0.015514068305492401,-0.17315182089805603,13.0,109.0,-3.0810790061950684,1.8043285608291626,0,0,0,40000
1518600,0.030025700107216835,-0.13478879630565643,25.0,65.0,-3.306790590286255,1.716538429260254,0,0,0,40000
1518610,0.04548429325222969,-0.09315597265958786,15.0,29.0,-3.553393602371216,1.6225810050964355,0,0,0,40000
1518620,0.051838625222444534,-0.08854662626981735,5.0,-10.0,-3.5783779621124268,1.582993984222412,0,0,0,40000
1518630,0.0556616447865963,-0.12040489912033081,10.0,-48.0,-3.3840408325195312,1.5584466457366943,0,0,0,40000
1518640,0.051407601684331894,-0.14883290231227875,5.0,-53.0,-3.209357738494873,1.5824073553085327,0,0,0,40000
1518650,0.03545113280415535,-0.16444610059261322,-8.0,-5.0,-3.1108040809631348,1.6769130229949951,0,0,0,40000
1518660,0.028712483122944832,-0.16584715247154236,-38.0,18.0,-3.0974159240722656,1.7163681983947754,0,0,0,40000
1518670,0.00859616044908762,-0.14087888598442078,-30.0,34.0,-3.2426698207855225,1.8365583419799805,0,0,0,40000
1518680,-0.003922273870557547,-0.12603595852851868,-41.0,56.0,-3.327744245529175,1.9116361141204834,0,0,0,40000
1518690,-0.029128488153219223,-0.12046682834625244,-37.0,0.0,-3.3575260639190674,2.063444137573242,0,0,0,40000
1518700,-0.04940230771899223,-0.12951482832431793,-21.0,-25.0,-3.299466609954834,2.186352014541626,0,0,0,40000
1518710,-0.07109738886356354,-0.1461845189332962,-33.0,-24.0,-3.1952409744262695,2.318398952484131,0,0,0,40000
1518720,-0.08228394389152527,-0.1571607142686844,-51.0,-8.0,-3.12480092048645,2.3878345489501953,0,0,0,40000
1518730,-0.10474091023206711,-0.1782151460647583,-41.0,-56.0,-2.9935190677642822,2.525477886199951,0,0,0,40000
1518740,-0.11277323961257935,-0.2087511271238327,-27.0,-71.0,-2.8044114112854004,2.5769753456115723,0,0,0,40000
1518750,-0.13143806159496307,-0.2627696990966797,5.0,-64.0,-2.47298002243042,2.6928482055664062,0,0,0,40000
1518760,-0.13744030892848969,-0.29146426916122437,15.0,-63.0,-2.292428493499756,2.7329294681549072,0,0,0,40000
1518770,-0.1327361911535263,-0.32474789023399353,0.0,-36.0,-2.0833206176757812,2.70867919921875,0,0,0,40000
1518780,-0.12297176569700241,-0.33837276697158813,-7.0,-28.0,-1.9915900230407715,2.6538665294647217,0,0,0,40000
1518790,-0.10635831952095032,-0.37461423873901367,21.0,-63.0,-1.7633881568908691,2.5576326847076416,0,0,0,40000
1518800,-0.09636349976062775,-0.4073615074157715,32.0,-59.0,-1.5550761222839355,2.5006814002990723,0,0,0,40000
1518810,-0.08182082325220108,-0.4271824359893799,37.0,-22.0,-1.4234843254089355,2.416093349456787,0,0,0,40000
1518820,-0.06678052991628647,-0.4174129068851471,43.0,24.0,-1.469444751739502,2.328036308288574,0,0,0,40000
1518830,-0.0368160754442215,-0.3820532262325287,29.0,49.0,-1.6696746349334717,2.149639844894409,0,0,0,40000
1518840,-0.012140189297497272,-0.3572654128074646,26.0,57.0,-1.8074045181274414,2.002220869064331,0,0,0,40000
1518850,0.024945946410298347,-0.32390251755714417,52.0,47.0,-1.9974780082702637,1.779436469078064,0,0,0,40000
1518860,0.04616386815905571,-0.30802807211875916,58.0,46.0,-2.083282709121704,1.6510097980499268,0,0,0,40000
1518870,0.07998557388782501,-0.2744355797767639,50.0,69.0,-2.276120185852051,1.4460889101028442,0,0,0,40000
1518880,0.10782510042190552,-0.24651896953582764,56.0,50.0,-2.4358999729156494,1.2761270999908447,0,0,0,40000
1518890,0.1465476006269455,-0.2214558869600296,49.0,8.0,-2.5794644355773926,1.0398144721984863,0,0,0,40000
1518900,0.1719992607831955,-0.23150058090686798,38.0,-17.0,-2.512389659881592,0.882225513458252,0,0,0,40000
1518910,0.2151738703250885,-0.2564660310745239,57.0,-34.0,-2.3551924228668213,0.6172683238983154,0,0,0,40000
1518920,0.24013297259807587,-0.2561723291873932,58.0,7.0,-2.349250078201294,0.4606308937072754,0,0,0,40000
1518930,0.270102858543396,-0.2481696456670761,19.0,14.0,-2.389693260192871,0.2729618549346924,0,0,0,40000
1518940,0.28635212779045105,-0.24050305783748627,19.0,7.0,-2.4283971786499023,0.16705286502838135,0,0,0,40000
1518950,0.3026801347732544,-0.25447261333465576,11.0,-40.0,-2.337198495864868,0.06014657020568848,0,0,0,40000
1518960,0.31008031964302063,-0.2892044484615326,2.0,-91.0,-2.1205861568450928,0.006546497344970703,0,0,0,40000
1518970,0.3171795904636383,-0.36142101883888245,14.0,-116.0,-1.6773087978363037,-0.045372724533081055,0,0,0,40000
1518980,0.31881099939346313,-0.41928842663764954,-9.0,-130.0,-1.318241834640503,-0.06471848487854004,0,0,0,40000
1518990,0.30529657006263733,-0.5010243654251099,-26.0,-123.0,-0.8137857913970947,0.007011055946350098,0,0,0,40000
1519000,0.29087942838668823,-0.5587383508682251,-28.0,-111.0,-0.45144152641296387,0.08461260795593262,0,0,0,40000
1519010,0.2716282606124878,-0.6292017698287964,-40.0,-93.0,-0.010596513748168945,0.19168174266815186,0,0,0,40000
1519020,0.25645095109939575,-0.6593929529190063,-37.0,-52.0,0.1900019645690918,0.2748609781265259,0,0,0,40000
1519030,0.22332702577114105,-0.6627243757247925,-67.0,20.0,0.22999358177185059,0.46643590927124023,0,0,0,40000
1519040,0.19693751633167267,-0.6390091180801392,-47.0,67.0,0.10718178749084473,0.618573784828186,0,0,0,40000
1519050,0.1541627198457718,-0.5855363011360168,-53.0,84.0,-0.19541168212890625,0.8700790405273438,0,0,0,40000
1519060,0.12274985760450363,-0.535582959651947,-78.0,109.0,-0.4784572124481201,1.054469108581543,0,0,0,40000
1519070,0.07758805900812149,-0.4622988700866699,-79.0,109.0,-0.9034016132354736,1.322546124458313,0,0,0,40000
1519080,0.05644574761390686,-0.4230852425098419,-71.0,69.0,-1.125535488128662,1.4474642276763916,19.999999272915417,0.005392901142058868,0,40000
1519090,0.016604529693722725,-0.38850441575050354,-34.0,23.0,-1.3535339832305908,122.04566955566406,19.804111624046996,2.7923400191034533,0,40000
1519100,0.0022029837127774954,-0.3939061164855957,5.0,-19.0,-18.081398010253906,121.55303955078125,19.111321542655862,5.895539745707595,0,40000
1519110,0.016679996624588966,-0.4599412977695465,40.0,-139.0,-36.394012451171875,117.8991928100586,19.111321542655862,5.895539745707595,0,40000
1519120,0.06570366024971008,-0.5518478751182556,122.0,-251.0,-50.422523498535156,112.69361877441406,18.199246400975873,8.293818809002685,0,40000
1519130,0.21397826075553894,-0.773184061050415,238.0,-372.0,-62.94176483154297,105.04708099365234,16.984054177996256,10.561340051285537,0,40000
1519140,0.3658025860786438,-0.983722448348999,402.0,-513.0,-74.55633544921875,95.6351089477539,15.485305696187222,12.657223530286236,0,40000
1519150,0.6993112564086914,-1.3839359283447266,540.0,-653.0,-84.08895874023438,83.25581359863281,13.682761205460832,14.58705062013346,0,40000
1519160,0.992396354675293,-1.7308603525161743,695.0,-858.0,-92.25273132324219,69.91224670410156,11.68986339389609,16.22797257306187,0,40000
1519170,1.5521588325500488,-2.4083635807037354,870.0,-1113.0,-88.61109161376953,66.8648910522461,9.279212082303841,17.71711667093792,0,40000
1519180,2.000483512878418,-2.981353998184204,1023.0,-1337.0,-94.5571060180664,49.93489074707031,6.944497239086553,18.75563803490351,0,40000
1519190,2.7578275203704834,-4.014355182647705,1142.0,-1615.0,-95.04545593261719,31.51749610900879,4.490934977588669,19.48926635425435,0,40000
1519200,3.309697151184082,-4.809645652770996,1245.0,-1816.0,-95.12550354003906,13.527027130126953,1.9574207886680668,19.90398211052477,0,40000
1519210,4.197201728820801,-6.117933750152588,1285.0,-1987.0,-90.19374084472656,-7.055572509765625,-0.6065484471252508,19.990800358697246,0,40000
1519220,4.810036659240723,-7.03337287902832,1301.0,-2041.0,-85.62173461914062,-26.271530151367188,-3.1611885718594173,19.748592021031406,0,40000
1519230,5.712259292602539,-8.423200607299805,1243.0,-2035.0,-76.18586730957031,-47.268157958984375,-5.6718338554467715,19.17890248987694,0,40000
1519240,6.2808661460876465,-9.32319164276123,1164.0,-1953.0,-67.67420196533203,-66.09547424316406,-8.08400445080506,18.29341061801664,0,40000
1519250,7.0646257400512695,-10.562889099121094,1000.0,-1777.0,-55.17478942871094,-85.70201110839844,-10.358737342251736,17.108376915249426,0,40000
1519260,7.523646354675293,-11.291583061218262,816.0,-1528.0,-43.882667541503906,-102.6219482421875,-12.46296169898721,15.642077409653037,0,40000
1519270,8.044316291809082,-12.183440208435059,583.0,-1237.0,-29.856401443481445,-118.96813201904297,-14.354438760424443,13.926596420993334,0,40000
1519280,8.268717765808105,-12.642183303833008,357.0,-902.0,-16.865184783935547,-132.3281707763672,-16.02132053585474,11.971519882095139,0,40000
1519290,8.386425018310547,-12.987130165100098,67.0,-588.0,-3.0543270111083984,-143.6109619140625,-17.434574203117357,9.799776648270857,0,40000
1519300,8.335899353027344,-13.277253150939941,-266.0,-238.0,11.79244613647461,-152.54490661621094,-18.547497126581053,7.482670000706139,0,40000
1519310,7.979833602905273,-13.26291561126709,-654.0,184.0,25.790462493896484,-158.03494262695312,-19.353521138246418,5.043928979619859,0,40000
1519320,7.577194690704346,-13.089993476867676,-945.0,525.0,39.566123962402344,-161.10177612304688,-19.840675538453148,2.5194432277443557,0,40000
1519330,7.0245866775512695,-12.802473068237305,-1314.0,848.0,53.269737243652344,-161.5159912109375,-19.999939200589395,-0.049315035513395875,0,40000
1519340,5.932010173797607,-12.158977508544922,-1640.0,1136.0,65.14966583251953,-156.70506286621094,-19.828699031363485,-2.6120288519855266,0,40000
1519350,5.039007663726807,-11.612898826599121,-2004.0,1319.0,77.63676452636719,-151.07968139648438,-19.330396578461965,-5.131838668487738,0,40000
1519360,3.468764305114746,-10.674551010131836,-2350.0,1493.0,87.56603240966797,-139.38095092773438,-18.512639285930987,-7.568499631301081,0,40000
1519370,2.2869932651519775,-9.980234146118164,-2641.0,1575.0,98.51107788085938,-128.0368194580078,-18.512639285930987,-7.568499631301081,0,40000
1519380,0.34140804409980774,-8.877385139465332,-2873.0,1651.0,106.5678939819336,-110.0434799194336,-17.362260717609786,-9.927331100237572,0,40000
1519390,-1.0693787336349487,-8.10378646850586,-3090.0,1733.0,115.47614288330078,-93.48702239990234,-15.93076887323834,-12.091757651700616,0,40000
1519400,-3.2942943572998047,-6.905339241027832,-3237.0,1744.0,120.50405883789062,-70.47738647460938,-14.256408583101894,-14.026931749732675,0,40000
1519410,-4.822958469390869,-6.082733154296875,-3375.0,1795.0,126.48350524902344,-50.07444381713867,-12.336256864690103,-15.742197005767215,0,40000
1519420,-7.153850555419922,-4.795120716094971,-3389.0,1902.0,128.12591552734375,-23.509994506835938,-10.211298249505688,-17.196784236003023,0,40000
1519430,-8.698134422302246,-3.892625570297241,-3364.0,2021.0,130.3702392578125,-0.5481109619140625,-7.920246277240932,-18.364903999418324,0,40000
1519440,-10.98133373260498,-2.4610774517059326,-3274.0,2138.0,127.7021713256836,28.0679931640625,-5.447353596661008,-19.243864965046505,0,40000
1519450,-12.470439910888672,-1.467739462852478,-3195.0,2282.0,125.60856628417969,52.23224639892578,-2.943737152019092,-19.782174086278346,0,40000
