timestamp,stabilizer.roll,stabilizer.pitch,stateEstimateZ.rateRoll,stateEstimateZ.ratePitch,controller.pitchRate,controller.rollRate,roll,pitch,yawdot,thrust
1311687,-42.404815673828125,64.64868927001953,4.0,-14.0,-390.99517822265625,256.4639587402344,0,0,0,40000
1311697,-42.42229080200195,64.62399291992188,9.0,-32.0,-392.78607177734375,257.84130859375,0,0,0,40000
1311707,-42.429595947265625,64.5880126953125,-48.0,-100.0,-394.50830078125,259.1579895019531,0,0,0,40000
1311717,-42.356563568115234,64.4781494140625,-11.0,-213.0,-395.7850646972656,259.991943359375,0,0,0,40000
1311727,-42.177894592285156,64.3305435180664,15.0,-512.0,-396.8312683105469,260.18768310546875,0,0,0,40000
1311737,-41.59307098388672,63.95808029174805,8.0,-819.0,-396.5200500488281,257.9344177246094,0,0,0,40000
1311747,-40.96709060668945,63.5786247253418,81.0,-1389.0,-396.15545654296875,255.4154510498047,0,0,0,40000
1311757,-39.521141052246094,62.70547103881836,19.0,-1980.0,-392.80914306640625,247.94400024414062,0,0,0,40000
1311767,-38.21076583862305,61.88628005981445,22.0,-2693.0,-389.7607727050781,241.2441864013672,0,0,0,40000
1311777,-35.78036880493164,60.21479415893555,99.0,-3520.0,-381.5599365234375,227.76597595214844,0,0,0,40000
1311787,-33.91358184814453,58.76823806762695,138.0,-4426.0,-374.6614074707031,217.6053009033203,0,0,0,40000
1311797,-30.80024528503418,55.99976348876953,179.0,-5382.0,-359.76568603515625,199.88729858398438,0,0,0,40000
1311807,-28.634296417236328,53.727298736572266,247.0,-6346.0,-347.7703857421875,187.77676391601562,0,0,0,40000
1311817,-25.430362701416016,49.69636917114258,385.0,-7272.0,-325.1260986328125,169.3544921875,0,0,0,40000
1311827,-23.396820068359375,46.6083869934082,549.0,-7980.0,-308.033935546875,157.87940979003906,0,0,0,40000
1311837,-20.551780700683594,41.52531433105469,686.0,-8521.0,-278.8434753417969,141.45887756347656,0,0,0,40000
1311847,-18.815244674682617,37.90766525268555,879.0,-8825.0,-258.3183898925781,131.62466430664062,0,0,0,40000
1311857,-16.431163787841797,32.31566619873047,1156.0,-8784.0,-225.80316162109375,117.84100341796875,0,0,0,40000
1311867,-14.961601257324219,28.584054946899414,1495.0,-8564.0,-204.31573486328125,109.49008178710938,0,0,0,40000
1311877,-12.881180763244629,23.160991668701172,1822.0,-8130.0,-172.5365753173828,97.41868591308594,0,0,0,40000
1311887,-11.52936840057373,19.75708770751953,2072.0,-7471.0,-152.746337890625,89.66976928710938,0,0,0,40000
1311897,-9.526951789855957,15.151121139526367,2344.0,-6576.0,-125.61851501464844,77.9649658203125,0,0,0,40000
1311907,-8.174981117248535,12.485228538513184,2625.0,-5453.0,-110.0291748046875,70.11466979980469,0,0,0,40000
1311917,-6.132602691650391,9.250109672546387,2839.0,-4232.0,-90.93222045898438,58.06908416748047,0,0,0,40000
1311927,-4.751452445983887,7.645857810974121,2973.0,-2880.0,-81.55462646484375,49.941322326660156,0,0,0,40000
1311937,-2.62965989112854,6.169976711273193,3047.0,-1526.0,-72.89921569824219,37.3149299621582,0,0,0,40000
1311947,-1.2016619443893433,5.760146141052246,3053.0,-321.0,-70.61729431152344,28.800113677978516,0,0,0,40000
1311957,0.9110986590385437,5.869487762451172,3004.0,615.0,-71.446044921875,16.121414184570312,0,0,0,40000
1311967,2.2948648929595947,6.318265914916992,2923.0,1332.0,-74.32249450683594,7.766544342041016,0,0,0,40000
1311977,4.290537357330322,7.378937244415283,2785.0,1791.0,-80.8941650390625,-4.31254768371582,0,0,0,40000
1311987,5.557290554046631,8.246697425842285,2634.0,2041.0,-86.33760833740234,-12.064657211303711,0,0,0,40000
1311997,7.348354339599609,9.666156768798828,2431.0,2164.0,-95.12710571289062,-23.010398864746094,0,0,0,40000
1312007,8.463430404663086,10.628756523132324,2195.0,2133.0,-101.21003723144531,-29.941511154174805,0,0,0,40000
1312017,9.983510971069336,11.987950325012207,1930.0,2005.0,-109.7088623046875,-39.34382247924805,0,0,0,40000
1312027,10.891674041748047,12.797540664672852,1679.0,1719.0,-114.9407958984375,-45.10878372192383,0,0,0,40000
1312037,12.057404518127441,13.774016380310059,1402.0,1334.0,-121.20195007324219,-52.45153045654297,0,0,0,40000
1312047,12.685834884643555,14.230304718017578,1127.0,829.0,-124.36137390136719,-56.595314025878906,0,0,0,40000
1312057,13.411184310913086,14.542582511901855,805.0,230.0,-126.66886901855469,-61.341896057128906,0,0,0,40000
1312067,13.74632740020752,14.469741821289062,542.0,-465.0,-126.66712951660156,-63.76133346557617,0,0,0,40000
1312077,14.009261131286621,13.895081520080566,243.0,-1206.0,-123.64445495605469,-65.75675964355469,0,0,0,40000
1312087,14.032326698303223,13.16250991821289,-13.0,-2010.0,-119.65312957763672,-66.31599426269531,0,0,0,40000
1312097,13.85267448425293,11.562955856323242,-289.0,-2746.0,-110.42341613769531,-65.65648651123047,0,0,0,40000
1312107,13.594686508178711,10.205819129943848,-525.0,-3319.0,-102.60336303710938,-64.5196304321289,0,0,0,40000
1312117,13.012612342834473,7.8721232414245605,-897.0,-3679.0,-88.86613464355469,-61.42531204223633,0,0,0,40000
1312127,12.498662948608398,6.2166218757629395,-1050.0,-3790.0,-79.13955688476562,-58.72271728515625,0,0,0,40000
1312137,11.649925231933594,3.7158288955688477,-1259.0,-3706.0,-64.27606964111328,-53.99033737182617,0,0,0,40000
1312147,11.006067276000977,2.117860794067383,-1456.0,-3409.0,-54.77082824707031,-50.46520233154297,0,0,0,40000
1312157,9.949584007263184,-0.03054453246295452,-1608.0,-2937.0,-41.90431594848633,-44.43772888183594,0,0,0,40000
1312167,9.195155143737793,-1.2353103160858154,-1725.0,-2406.0,-34.65283203125,-40.19613265991211,0,0,0,40000
1312177,7.977283000946045,-2.6694977283477783,-1807.0,-1774.0,-25.98348617553711,-33.14299011230469,0,0,0,40000
1312187,7.137544631958008,-3.3401105403900146,-1835.0,-1147.0,-21.867319107055664,-28.32878303527832,0,0,0,40000
1312197,5.865227699279785,-3.9417409896850586,-1836.0,-609.0,-18.145353317260742,-20.886150360107422,0,0,0,40000
1312207,5.02234411239624,-4.111169815063477,-1785.0,-115.0,-17.0072021484375,-15.98961067199707,0,0,0,40000
1312217,3.8155975341796875,-4.081419944763184,-1686.0,231.0,-17.062131881713867,-8.877904891967773,0,0,0,40000
1312227,3.0520293712615967,-3.9351346492767334,-1613.0,403.0,-17.81992530822754,-4.397192001342773,0,0,0,40000
1312237,1.9839781522750854,-3.642868757247925,-1495.0,469.0,-19.46054458618164,1.9390478134155273,0,0,0,40000
1312247,1.337004542350769,-3.4270873069763184,-1314.0,463.0,-20.64984130859375,5.773129463195801,0,0,0,40000
1312257,0.4878765940666199,-3.1504828929901123,-1140.0,336.0,-22.21186065673828,10.843429565429688,0,0,0,40000
1312267,-0.008627883158624172,-3.0449461936950684,-995.0,113.0,-22.75259780883789,13.816848754882812,0,0,0,40000
1312277,-0.6305075883865356,-3.0514707565307617,-801.0,-151.0,-22.6225643157959,17.560007095336914,0,0,0,40000
1312287,-0.9475096464157104,-3.1742165088653564,-616.0,-400.0,-21.792491912841797,19.48675537109375,0,0,0,40000
1312297,-1.2843323945999146,-3.525277853012085,-397.0,-615.0,-19.58503532409668,21.542713165283203,0,0,0,40000
1312307,-1.4215800762176514,-3.8623054027557373,-168.0,-796.0,-17.451175689697266,22.4073429107666,0,0,0,40000
1312317,-1.4750101566314697,-4.470045566558838,33.0,-966.0,-13.678237915039062,22.771869659423828,0,0,0,40000
1312327,-1.432132363319397,-4.928579330444336,197.0,-1017.0,-10.784732818603516,22.558120727539062,0,0,0,40000
1312337,-1.2385032176971436,-5.628281116485596,353.0,-1000.0,-6.425994873046875,21.436086654663086,0,0,0,40000
1312347,-1.0286340713500977,-6.074460506439209,513.0,-931.0,-3.5720138549804688,20.21031951904297,0,0,0,40000
1312357,-0.6140519976615906,-6.657623291015625,673.0,-798.0,0.12001800537109375,17.74660873413086,0,0,0,40000
1312367,-0.2813270092010498,-6.97449254989624,771.0,-587.0,2.2267532348632812,15.762767791748047,0,0,0,40000
1312377,0.28667929768562317,-7.3088459968566895,866.0,-373.0,4.448631286621094,12.353086471557617,0,0,0,40000
1312387,0.7004489898681641,-7.432679653167725,891.0,-154.0,5.413234710693359,9.854436874389648,0,0,0,40000
1312397,1.3608028888702393,-7.468608379364014,981.0,49.0,5.8528900146484375,5.859626770019531,0,0,0,40000
1312407,1.808043360710144,-7.410580158233643,975.0,192.0,5.727825164794922,3.1273202896118164,0,0,0,40000
1312417,2.496553897857666,-7.2365827560424805,973.0,281.0,4.903228759765625,-1.0703401565551758,0,0,0,40000
1312427,2.941826820373535,-7.090400218963623,932.0,349.0,4.240627288818359,-3.824909210205078,0,0,0,40000
1312437,3.5760488510131836,-6.864504337310791,885.0,308.0,3.0937652587890625,-7.730049133300781,0,0,0,40000
1312447,3.977511405944824,-6.7342119216918945,811.0,232.0,2.515544891357422,-10.253377914428711,0,0,0,40000
1312457,4.533873081207275,-6.605874061584473,750.0,129.0,1.94500732421875,-13.72100830078125,0,0,0,40000
1312467,4.861416339874268,-6.5918073654174805,651.0,-28.0,2.0584068298339844,-15.828226089477539,0,0,0,40000
1312477,5.267204761505127,-6.653173923492432,557.0,-137.0,2.6252059936523438,-18.416309356689453,0,0,0,40000
1312487,5.493834972381592,-6.748868465423584,457.0,-228.0,3.400634765625,-19.9382381439209,0,0,0,40000
1312497,5.7557244300842285,-6.939175605773926,342.0,-319.0,4.748157501220703,-21.679336547851562,0,0,0,40000
1312507,5.882057189941406,-7.099088191986084,192.0,-369.0,5.9186553955078125,-22.612394332885742,0,0,0,40000
1312517,5.968669414520264,-7.3719706535339355,59.0,-427.0,7.773681640625,-23.31037712097168,0,0,0,40000
1312527,5.978034973144531,-7.562105178833008,-33.0,-391.0,9.139102935791016,-23.545833587646484,0,0,0,40000
1312537,5.887346267700195,-7.809484958648682,-168.0,-314.0,10.85491943359375,-23.179668426513672,0,0,0,40000
1312547,5.781957626342773,-7.942298412322998,-261.0,-243.0,11.888519287109375,-22.722118377685547,0,0,0,40000
1312557,5.559573650360107,-8.06438159942627,-357.0,-139.0,12.861709594726562,-21.55752182006836,0,0,0,40000
1312567,5.3705830574035645,-8.120279312133789,-440.0,-68.0,13.440074920654297,-20.587011337280273,0,0,0,40000
1312577,5.035696029663086,-8.13852310180664,-487.0,9.0,13.793663024902344,-18.732864379882812,0,0,0,40000
1312587,4.791319847106934,-8.131352424621582,-544.0,32.0,13.994674682617188,-17.413288116455078,0,0,0,40000
1312597,4.3902201652526855,-8.094112396240234,-578.0,71.0,14.014591217041016,-15.143294334411621,0,0,0,40000
1312607,4.105396747589111,-8.063362121582031,-606.0,105.0,14.0723876953125,-13.560954093933105,0,0,0,40000
1312617,3.6569621562957764,-8.003195762634277,-619.0,129.0,13.952308654785156,-10.985406875610352,0,0,0,40000
1312627,3.35815691947937,-7.940649509429932,-645.0,132.0,13.815975189208984,-9.296916961669922,0,0,0,40000
1312637,2.9118192195892334,-7.863607406616211,-613.0,118.0,13.59054946899414,-6.711518287658691,0,0,0,40000
1312647,2.6263058185577393,-7.817455291748047,-587.0,104.0,13.5487060546875,-5.080602645874023,0,0,0,40000
1312657,2.224879026412964,-7.759269714355469,-560.0,66.0,13.432975769042969,-2.7435293197631836,0,0,0,40000
1312667,1.9804985523223877,-7.735671520233154,-506.0,43.0,13.523731231689453,-1.3395881652832031,0,0,0,40000
1312677,1.647039532661438,-7.719501972198486,-455.0,12.0,13.658443450927734,0.6078214645385742,0,0,0,40000
1312687,1.4549682140350342,-7.720410346984863,-380.0,6.0,13.895462036132812,1.7143335342407227,0,0,0,40000
1312697,1.2205969095230103,-7.729456424713135,-307.0,-22.0,14.181472778320312,3.0812835693359375,0,0,0,40000
1312707,1.099241852760315,-7.74558162689209,-221.0,-23.0,14.510385513305664,3.775056838989258,0,0,0,40000
1312717,0.9751376509666443,-7.762331485748291,-149.0,-14.0,14.8436279296875,4.489104747772217,0,0,0,40000
1312727,0.9253017902374268,-7.7597784996032715,-87.0,31.0,15.061147689819336,4.759801387786865,0,0,0,40000
1312737,0.8958344459533691,-7.714147090911865,-30.0,81.0,15.019411087036133,4.909470558166504,0,0,0,40000
1312747,0.908074140548706,-7.674875259399414,56.0,81.0,15.014522552490234,4.808996677398682,0,0,0,40000
1312757,0.9700779914855957,-7.607781887054443,118.0,100.0,14.840995788574219,4.4087982177734375,0,0,0,40000
1312767,1.0404115915298462,-7.5368781089782715,199.0,163.0,14.642557144165039,3.956483840942383,0,0,0,40000
1312777,1.1874372959136963,-7.422645568847656,219.0,183.0,14.181243896484375,3.0405144691467285,0,0,0,40000
1312787,1.3058359622955322,-7.3409104347229,249.0,183.0,13.912036895751953,2.2923598289489746,0,0,0,40000
1312797,1.506644368171692,-7.213352203369141,279.0,190.0,13.36458969116211,1.044778823852539,0,0,0,40000
1312807,1.649704933166504,-7.123195648193359,322.0,195.0,13.038448333740234,0.13868331909179688,0,0,0,40000
1312817,1.874240756034851,-6.994840145111084,328.0,161.0,12.47955322265625,-1.2620697021484375,0,0,0,40000
1312827,2.0203068256378174,-6.917770862579346,337.0,168.0,12.225601196289062,-2.197300910949707,0,0,0,40000
1312837,2.2455291748046875,-6.812278747558594,302.0,138.0,11.798206329345703,-3.613391876220703,0,0,0,40000
1312847,2.3906288146972656,-6.7645463943481445,282.0,93.0,11.715290069580078,-4.553988456726074,0,0,0,40000
1312857,2.5816125869750977,-6.709002494812012,249.0,80.0,11.58393669128418,-5.775111198425293,0,0,0,40000
1312867,2.6997108459472656,-6.67787504196167,239.0,79.0,11.597867965698242,-6.56329345703125,0,0,0,40000
1312877,2.8470284938812256,-6.647773265838623,201.0,45.0,11.617023468017578,-7.530895233154297,0,0,0,40000
1312887,2.923354387283325,-6.635168552398682,161.0,36.0,11.740646362304688,-8.075657844543457,0,0,0,40000
1312897,3.0103867053985596,-6.6252923011779785,98.0,-2.0,11.880178451538086,-8.687286376953125,0,0,0,40000
1312907,3.0493009090423584,-6.6363372802734375,59.0,-17.0,12.145397186279297,-9.011820793151855,0,0,0,40000
1312917,3.0723180770874023,-6.650506973266602,22.0,-1.0,12.42984390258789,-9.241889953613281,0,0,0,40000
1312927,3.0721487998962402,-6.641398906707764,-19.0,26.0,12.574563980102539,-9.333063125610352,0,0,0,40000
1312937,3.0467007160186768,-6.621802806854248,-50.0,22.0,12.655818939208984,-9.272149085998535,0,0,0,40000
1312947,3.005150079727173,-6.59168004989624,-97.0,85.0,12.673234939575195,-9.113525390625,0,0,0,40000
1312957,2.9285762310028076,-6.518853187561035,-128.0,113.0,12.432746887207031,-8.74294376373291,0,0,0,40000
1312967,2.863480806350708,-6.458247661590576,-145.0,155.0,12.263633728027344,-8.43907356262207,0,0,0,40000
1312977,2.7416300773620605,-6.343458652496338,-177.0,182.0,11.76666259765625,-7.791715621948242,0,0,0,40000
1312987,2.6574654579162598,-6.252078533172607,-201.0,200.0,11.407032012939453,-7.367499351501465,0,0,0,40000
1312997,2.521906852722168,-6.122315883636475,-196.0,207.0,10.813716888427734,-6.631401062011719,0,0,0,40000
1313007,2.4246087074279785,-6.028548717498779,-220.0,202.0,10.433088302612305,-6.121526718139648,0,0,0,40000
1313017,2.269026041030884,-5.9026899337768555,-225.0,178.0,9.856487274169922,-5.258005142211914,0,0,0,40000
1313027,2.161550521850586,-5.824252128601074,-221.0,173.0,9.561513900756836,-4.67927360534668,0,0,0,40000
1313037,2.006732225418091,-5.716153144836426,-209.0,152.0,9.085655212402344,-3.8123645782470703,0,0,0,40000
1313047,1.9099498987197876,-5.659390926361084,-192.0,90.0,8.915510177612305,-3.290133476257324,0,0,0,40000
1313057,1.7799679040908813,-5.604902744293213,-178.0,65.0,8.757326126098633,-2.5651588439941406,0,0,0,40000
1313067,1.705189824104309,-5.587215900421143,-155.0,23.0,8.818992614746094,-2.168522834777832,0,0,0,40000
1313077,1.616880178451538,-5.593369483947754,-123.0,-7.0,9.023571014404297,-1.688187599182129,0,0,0,40000
1313087,1.5597816705703735,-5.591399192810059,-94.0,15.0,9.17953872680664,-1.3930692672729492,0,0,0,40000
1313097,1.5029451847076416,-5.5806145668029785,-76.0,44.0,9.282451629638672,-1.0977916717529297,0,0,0,40000
1313107,1.481960415840149,-5.557565212249756,-49.0,59.0,9.31118392944336,-1.0165987014770508,0,0,0,40000
1313117,1.4540865421295166,-5.504477024078369,-26.0,82.0,9.158447265625,-0.8932456970214844,0,0,0,40000
1313127,1.450565218925476,-5.472324848175049,2.0,61.0,9.130081176757812,-0.9156389236450195,0,0,0,40000
1313137,1.4685319662094116,-5.432135581970215,34.0,72.0,9.052387237548828,-1.067209243774414,0,0,0,40000
1313147,1.4960110187530518,-5.419089317321777,60.0,2.0,9.136785507202148,-1.2766237258911133,0,0,0,40000
1313157,1.542030930519104,-5.407441139221191,60.0,17.0,9.22928237915039,-1.5984716415405273,0,0,0,40000
1313167,1.583764672279358,-5.4078593254089355,89.0,0.0,9.39399528503418,-1.8958816528320312,0,0,0,40000
1313177,1.6614958047866821,-5.406025409698486,113.0,10.0,9.545257568359375,-2.4111547470092773,0,0,0,40000
1313187,1.717965841293335,-5.40525484085083,121.0,-9.0,9.70279312133789,-2.8008127212524414,0,0,0,40000
1313197,1.804516315460205,-5.402121067047119,134.0,7.0,9.846101760864258,-3.373161792755127,0,0,0,40000
1313207,1.862591028213501,-5.400596618652344,125.0,4.0,9.998950958251953,-3.7767648696899414,0,0,0,40000
1313217,1.9649208784103394,-5.378830432891846,133.0,27.0,10.029947280883789,-4.448487758636475,0,0,0,40000
1313227,2.023371458053589,-5.362310886383057,112.0,49.0,10.091917037963867,-4.859209060668945,0,0,0,40000
1313237,2.097059488296509,-5.322386264801025,106.0,87.0,10.012626647949219,-5.363421440124512,0,0,0,40000
1313247,2.1380715370178223,-5.285192489624023,103.0,75.0,9.948448181152344,-5.673138618469238,0,0,0,40000
1313257,2.1993565559387207,-5.223947525024414,71.0,95.0,9.738487243652344,-6.106145858764648,0,0,0,40000
1313267,2.2358622550964355,-5.154599189758301,54.0,143.0,9.477930068969727,-6.391824722290039,0,0,0,40000
1313277,2.276564598083496,-5.064728260040283,35.0,121.0,9.0916748046875,-6.703840255737305,0,0,0,40000
1313287,2.2805161476135254,-4.9959540367126465,21.0,146.0,8.829729080200195,-6.795886993408203,0,0,0,40000
1313297,2.2728519439697266,-4.910150527954102,13.0,122.0,8.463165283203125,-6.818136215209961,0,0,0,40000
1313307,2.2604987621307373,-4.860922813415527,-18.0,92.0,8.314199447631836,-6.812012672424316,0,0,0,40000
1313317,2.226649761199951,-4.8108811378479,-75.0,77.0,8.158884048461914,-6.6763153076171875,0,0,0,40000
1313327,2.2041826248168945,-4.77274227142334,-79.0,54.0,8.073648452758789,-6.607948303222656,0,0,0,40000
1313337,2.160252094268799,-4.729411602020264,-74.0,65.0,7.956047058105469,-6.409674644470215,0,0,0,40000
1313347,2.1276016235351562,-4.701060771942139,-51.0,70.0,7.89912223815918,-6.265167236328125,0,0,0,40000
1313357,2.083557605743408,-4.667964935302734,-80.0,73.0,7.840967178344727,-6.063982963562012,0,0,0,40000
1313367,2.0133132934570312,-4.621584415435791,-104.0,62.0,7.701824188232422,-5.703878402709961,0,0,0,40000
1313377,1.9838247299194336,-4.585628986358643,-104.0,101.0,7.624113082885742,-5.586801528930664,0,0,0,40000
1313387,1.9320392608642578,-4.514458656311035,-84.0,107.0,7.333406448364258,-5.334593296051025,0,0,0,40000
1313397,1.9052081108093262,-4.458558082580566,-87.0,149.0,7.132442474365234,-5.2310380935668945,0,0,0,40000
1313407,1.8308719396591187,-4.351296424865723,-85.0,159.0,6.620729446411133,-4.840834617614746,0,0,0,40000
1313417,1.7897114753723145,-4.275856018066406,-71.0,154.0,6.297245025634766,-4.648067474365234,0,0,0,40000
1313427,1.7363743782043457,-4.182453632354736,-84.0,128.0,5.863348007202148,-4.380790710449219,0,0,0,40000
1313437,1.6991894245147705,-4.135963439941406,-86.0,100.0,5.709047317504883,-4.209109306335449,0,0,0,40000
1313447,1.6380811929702759,-4.078667163848877,-88.0,75.0,5.48822021484375,-3.8923110961914062,0,0,0,40000
1313457,1.594485878944397,-4.048537254333496,-89.0,34.0,5.429233551025391,-3.6790924072265625,0,0,0,40000
1313467,1.5416191816329956,-4.030816078186035,-76.0,27.0,5.444009780883789,-3.408740997314453,0,0,0,40000
1313477,1.511637568473816,-4.007564067840576,-87.0,49.0,5.425006866455078,-3.2745842933654785,0,0,0,40000
1313487,1.4637603759765625,-3.9758059978485107,-87.0,40.0,5.354091644287109,-3.031816005706787,0,0,0,40000
1313497,1.4320907592773438,-3.9483482837677,-79.0,67.0,5.308141708374023,-2.885106086730957,0,0,0,40000
1313507,1.395002007484436,-3.9021971225738525,-49.0,76.0,5.148841857910156,-2.704784870147705,0,0,0,40000
1313517,1.3639216423034668,-3.8653414249420166,-18.0,88.0,5.044097900390625,-2.5595827102661133,0,0,0,40000
1313527,1.3421908617019653,-3.8077120780944824,-28.0,102.0,4.813266754150391,-2.469780445098877,0,0,0,40000
1313537,1.3323428630828857,-3.7618000507354736,-47.0,81.0,4.651182174682617,-2.450808048248291,0,0,0,40000
1313547,1.3276199102401733,-3.7014262676239014,-9.0,72.0,4.400686264038086,-2.46221923828125,0,0,0,40000
1313557,1.322166085243225,-3.6720759868621826,2.0,52.0,4.335086822509766,-2.469198226928711,0,0,0,40000
1313567,1.3223154544830322,-3.655560255050659,27.0,8.0,4.345771789550781,-2.5097270011901855,0,0,0,40000
1313577,1.3318065404891968,-3.6533737182617188,13.0,14.0,4.44227409362793,-2.6065216064453125,0,0,0,40000
1313587,1.3427705764770508,-3.6430203914642334,20.0,27.0,4.489574432373047,-2.712437152862549,0,0,0,40000
1313597,1.3595787286758423,-3.6255486011505127,-3.0,32.0,4.493715286254883,-2.8538856506347656,0,0,0,40000
1313607,1.3824416399002075,-3.6052041053771973,17.0,21.0,4.480037689208984,-3.032228469848633,0,0,0,40000
1313617,1.3975330591201782,-3.596498727798462,36.0,36.0,4.535791397094727,-3.1644911766052246,0,0,0,40000
1313627,1.4233256578445435,-3.5600788593292236,46.0,66.0,4.4246063232421875,-3.3615875244140625,0,0,0,40000
1313637,1.4338937997817993,-3.5274219512939453,23.0,65.0,4.334877014160156,-3.4679174423217773,0,0,0,40000
1313647,1.441490888595581,-3.4903762340545654,12.0,48.0,4.217742919921875,-3.5566916465759277,0,0,0,40000
1313657,1.4434071779251099,-3.4682540893554688,-22.0,50.0,4.189336776733398,-3.6114888191223145,0,0,0,40000
1313667,1.4392004013061523,-3.4282290935516357,11.0,93.0,4.052577972412109,-3.629380702972412,0,0,0,40000
1313677,1.4375269412994385,-3.3800783157348633,-32.0,136.0,3.8657073974609375,-3.662508010864258,0,0,0,40000
1313687,1.4289957284927368,-3.2837095260620117,-17.0,158.0,3.3871936798095703,-3.6543078422546387,0,0,0,40000
1313697,1.4270155429840088,-3.190433979034424,-25.0,206.0,2.924419403076172,-3.685283660888672,0,0,0,40000
1313707,1.4122543334960938,-3.05900239944458,-9.0,188.0,2.229188919067383,-3.63923978805542,0,0,0,40000
1313717,1.4006893634796143,-2.9876253604888916,-42.0,127.0,1.8913688659667969,-3.612031936645508,0,0,0,40000
1313727,1.3818778991699219,-2.9218363761901855,-27.0,70.0,1.5849800109863281,-3.5407896041870117,0,0,0,40000
1313737,1.3647410869598389,-2.9015350341796875,-38.0,22.0,1.5504531860351562,-3.479145050048828,0,0,0,40000
1313747,1.3295519351959229,-2.901993751525879,-48.0,-24.0,1.6401805877685547,-3.3083548545837402,0,0,0,40000
1313757,1.3074935674667358,-2.925690174102783,-58.0,-77.0,1.8698005676269531,-3.215512752532959,0,0,0,40000
1313767,1.261954426765442,-3.004408597946167,-66.0,-115.0,2.431229591369629,-2.9807019233703613,0,0,0,40000
1313777,1.2295974493026733,-3.057194471359253,-69.0,-115.0,2.839040756225586,-2.8238415718078613,0,0,0,40000
1313787,1.1823960542678833,-3.1458308696746826,-58.0,-106.0,3.4641733169555664,-2.5766305923461914,0,0,0,40000
1313797,1.164533257484436,-3.1803884506225586,-40.0,-30.0,3.7665672302246094,-2.5045995712280273,0,0,0,40000
1313807,1.1413016319274902,-3.18098783493042,-43.0,40.0,3.8657054901123047,-2.3997440338134766,0,0,0,40000
1313817,1.117732048034668,-3.1403350830078125,-66.0,131.0,3.7165393829345703,-2.2921619415283203,0,0,0,40000
1313827,1.0841253995895386,-3.0021896362304688,-52.0,231.0,2.9796504974365234,-2.123439311981201,0,0,0,40000
1313837,1.0608329772949219,-2.8845367431640625,-68.0,268.0,2.361696243286133,-2.015800952911377,0,0,0,40000
1313847,1.0192512273788452,-2.693463087081909,-42.0,292.0,1.2984676361083984,-1.7973136901855469,0,0,0,40000
1313857,0.9970791339874268,-2.571194648742676,-30.0,257.0,0.6434345245361328,-1.69443941116333,0,0,0,40000
1313867,0.9579653739929199,-2.4239277839660645,-61.0,183.0,-0.16584205627441406,-1.4890451431274414,0,0,0,40000
1313877,0.929632306098938,-2.3559963703155518,-66.0,98.0,-0.5019855499267578,-1.3473010063171387,0,0,0,40000
1313887,0.8965752124786377,-2.3175697326660156,-46.0,42.0,-0.6626529693603516,-1.1761751174926758,0,0,0,40000
1313897,0.868037760257721,-2.3138387203216553,-59.0,-36.0,-0.6156005859375,-1.031318187713623,0,0,0,40000
1313907,0.8350555896759033,-2.3567955493927,-50.0,-69.0,-0.28773975372314453,-0.858893871307373,0,0,0,40000
1313917,0.8100646138191223,-2.3976542949676514,-63.0,-97.0,0.028812408447265625,-0.7335758209228516,0,0,0,40000
1313927,0.7791752815246582,-2.472724199295044,-51.0,-97.0,0.5525369644165039,-0.5719156265258789,0,0,0,40000
1313937,0.7618895769119263,-2.510787010192871,-60.0,-58.0,0.8558502197265625,-0.49127721786499023,0,0,0,40000
1313947,0.7303653955459595,-2.5496766567230225,-58.0,-61.0,1.1652107238769531,-0.3243985176086426,0,0,0,40000
1313957,0.7120384573936462,-2.5736799240112305,-23.0,-42.0,1.3861808776855469,-0.23598527908325195,0,0,0,40000
1313967,0.6872509717941284,-2.5970664024353027,-29.0,-4.0,1.604212760925293,-0.10822010040283203,0,0,0,40000
1313977,0.675568699836731,-2.588866949081421,-8.0,36.0,1.6328048706054688,-0.05853533744812012,0,0,0,40000
1313987,0.6695419549942017,-2.552846908569336,11.0,72.0,1.4937515258789062,-0.04250669479370117,0,0,0,40000
1313997,0.6741370558738708,-2.5196402072906494,-2.0,87.0,1.3705215454101562,-0.09025835990905762,0,0,0,40000
1314007,0.6859444975852966,-2.4569811820983887,4.0,116.0,1.0691442489624023,-0.18151569366455078,0,0,0,40000
1314017,0.6968926787376404,-2.4084725379943848,40.0,118.0,0.8509416580200195,-0.2679586410522461,0,0,0,40000
1314027,0.7183992266654968,-2.317765712738037,21.0,143.0,0.37736034393310547,-0.41835641860961914,0,0,0,40000
1314037,0.7373601198196411,-2.2470712661743164,47.0,153.0,0.021505355834960938,-0.5540001392364502,0,0,0,40000
1314047,0.7709892392158508,-2.157317876815796,49.0,134.0,-0.45124053955078125,-0.7785215377807617,0,0,0,40000
1314057,0.788680911064148,-2.102630615234375,34.0,85.0,-0.7156696319580078,-0.908151388168335,0,0,0,40000
1314067,0.8154155015945435,-2.065371036529541,24.0,14.0,-0.8770122528076172,-1.0927214622497559,0,0,0,40000
1314077,0.8282206058502197,-2.075298547744751,32.0,-68.0,-0.7553615570068359,-1.1942310333251953,0,0,0,40000
1314087,0.8451125025749207,-2.1534206867218018,11.0,-157.0,-0.22319602966308594,-1.3207712173461914,0,0,0,40000
1314097,0.8472055792808533,-2.2290573120117188,-2.0,-206.0,0.2965526580810547,-1.3587243556976318,0,0,0,40000
1314107,0.8322761058807373,-2.379296064376831,-20.0,-210.0,1.2675457000732422,-1.2943391799926758,0,0,0,40000
1314117,0.8219210505485535,-2.4782536029815674,-8.0,-218.0,1.9344463348388672,-1.2569963932037354,0,0,0,40000
1314127,0.8060644268989563,-2.616642951965332,-13.0,-171.0,2.8416852951049805,-1.186246395111084,0,0,0,40000
1314137,0.7928078174591064,-2.691490411758423,-34.0,-113.0,3.370645523071289,-1.130666971206665,0,0,0,40000
1314147,0.7765356302261353,-2.742872953414917,-41.0,-57.0,3.760671615600586,-1.0565717220306396,0,0,0,40000
1314157,0.7632685303688049,-2.7487709522247314,-30.0,49.0,3.878520965576172,-1.0000145435333252,0,0,0,40000
1314167,0.7505181431770325,-2.6643738746643066,-11.0,180.0,3.453357696533203,-0.9461443424224854,0,0,0,40000
1314177,0.7468065023422241,-2.5734100341796875,-11.0,226.0,2.9858627319335938,-0.9463253021240234,0,0,0,40000
1314187,0.7347979545593262,-2.398228645324707,-16.0,264.0,2.008913040161133,-0.8964056968688965,0,0,0,40000
1314197,0.7336209416389465,-2.2669715881347656,-21.0,293.0,1.2909584045410156,-0.9113636016845703,0,0,0,40000
1314207,0.7201560139656067,-2.0772831439971924,-27.0,269.0,0.2173595428466797,-0.852360725402832,0,0,0,40000
1314217,0.7217219471931458,-1.9710649251937866,-5.0,212.0,-0.3595733642578125,-0.8833985328674316,0,0,0,40000
1314227,0.7183940410614014,-1.843254804611206,-6.0,148.0,-1.0697813034057617,-0.8849911689758301,0,0,0,40000
1314237,0.7259662747383118,-1.8007277250289917,16.0,66.0,-1.2704401016235352,-0.9521052837371826,0,0,0,40000
1314247,0.7346177697181702,-1.793424129486084,16.0,-18.0,-1.260514259338379,-1.0259342193603516,0,0,0,40000
1314257,0.7371366620063782,-1.8231890201568604,11.0,-72.0,-1.0276002883911133,-1.0631372928619385,0,0,0,40000
1314267,0.7457497715950012,-1.9010019302368164,15.0,-128.0,-0.5047378540039062,-1.1370739936828613,0,0,0,40000
1314277,0.7462431788444519,-1.971261739730835,-10.0,-173.0,-0.02491283416748047,-1.162445306777954,0,0,0,40000
1314287,0.7453680634498596,-2.087547540664673,0.0,-180.0,0.7340230941772461,-1.1795525550842285,0,0,0,40000
1314297,0.7426929473876953,-2.163593292236328,-5.0,-171.0,1.2543039321899414,-1.1858117580413818,0,0,0,40000
1314307,0.7272733449935913,-2.260709285736084,-32.0,-129.0,1.9037818908691406,-1.1153538227081299,0,0,0,40000
1314317,0.7134535312652588,-2.310936689376831,-45.0,-93.0,2.2738733291625977,-1.0539908409118652,0,0,0,40000
1314327,0.6890062689781189,-2.3407270908355713,-40.0,-20.0,2.5226497650146484,-0.9282712936401367,0,0,0,40000
1314337,0.6658234596252441,-2.3331298828125,-52.0,61.0,2.547194480895996,-0.8094456195831299,0,0,0,40000
1314347,0.6278838515281677,-2.2577905654907227,-66.0,154.0,2.1640243530273438,-0.6011433601379395,0,0,0,40000
1314357,0.6049966216087341,-2.1663808822631836,-57.0,243.0,1.6816978454589844,-0.4822535514831543,0,0,0,40000
1314367,0.5554944276809692,-1.9938721656799316,-69.0,265.0,0.7085895538330078,-0.2025139331817627,0,0,0,40000
1314377,0.5211586356163025,-1.86983060836792,-73.0,236.0,0.021921157836914062,-0.012551546096801758,0,0,0,40000
1314387,0.45666301250457764,-1.720292091369629,-90.0,193.0,-0.8220081329345703,0.35991525650024414,0,0,0,40000
1314397,0.4135702848434448,-1.6500033140182495,-95.0,133.0,-1.1934328079223633,0.6055347919464111,0,0,0,40000
1314407,0.34405574202537537,-1.5975680351257324,-114.0,50.0,-1.4595975875854492,1.0113940238952637,0,0,0,40000
1314417,0.29837000370025635,-1.5932137966156006,-106.0,-24.0,-1.4379262924194336,1.276010513305664,0,0,0,40000
1314427,0.22302216291427612,-1.6230112314224243,-120.0,-68.0,-1.210916519165039,1.7204822301864624,0,0,0,40000
1314437,0.16824296116828918,-1.6625810861587524,-135.0,-119.0,-0.9241294860839844,2.0434317588806152,0,0,0,40000
1314447,0.06975813955068588,-1.763924241065979,-123.0,-179.0,-0.26450538635253906,2.6310713291168213,0,0,0,40000
1314457,0.0209362655878067,-1.839317798614502,-99.0,-186.0,0.24210643768310547,2.9227867126464844,0,0,0,40000
1314467,-0.04531145468354225,-1.950530767440796,-85.0,-158.0,0.9665918350219727,3.3208987712860107,0,0,0,40000
1314477,-0.08252794295549393,-2.0091164112091064,-87.0,-114.0,1.3777132034301758,3.5462169647216797,0,0,0,40000
1314487,-0.13443519175052643,-2.061262607574463,-66.0,-39.0,1.751943588256836,3.8611226081848145,0,0,0,40000
1314497,-0.16282519698143005,-2.056551456451416,-65.0,58.0,1.785475730895996,4.0359907150268555,0,0,0,40000
1314507,-0.2013884037733078,-1.9984995126724243,-61.0,109.0,1.497920036315918,4.272941589355469,0,0,0,40000
1314517,-0.21983347833156586,-1.9393181800842285,-37.0,134.0,1.201772689819336,4.390010833740234,0,0,0,40000
1314527,-0.2360859364271164,-1.8345403671264648,-18.0,160.0,0.6294345855712891,4.494462013244629,0,0,0,40000
1314537,-0.23487602174282074,-1.7514528036117554,2.0,177.0,0.18443679809570312,4.494280815124512,0,0,0,40000
1314547,-0.22264660894870758,-1.6290830373764038,23.0,185.0,-0.49939823150634766,4.427805423736572,0,0,0,40000
1314557,-0.20683428645133972,-1.5618141889572144,35.0,120.0,-0.8553838729858398,4.339326858520508,0,0,0,40000
1314567,-0.17509377002716064,-1.4844447374343872,45.0,105.0,-1.2741727828979492,4.154553413391113,0,0,0,40000
1314577,-0.1466134935617447,-1.4589611291885376,74.0,7.0,-1.3830642700195312,3.9884400367736816,0,0,0,40000
1314587,-0.09844643622636795,-1.488463044166565,82.0,-65.0,-1.1619205474853516,3.7029781341552734,0,0,0,40000
1314597,-0.06421750783920288,-1.5320367813110352,108.0,-121.0,-0.8550643920898438,3.4999799728393555,0,0,0,40000
1314607,0.008512972854077816,-1.635481595993042,108.0,-176.0,-0.1867542266845703,3.0641961097717285,0,0,0,40000
1314617,0.05985317751765251,-1.7231605052947998,122.0,-220.0,0.38995361328125,2.7549734115600586,0,0,0,40000
1314627,0.1429528445005417,-1.8729695081710815,104.0,-224.0,1.343144416809082,2.253021717071533,0,0,0,40000
1314637,0.1886274516582489,-1.9672726392745972,98.0,-181.0,1.9669151306152344,1.973862886428833,0,0,0,40000
1314647,0.2576245367527008,-2.0641748905181885,99.0,-104.0,2.609280586242676,1.552978754043579,0,0,0,40000
1314657,0.30049532651901245,-2.1047933101654053,87.0,-56.0,2.9156875610351562,1.2872389554977417,0,0,0,40000
1314667,0.3634905219078064,-2.1186363697052,91.0,8.0,3.0622730255126953,0.8991048336029053,0,0,0,40000
1314677,0.408108651638031,-2.088881492614746,84.0,97.0,2.9468278884887695,0.6196715831756592,0,0,0,40000
1314687,0.4676675796508789,-2.027071952819824,90.0,94.0,2.6375198364257812,0.2490377426147461,0,0,0,40000
1314697,0.5022983551025391,-1.9755091667175293,73.0,125.0,2.3880186080932617,0.026587486267089844,0,0,0,40000
1314707,0.5527007579803467,-1.8939601182937622,74.0,126.0,1.9565553665161133,-0.2917952537536621,0,0,0,40000
1314717,0.5720146298408508,-1.8436061143875122,53.0,95.0,1.7103242874145508,-0.4246199131011963,0,0,0,40000
1314727,0.6036478281021118,-1.7933058738708496,48.0,47.0,1.4627904891967773,-0.6321611404418945,0,0,0,40000
1314737,0.612180233001709,-1.7798112630844116,22.0,33.0,1.4353628158569336,-0.7016382217407227,0,0,0,40000
1314747,0.6243381500244141,-1.7770971059799194,0.0,-6.0,1.4723596572875977,-0.793250322341919,0,0,0,40000
1314757,0.6239233613014221,-1.7859151363372803,-8.0,-31.0,1.5787277221679688,-0.8094887733459473,0,0,0,40000
1314767,0.611722469329834,-1.812318205833435,-20.0,-38.0,1.7912063598632812,-0.7547857761383057,0,0,0,40000
1314777,0.6036431789398193,-1.8343344926834106,-12.0,-45.0,1.978062629699707,-0.7245097160339355,0,0,0,40000
1314787,0.5911555290222168,-1.8527753353118896,-24.0,-21.0,2.1441421508789062,-0.6675100326538086,0,0,0,40000
1314797,0.5765783786773682,-1.858666181564331,-51.0,0.0,2.235189437866211,-0.5975446701049805,0,0,0,40000
1314807,0.5493888854980469,-1.8339040279388428,-57.0,50.0,2.142007827758789,-0.45131492614746094,0,0,0,40000
1314817,0.5303770303726196,-1.8076984882354736,-57.0,62.0,2.039341926574707,-0.3533895015716553,0,0,0,40000
1314827,0.49915096163749695,-1.7618539333343506,-38.0,63.0,1.817657470703125,-0.18133330345153809,0,0,0,40000
1314837,0.47720518708229065,-1.7425391674041748,-28.0,56.0,1.7542762756347656,-0.06421613693237305,0,0,0,40000
1314847,0.43964701890945435,-1.7137341499328613,-46.0,44.0,1.633169174194336,0.14748167991638184,0,0,0,40000
1314857,0.42031416296958923,-1.7056081295013428,-30.0,3.0,1.6356449127197266,0.2506442070007324,0,0,0,40000
1314867,0.40236896276474,-1.7123403549194336,-20.0,-12.0,1.727311134338379,0.3460502624511719,0,0,0,40000
1314877,0.3992598354816437,-1.7238261699676514,-31.0,-32.0,1.8478240966796875,0.3526761531829834,0,0,0,40000
1314887,0.38919752836227417,-1.72916841506958,-23.0,-7.0,1.931727409362793,0.40125584602355957,0,0,0,40000
1314897,0.37613022327423096,-1.712424874305725,-32.0,33.0,1.882852554321289,0.4682149887084961,0,0,0,40000
1314907,0.360770046710968,-1.671097993850708,-10.0,67.0,1.685577392578125,0.5494451522827148,0,0,0,40000
1314917,0.3451526463031769,-1.642341136932373,-41.0,55.0,1.5626420974731445,0.6325869560241699,0,0,0,40000
1314927,0.32089412212371826,-1.6074302196502686,-35.0,57.0,1.4018211364746094,0.7681849002838135,0,0,0,40000
1314937,0.3050318956375122,-1.598506212234497,-42.0,14.0,1.3963327407836914,0.8540112972259521,0,0,0,40000
1314947,0.2814001739025116,-1.5884648561477661,-45.0,25.0,1.3839569091796875,0.9870717525482178,0,0,0,40000
1314957,0.26965808868408203,-1.5637353658676147,-41.0,70.0,1.2828121185302734,1.049288272857666,0,0,0,40000
1314967,0.2534610629081726,-1.511106014251709,-24.0,66.0,1.012979507446289,1.1386886835098267,0,0,0,40000
1314977,0.2437482476234436,-1.4706951379776,-3.0,79.0,0.8150959014892578,1.1895767450332642,0,0,0,40000
1314987,0.23216471076011658,-1.4190611839294434,-18.0,50.0,0.5483808517456055,1.2519497871398926,0,0,0,40000
1314997,0.21699689328670502,-1.4071438312530518,-24.0,5.0,0.5191788673400879,1.3362699747085571,0,0,0,40000
1315007,0.20188835263252258,-1.4252833127975464,-29.0,-38.0,0.6704740524291992,1.420654058456421,0,0,0,40000
1315017,0.19571556150913239,-1.4423516988754272,-9.0,-40.0,0.815915584564209,1.4517594575881958,0,0,0,40000
1315027,0.17660997807979584,-1.4698024988174438,-27.0,-31.0,1.0244202613830566,1.5608683824539185,0,0,0,40000
1315037,0.17723509669303894,-1.4730162620544434,12.0,-2.0,1.087888240814209,1.5518584251403809,0,0,0,40000
1315047,0.174640491604805,-1.4599483013153076,5.0,15.0,1.0534172058105469,1.562140941619873,0,0,0,40000
1315057,0.17324398458003998,-1.4476580619812012,16.0,19.0,1.0232462882995605,1.5653337240219116,0,0,0,40000
1315067,0.1784738451242447,-1.4462487697601318,12.0,-6.0,1.0581603050231934,1.5286661386489868,0,0,0,40000
1315077,0.1900845617055893,-1.437788486480713,14.0,9.0,1.0506291389465332,1.4534047842025757,0,0,0,40000
1315087,0.20272092521190643,-1.4267537593841553,5.0,39.0,1.0187783241271973,1.3728044033050537,0,0,0,40000
1315097,0.211302250623703,-1.3984953165054321,19.0,63.0,0.8915596008300781,1.3151075839996338,0,0,0,40000
1315107,0.23296624422073364,-1.3384956121444702,29.0,92.0,0.5808782577514648,1.1771293878555298,0,0,0,40000
1315117,0.2572791576385498,-1.282436490058899,60.0,127.0,0.27599668502807617,1.0253815650939941,0,0,0,40000
1315127,0.28130900859832764,-1.22648024559021,46.0,94.0,-0.02229166030883789,0.873039960861206,0,0,0,40000
1315137,0.3117136061191559,-1.1732261180877686,35.0,43.0,-0.3061079978942871,0.6815793514251709,0,0,0,40000
1315147,0.3280324637889862,-1.1681969165802002,13.0,-11.0,-0.3012113571166992,0.5740072727203369,0,0,0,40000
1315157,0.3475557565689087,-1.1945295333862305,25.0,-62.0,-0.10782909393310547,0.44670653343200684,0,0,0,40000
1315167,0.3642679452896118,-1.2338026762008667,65.0,-87.0,0.16435480117797852,0.3357431888580322,0,0,0,40000
1315177,0.4033701419830322,-1.3008357286453247,53.0,-130.0,0.6047096252441406,0.08945536613464355,0,0,0,40000
1315187,0.4231375753879547,-1.3578219413757324,37.0,-110.0,0.9867038726806641,-0.04162025451660156,0,0,0,40000
1315197,0.45845913887023926,-1.4048798084259033,41.0,-32.0,1.3108243942260742,-0.266862154006958,0,0,0,40000
1315207,0.47934409976005554,-1.424901008605957,20.0,-21.0,1.4734611511230469,-0.40633153915405273,0,0,0,40000
1315217,0.49187591671943665,-1.4220682382583618,23.0,38.0,1.499312400817871,-0.49615001678466797,0,0,0,40000
1315227,0.4974462389945984,-1.3954896926879883,6.0,75.0,1.3820185661315918,-0.5444371700286865,0,0,0,40000
1315237,0.5089512467384338,-1.31594717502594,25.0,159.0,0.9453840255737305,-0.6285521984100342,0,0,0,40000
1315247,0.5092061161994934,-1.2271974086761475,-5.0,186.0,0.4507784843444824,-0.6453714370727539,0,0,0,40000
1315257,0.5027046203613281,-1.117247462272644,-12.0,134.0,-0.17423152923583984,-0.6215357780456543,0,0,0,40000
1315267,0.5021132826805115,-1.0480473041534424,0.0,128.0,-0.5571370124816895,-0.6330323219299316,0,0,0,40000
1315277,0.49621978402137756,-0.9711872339248657,-5.0,82.0,-0.9883689880371094,-0.6125812530517578,0,0,0,40000
1315287,0.482069194316864,-0.9453383684158325,-36.0,19.0,-1.1148266792297363,-0.5423474311828613,0,0,0,40000
1315297,0.47073137760162354,-0.9256976246833801,-26.0,55.0,-1.2046127319335938,-0.4885735511779785,0,0,0,40000
1315307,0.46061021089553833,-0.9163134098052979,-52.0,25.0,-1.2333283424377441,-0.4417853355407715,0,0,0,40000
1315317,0.4308636486530304,-0.9066384434700012,-45.0,-27.0,-1.2641973495483398,-0.276522159576416,0,0,0,40000
1315327,0.41247740387916565,-0.9285106658935547,-35.0,-49.0,-1.105367660522461,-0.17878150939941406,0,0,0,40000
1315337,0.38954177498817444,-0.985045850276947,-25.0,-84.0,-0.7373471260070801,-0.05306816101074219,0,0,0,40000
1315347,0.36729666590690613,-1.0275155305862427,-61.0,-107.0,-0.4522109031677246,0.0691061019897461,0,0,0,40000
1315357,0.3300570547580719,-1.1163184642791748,-57.0,-161.0,0.11289310455322266,0.2821919918060303,0,0,0,40000
1315367,0.30784693360328674,-1.183042287826538,-56.0,-138.0,0.5479245185852051,0.4059576988220215,0,0,0,40000
1315377,0.27060064673423767,-1.2794219255447388,-64.0,-116.0,1.1634578704833984,0.6208267211914062,0,0,0,40000
1315387,0.2437243014574051,-1.3332819938659668,-44.0,-142.0,1.5259451866149902,0.7744569778442383,0,0,0,40000
1315397,0.20156404376029968,-1.41033935546875,-77.0,-101.0,2.029796600341797,1.0208055973052979,0,0,0,40000
1315407,0.17152714729309082,-1.4575210809707642,-55.0,-73.0,2.356053352355957,1.1955456733703613,0,0,0,40000
1315417,0.14330968260765076,-1.5135704278945923,-37.0,-78.0,2.7370824813842773,1.3602705001831055,0,0,0,40000
1315427,0.12725971639156342,-1.5404386520385742,-33.0,-26.0,2.9442343711853027,1.4525600671768188,0,0,0,40000
1315437,0.10050304234027863,-1.5372765064239502,-36.0,17.0,2.9715261459350586,1.6097164154052734,0,0,0,40000
1315447,0.0815376490354538,-1.519946813583374,-35.0,67.0,2.9133920669555664,1.7208492755889893,0,0,0,40000
1315457,0.06659898906946182,-1.452539086341858,-24.0,104.0,2.553471565246582,1.8083149194717407,0,0,0,40000
1315467,0.048759691417217255,-1.3921631574630737,-35.0,157.0,2.2337698936462402,1.9136619567871094,0,0,0,40000
1315477,0.02671993337571621,-1.2635201215744019,-30.0,204.0,1.5014944076538086,2.0448412895202637,0,0,0,40000
1315487,0.019959567114710808,-1.153333067893982,-18.0,248.0,0.876307487487793,2.084754228591919,0,0,0,40000
1315497,0.023080497980117798,-0.9961192607879639,19.0,217.0,-0.03526496887207031,2.0654869079589844,0,0,0,40000
1315507,0.029353590682148933,-0.899502694606781,17.0,194.0,-0.5868730545043945,2.0270445346832275,0,0,0,40000
1315517,0.04775308445096016,-0.793722927570343,12.0,143.0,-1.1965827941894531,1.915398120880127,0,0,0,40000
1315527,0.05759187415242195,-0.7514433264732361,24.0,58.0,-1.4272637367248535,1.8547632694244385,0,0,0,40000
1315537,0.07981619238853455,-0.7157086133956909,34.0,10.0,-1.6198711395263672,1.7193105220794678,0,0,0,40000
1315547,0.09822143614292145,-0.7098998427391052,53.0,-2.0,-1.6333489418029785,1.6061784029006958,0,0,0,40000
1315557,0.12596352398395538,-0.7250769138336182,46.0,-41.0,-1.5208048820495605,1.436255693435669,0,0,0,40000
1315567,0.1487504094839096,-0.7514934539794922,70.0,-52.0,-1.340104103088379,1.2953547239303589,0,0,0,40000
1315577,0.19161885976791382,-0.7897716164588928,72.0,-41.0,-1.087181568145752,1.0328718423843384,0,0,0,40000
1315587,0.2308543473482132,-0.7937321066856384,85.0,-2.0,-1.0396480560302734,0.7909936904907227,0,0,0,40000
1315597,0.2893432676792145,-0.7849010825157166,77.0,8.0,-1.068983554840088,0.4320354461669922,0,0,0,40000
1315607,0.33180996775627136,-0.7800159454345703,92.0,0.0,-1.0748271942138672,0.16780543327331543,0,0,0,40000
1315617,0.37779027223587036,-0.7828339338302612,83.0,-16.0,-1.034520149230957,-0.11886835098266602,0,0,0,40000
1315627,0.41578608751296997,-0.8023689389228821,90.0,-48.0,-0.8934988975524902,-0.3588738441467285,0,0,0,40000
1315637,0.4837779104709625,-0.8253191113471985,88.0,-33.0,-0.7313156127929688,-0.7805793285369873,0,0,0,40000
1315647,0.517426609992981,-0.8502097725868225,64.0,-48.0,-0.5567913055419922,-0.9975941181182861,0,0,0,40000
1315657,0.5668479204177856,-0.8706731796264648,83.0,2.0,-0.40802669525146484,-1.310455560684204,0,0,0,40000
1315667,0.5976771712303162,-0.8724293112754822,58.0,-23.0,-0.3713688850402832,-1.5130057334899902,0,0,0,40000
1315677,0.6137086153030396,-0.8853868246078491,30.0,-13.0,-0.2671680450439453,-1.6275033950805664,0,0,0,40000
1315687,0.6293577551841736,-0.9009450078010559,7.0,-43.0,-0.14701080322265625,-1.7401058673858643,0,0,0,40000
1315697,0.6395779252052307,-0.952596127986908,14.0,-92.0,0.19076871871948242,-1.8204734325408936,0,0,0,40000
1315707,0.6430262327194214,-1.0026031732559204,-14.0,-92.0,0.5202832221984863,-1.8604234457015991,0,0,0,40000
1315717,0.6301292181015015,-1.076071858406067,-10.0,-113.0,0.9924430847167969,-1.8021107912063599,0,0,0,40000
1315727,0.6161847114562988,-1.1265127658843994,-41.0,-103.0,1.328256607055664,-1.7371330261230469,0,0,0,40000
1315737,0.5861133933067322,-1.1894543170928955,-66.0,-65.0,1.7409300804138184,-1.5747005939483643,0,0,0,40000
1315747,0.5595805644989014,-1.2051526308059692,-65.0,-9.0,1.8711366653442383,-1.4326189756393433,0,0,0,40000
1315757,0.5122909545898438,-1.19046950340271,-70.0,50.0,1.8190608024597168,-1.164826512336731,0,0,0,40000
1315767,0.47486111521720886,-1.1603349447250366,-96.0,81.0,1.6734404563903809,-0.9549405574798584,0,0,0,40000
1315777,0.40566959977149963,-1.1073548793792725,-96.0,89.0,1.3894290924072266,-0.5527788400650024,0,0,0,40000
1315787,0.3640141487121582,-1.0604759454727173,-90.0,119.0,1.1405210494995117,-0.3142690658569336,0,0,0,40000
1315797,0.2989809513092041,-0.9798517823219299,-89.0,103.0,0.6871190071105957,0.06616973876953125,0,0,0,40000
1315807,0.25285160541534424,-0.9269780516624451,-103.0,106.0,0.3983273506164551,0.3347897529602051,0,0,0,40000
1315817,0.18654997646808624,-0.867127001285553,-95.0,77.0,0.06593942642211914,0.7262512445449829,0,0,0,40000
1315827,0.1503603756427765,-0.8416374325752258,-75.0,38.0,-0.061470985412597656,0.9384711384773254,0,0,0,40000
1315837,0.10392940044403076,-0.8218255043029785,-48.0,0.0,-0.1555314064025879,1.2134974002838135,0,0,0,40000
1315847,0.07879949361085892,-0.8277012705802917,-52.0,-34.0,-0.09553766250610352,1.3615922927856445,0,0,0,40000
1315857,0.04190031439065933,-0.8692522048950195,-51.0,-73.0,0.17925786972045898,1.5812209844589233,0,0,0,40000
1315867,0.0227343887090683,-0.9125557541847229,-40.0,-92.0,0.4659247398376465,1.6952903270721436,0,0,0,40000
1315877,0.004207157995551825,-0.986499547958374,-27.0,-107.0,0.9382290840148926,1.8061610460281372,0,0,0,40000
1315887,0.0017221644520759583,-1.033517599105835,-8.0,-123.0,1.2507715225219727,1.82100248336792,0,0,0,40000
1315897,-0.005401707720011473,-1.1126054525375366,1.0,-110.0,1.7577638626098633,1.863871693611145,0,0,0,40000
1315907,0.0012765148421749473,-1.153870701789856,21.0,-105.0,2.0394816398620605,1.823884129524231,0,0,0,40000
1315917,0.016222523525357246,-1.2203369140625,18.0,-79.0,2.4741902351379395,1.7339023351669312,0,0,0,40000
1315927,0.029271570965647697,-1.241903305053711,10.0,-37.0,2.6406092643737793,1.6548566818237305,0,0,0,40000
1315937,0.05023213475942612,-1.2543792724609375,42.0,0.0,2.753048896789551,1.5279409885406494,0,0,0,40000
1315947,0.0684727132320404,-1.2344082593917847,37.0,61.0,2.6705360412597656,1.4166696071624756,0,0,0,40000
1315957,0.0939972996711731,-1.2184076309204102,38.0,-4.0,2.611114025115967,1.2610541582107544,0,0,0,40000
1315967,0.11653700470924377,-1.2076398134231567,52.0,35.0,2.5828804969787598,1.1225864887237549,0,0,0,40000
1315977,0.15834824740886688,-1.1705334186553955,56.0,76.0,2.3959054946899414,0.8674685955047607,0,0,0,40000
1315987,0.18344715237617493,-1.1372854709625244,63.0,75.0,2.230937957763672,0.7116842269897461,0,0,0,40000
1315997,0.2205575853586197,-1.0905336141586304,57.0,48.0,1.9835972785949707,0.48287737369537354,0,0,0,40000
1316007,0.2358134686946869,-1.0683962106704712,43.0,34.0,1.883082389831543,0.3844616413116455,0,0,0,40000
1316017,0.2683519721031189,-1.0613454580307007,30.0,8.0,1.8726763725280762,0.18151259422302246,0,0,0,40000
1316027,0.28560638427734375,-1.0550298690795898,58.0,36.0,1.8665704727172852,0.06965160369873047,0,0,0,40000
1316037,0.31932613253593445,-1.0401825904846191,40.0,7.0,1.8087701797485352,-0.14189529418945312,0,0,0,40000
1316047,0.3272320628166199,-1.0448373556137085,29.0,-3.0,1.8680200576782227,-0.19905173778533936,0,0,0,40000
1316057,0.342533141374588,-1.0713080167770386,17.0,-43.0,2.0585899353027344,-0.30101096630096436,0,0,0,40000
1316067,0.3420197665691376,-1.0754984617233276,-22.0,-25.0,2.115919589996338,-0.30823957920074463,0,0,0,40000
1316077,0.3398841917514801,-1.0813045501708984,-3.0,-12.0,2.183070659637451,-0.3055891990661621,0,0,0,40000
1316087,0.3352959156036377,-1.0902652740478516,-26.0,-30.0,2.2694144248962402,-0.2881854772567749,0,0,0,40000
1316097,0.3156009912490845,-1.1274484395980835,-15.0,-44.0,2.525862693786621,-0.17966723442077637,0,0,0,40000
1316107,0.3039737641811371,-1.1420060396194458,-31.0,-27.0,2.6473164558410645,-0.11917030811309814,0,0,0,40000
1316117,0.27078381180763245,-1.1565004587173462,-44.0,-2.0,2.7688684463500977,0.07142126560211182,0,0,0,40000
1316127,0.2521035969257355,-1.1489537954330444,-60.0,22.0,2.758167266845703,0.17570805549621582,0,0,0,40000
1316137,0.2287178337574005,-1.1314738988876343,-47.0,31.0,2.6874513626098633,0.30886542797088623,0,0,0,40000
1316147,0.2000027298927307,-1.1103581190109253,-35.0,71.0,2.5943498611450195,0.47483110427856445,0,0,0,40000
1316157,0.1702270209789276,-1.0486599206924438,-62.0,83.0,2.256293296813965,0.6479160785675049,0,0,0,40000
1316167,0.13672658801078796,-1.0090688467025757,-94.0,107.0,2.0495033264160156,0.844383180141449,0,0,0,40000
1316177,0.08798705041408539,-0.9328768253326416,-79.0,128.0,1.6213459968566895,1.1336017847061157,0,0,0,40000
1316187,0.05805699899792671,-0.8642461895942688,-58.0,158.0,1.2363510131835938,1.3111286163330078,0,0,0,40000
1316197,0.011032186448574066,-0.7549353241920471,-50.0,162.0,0.6044893264770508,1.592443823814392,0,0,0,40000
1316207,-0.024768752977252007,-0.6978001594543457,-56.0,85.0,0.28325748443603516,1.8075612783432007,0,0,0,40000
1316217,-0.05580395460128784,-0.656438410282135,-46.0,48.0,0.0552060604095459,1.995057463645935,0,0,0,40000
1316227,-0.07526464760303497,-0.6248519420623779,-43.0,77.0,-0.11518430709838867,2.113818883895874,0,0,0,40000
1316237,-0.1034390926361084,-0.5832886695861816,-49.0,41.0,-0.3466496467590332,2.28560733795166,0,0,0,40000
1316247,-0.1179063469171524,-0.5691147446632385,-11.0,15.0,-0.41444969177246094,2.375805377960205,0,0,0,40000
1316257,-0.13143430650234222,-0.5765981078147888,-24.0,-26.0,-0.35246944427490234,2.4607162475585938,0,0,0,40000
1316267,-0.14559946954250336,-0.606284499168396,-21.0,-79.0,-0.15654683113098145,2.54990291595459,0,0,0,40000
1316277,-0.1551898866891861,-0.6596523523330688,-9.0,-70.0,0.1828608512878418,2.612011432647705,0,0,0,40000
1316287,-0.15572844445705414,-0.6919398307800293,-10.0,-75.0,0.3969545364379883,2.619905948638916,0,0,0,40000
1316297,-0.15662263333797455,-0.7613565921783447,1.0,-115.0,0.8353500366210938,2.6299962997436523,0,0,0,40000
1316307,-0.14542736113071442,-0.807759702205658,18.0,-86.0,1.13743257522583,2.5673389434814453,0,0,0,40000
1316317,-0.14144755899906158,-0.8632892370223999,0.0,-83.0,1.495842456817627,2.547699213027954,0,0,0,40000
1316327,-0.13861261308193207,-0.872018039226532,29.0,10.0,1.5743355751037598,2.534904956817627,0,0,0,40000
1316337,-0.11456020921468735,-0.8391546607017517,9.0,63.0,1.4028549194335938,2.394270896911621,0,0,0,40000
1316347,-0.10172582417726517,-0.7564912438392639,12.0,186.0,0.9306402206420898,2.3204383850097656,0,0,0,40000
1316357,-0.08457212150096893,-0.625067412853241,20.0,202.0,0.1624448299407959,2.220266819000244,0,0,0,40000
1316367,-0.06256529688835144,-0.5465826988220215,33.0,169.0,-0.2911200523376465,2.090376853942871,0,0,0,40000
1316377,-0.03449911251664162,-0.447268545627594,38.0,136.0,-0.8725094795227051,1.9234195947647095,0,0,0,40000
1316387,-0.01639927737414837,-0.39566904306411743,42.0,85.0,-1.1696233749389648,1.8155258893966675,0,0,0,40000
1316397,0.032556481659412384,-0.3613566756248474,47.0,34.0,-1.3643014430999756,1.5213407278060913,0,0,0,40000
1316407,0.06115537881851196,-0.36053019762039185,67.0,-18.0,-1.358457088470459,1.3482670783996582,0,0,0,40000
1316417,0.10751163214445114,-0.38039329648017883,55.0,-42.0,-1.2281992435455322,1.0673930644989014,0,0,0,40000
1316427,0.1305188238620758,-0.4033564627170563,65.0,-44.0,-1.0785865783691406,0.9257388710975647,0,0,0,40000
1316437,0.17668592929840088,-0.4389409124851227,55.0,-43.0,-0.852299690246582,0.6439135074615479,0,0,0,40000
1316447,0.20556876063346863,-0.4708619713783264,69.0,-68.0,-0.6470303535461426,0.46480345726013184,0,0,0,40000
1316457,0.2551499009132385,-0.5069384574890137,83.0,-30.0,-0.4156787395477295,0.1603316068649292,0,0,0,40000
1316467,0.2888442575931549,-0.5098286271095276,88.0,23.0,-0.3830699920654297,-0.050086379051208496,0,0,0,40000
1316477,0.33648839592933655,-0.4893403649330139,70.0,40.0,-0.49102020263671875,-0.3455204963684082,0,0,0,40000
1316487,0.3657994568347931,-0.4671844244003296,63.0,36.0,-0.6096994876861572,-0.5320156812667847,0,0,0,40000
1316497,0.4104382395744324,-0.43981581926345825,44.0,50.0,-0.760331392288208,-0.81168532371521,0,0,0,40000
1316507,0.4386833906173706,-0.3951583802700043,45.0,129.0,-1.0158276557922363,-0.994013786315918,0,0,0,40000
1316517,0.4731854796409607,-0.297486275434494,41.0,151.0,-1.591703176498413,-1.2148547172546387,0,0,0,40000
1316527,0.4866971969604492,-0.23392975330352783,23.0,151.0,-1.9652583599090576,-1.310375690460205,0,0,0,40000
1316537,0.5044522881507874,-0.15175771713256836,27.0,108.0,-2.452854633331299,-1.4318084716796875,0,0,0,40000
1316547,0.497664213180542,-0.11037177592515945,5.0,77.0,-2.697370767593384,-1.406067967414856,0,0,0,40000
1316557,0.5002713203430176,-0.07009261101484299,-13.0,45.0,-2.9365320205688477,-1.436769962310791,0,0,0,40000
1316567,0.4981478750705719,-0.03244677186012268,-33.0,67.0,-3.1609950065612793,-1.4390236139297485,0,0,0,40000
1316577,0.4837464690208435,-0.018554143607616425,-38.0,7.0,-3.243762493133545,-1.3673356771469116,0,0,0,40000
1316587,0.47197628021240234,-0.03100622445344925,-27.0,-37.0,-3.168297052383423,-1.310977578163147,0,0,0,40000
1316597,0.44443008303642273,-0.07853735238313675,-36.0,-93.0,-2.8814961910247803,-1.1593432426452637,0,0,0,40000
1316607,0.4298985004425049,-0.14088578522205353,-27.0,-154.0,-2.5039570331573486,-1.0851995944976807,0,0,0,40000
1316617,0.3975955843925476,-0.2595396935939789,-78.0,-174.0,-1.785761833190918,-0.9038724899291992,0,0,0,40000
1316627,0.37600621581077576,-0.3389595150947571,-47.0,-147.0,-1.2999935150146484,-0.7858717441558838,0,0,0,40000
1316637,0.33693966269493103,-0.43315577507019043,-69.0,-134.0,-0.722933292388916,-0.5620996952056885,0,0,0,40000
1316647,0.31825461983680725,-0.47866517305374146,-27.0,-91.0,-0.438906192779541,-0.45781850814819336,0,0,0,40000
1316657,0.27789318561553955,-0.5211814641952515,-57.0,-79.0,-0.1658923625946045,-0.22638249397277832,0,0,0,40000
1316667,0.2537430226802826,-0.5481163859367371,-51.0,-41.0,0.008576393127441406,-0.08785748481750488,0,0,0,40000
1316677,0.20947405695915222,-0.5772510766983032,-65.0,-35.0,0.2036268711090088,0.16931521892547607,0,0,0,40000
1316687,0.18734414875507355,-0.574347734451294,-35.0,35.0,0.19406938552856445,120.41737365722656,19.99740564594129,0.3221295262397303,0,40000
1316697,0.16272081434726715,-0.5439567565917969,-21.0,51.0,-1.8987705707550049,121.26332092285156,19.99740564594129,0.3221295262397303,0,40000
1316707,0.1578369438648224,-0.5354130864143372,16.0,12.0,-3.877568244934082,121.72207641601562,19.989631216497948,0.6439284342306029,0,40000
1316717,0.19623547792434692,-0.5164892077445984,98.0,31.0,-5.920097351074219,122.12767028808594,19.97675026771256,0.9640792194867056,0,40000
1316727,0.27259430289268494,-0.513631284236908,183.0,9.0,-5.948019027709961,122.14337921142578,19.95858284573386,1.2864566801793254,0,40000
1316737,0.48531869053840637,-0.5094186067581177,357.0,-4.0,-9.86986255645752,121.32282257080078,19.935236845980082,1.608207665283973,0,40000
1316747,0.707412838935852,-0.5055418014526367,546.0,25.0,-11.855386734008789,120.28260040283203,19.906608125165867,1.9305317793499963,0,40000
1316757,1.1670384407043457,-0.5095670223236084,735.0,-12.0,-13.81421947479248,118.00504302978516,19.872789317827202,2.25216445430903,0,40000
1316767,1.56232750415802,-0.5355941653251648,928.0,-78.0,-13.699584007263184,116.07760620117188,19.834059337612388,2.5710095667015356,0,40000
1316777,2.2963390350341797,-0.6114178895950317,1158.0,-118.0,-17.154939651489258,111.8208236694336,19.789868737136548,2.8915558730388606,0,40000
1316787,2.8766000270843506,-0.6916179656982422,1312.0,-193.0,-16.72753143310547,108.75221252441406,19.740565348032355,3.2109312885928043,0,40000
1316797,3.900019645690918,-0.8301095366477966,1531.0,-233.0,-19.81711769104004,102.57730865478516,19.686023516237256,3.5299402428587534,0,40000
1316807,4.668291091918945,-0.9455291032791138,1717.0,-239.0,-19.188007354736328,98.33744812011719,19.625897250457733,3.8502152036575272,0,40000
1316817,5.927682876586914,-1.128443717956543,1914.0,-286.0,-21.994136810302734,90.55204772949219,19.561866750187935,4.163336312128978,0,40000
1316827,6.830821514129639,-1.2695108652114868,2031.0,-306.0,-21.218868255615234,85.44970703125,19.491869994923402,4.479620977382435,0,40000
1316837,7.778236389160156,-1.4195277690887451,2100.0,-364.0,-22.308204650878906,76.8555908203125,19.4176375173939,4.7911745160343395,0,40000
1316847,9.264091491699219,-1.672338843345642,2168.0,-389.0,-22.755441665649414,70.6708984375,19.33825934970336,5.10212948910654,0,40000
1316857,10.288084983825684,-1.8320772647857666,2236.0,-398.0,-23.760913848876953,64.33499145507812,19.241968573305012,5.45404853516562,0,40000
1316867,11.830050468444824,-2.073171854019165,2250.0,-343.0,-24.52581024169922,54.74755096435547,19.15177380956351,5.762773633183692,0,40000
1316877,12.848590850830078,-2.201916217803955,2250.0,-294.0,-25.710350036621094,48.297542572021484,19.05668065384717,6.069837103027314,0,40000
1316887,14.370333671569824,-2.373408794403076,2178.0,-266.0,-26.632905960083008,38.756378173828125,18.95674821318374,6.375084092147731,0,40000
1316897,15.357202529907227,-2.4656243324279785,2067.0,-255.0,-28.025794982910156,32.356529235839844,18.851941729328857,6.678644550654672,0,40000
1316907,16.743986129760742,-2.6315648555755615,1946.0,-316.0,-28.971384048461914,23.48786735534668,18.742047136839698,6.981093690853809,0,40000
1316917,17.61700439453125,-2.7645912170410156,1807.0,-370.0,-30.110584259033203,17.63652801513672,18.62659419248724,7.283542324199175,0,40000
1316927,18.807003021240234,-2.986534833908081,1648.0,-370.0,-30.719640731811523,9.814495086669922,18.50414697242475,7.589238751212397,0,40000
1316937,19.517187118530273,-3.137401819229126,1468.0,-396.0,-31.77849578857422,4.798929214477539,18.379749985536524,7.8857333501184375,0,40000
1316947,20.45906639099121,-3.380995512008667,1244.0,-407.0,-32.22867965698242,-1.648024559020996,18.379749985536524,7.8857333501184375,0,40000
1316957,20.996694564819336,-3.5424582958221436,1033.0,-452.0,-33.18695068359375,-5.733404159545898,18.114852923957194,8.47656201200696,0,40000
1316967,21.650590896606445,-3.8409926891326904,828.0,-504.0,-33.28703689575195,-10.556558609008789,18.114852923957194,8.47656201200696,0,40000
1316977,21.995155334472656,-4.043731212615967,608.0,-563.0,-33.949737548828125,-13.569419860839844,17.97628418900572,8.766596075792643,0,40000
1316987,22.326547622680664,-4.407751560211182,345.0,-607.0,-33.65010070800781,-16.555606842041016,17.8313051219067,9.057845088621463,0,40000
1316997,22.4506778717041,-4.654716491699219,115.0,-657.0,-34.030189514160156,-18.33243179321289,17.68231820314224,9.345353014350215,0,40000
1317007,22.482742309570312,-5.086647987365723,-73.0,-680.0,-33.331947326660156,-19.61807632446289,17.52427595820661,9.638451750183837,0,40000
1317017,22.431108474731445,-5.376166343688965,-159.0,-692.0,-33.416465759277344,-20.40366554260254,17.36651606548951,9.919885067232117,0,40000
1317027,22.23745346069336,-5.815706253051758,-401.0,-645.0,-32.58558654785156,-20.367246627807617,17.203915999009148,10.199278126369391,0,40000
1317037,22.019556045532227,-6.093896865844727,-565.0,-651.0,-32.69870376586914,-20.206714630126953,17.03746483648392,10.474960235990105,0,40000
1317047,21.599124908447266,-6.528614044189453,-662.0,-621.0,-30.213943481445312,-17.826221466064453,16.864321828546046,10.751495210584682,0,40000
1317057,21.264333724975586,-6.808248043060303,-763.0,-645.0,-31.93791961669922,-18.04421615600586,16.689196672820945,11.021375341394663,0,40000
1317067,20.72978973388672,-7.26638126373291,-837.0,-671.0,-29.307275772094727,-14.964740753173828,16.509829112358105,11.288292283633199,0,40000
