timestamp,motor.m1,motor.m2,motor.m3,motor.m4,roll,pitch,yawdot,thrust
817905,7298.0,39936.0,65535.0,39936.0,0,0,0,40000
817915,7397.0,39837.0,65535.0,39837.0,0,0,0,40000
817925,7518.0,39716.0,65535.0,39716.0,0,0,0,40000
817935,7652.0,39582.0,65535.0,39582.0,0,0,0,40000
817945,7826.0,39408.0,65535.0,39408.0,0,0,0,40000
817955,8160.0,39074.0,65535.0,39074.0,0,0,0,40000
817965,8019.0,39215.0,65535.0,39215.0,0,0,0,40000
817975,8029.0,39205.0,65535.0,39205.0,0,0,0,40000
817985,8106.0,39128.0,65535.0,39128.0,0,0,0,40000
817995,7982.0,39252.0,65535.0,39252.0,0,0,0,40000
818005,7813.0,39421.0,65535.0,39421.0,0,0,0,40000
818015,7530.0,39704.0,65535.0,39704.0,0,0,0,40000
818025,7034.0,40200.0,65535.0,40200.0,0,0,0,40000
818035,8322.0,38912.0,65535.0,42456.0,0,0,0,40000
818045,21263.0,25971.0,56529.0,56237.0,0,0,0,40000
818055,24534.0,22700.0,51640.0,61126.0,0,0,0,40000
818065,35920.0,11314.0,38052.0,65535.0,0,0,0,40000
818075,34964.0,12270.0,37418.0,65535.0,0,0,0,40000
818085,39769.0,16109.0,31125.0,65535.0,0,0,0,40000
818095,40072.0,17370.0,29864.0,65535.0,0,0,0,40000
818105,46568.0,24624.0,22610.0,65535.0,0,0,0,40000
818115,44371.0,23585.0,23649.0,65535.0,0,0,0,40000
818125,50170.0,28924.0,18310.0,62596.0,0,0,0,40000
818135,51312.0,29102.0,18886.0,60700.0,0,0,0,40000
818145,55837.0,36619.0,14871.0,52673.0,0,0,0,40000
818155,43285.0,49841.0,28757.0,38117.0,0,0,0,40000
818165,42980.0,56996.0,29756.0,30268.0,0,0,0,40000
818175,32505.0,65535.0,42221.0,19349.0,0,0,0,40000
818185,34113.0,65535.0,40743.0,13121.0,0,0,0,40000
818195,32744.0,65535.0,41990.0,14490.0,0,0,0,40000
818205,34585.0,65535.0,39915.0,12649.0,0,0,0,40000
818215,32729.0,65535.0,41831.0,14505.0,0,0,0,40000
818225,35844.0,65535.0,39268.0,11390.0,0,0,0,40000
818235,32835.0,65535.0,41477.0,14399.0,0,0,0,40000
818245,34582.0,65535.0,40202.0,12652.0,0,0,0,40000
818255,32429.0,65535.0,42397.0,14805.0,0,0,0,40000
818265,33457.0,65535.0,42247.0,13777.0,0,0,0,40000
818275,31336.0,65535.0,44632.0,15898.0,0,0,0,40000
818285,33850.0,65535.0,43226.0,16872.0,0,0,0,40000
818295,36604.0,58070.0,40990.0,24336.0,0,0,0,40000
818305,42481.0,49727.0,35949.0,31843.0,0,0,0,40000
818315,44932.0,45428.0,33600.0,36040.0,0,0,0,40000
818325,50024.0,34056.0,29750.0,46170.0,0,0,0,40000
818335,48704.0,34762.0,31006.0,45528.0,0,0,0,40000
818345,48221.0,28005.0,32213.0,51561.0,0,0,0,40000
818355,43887.0,30515.0,35541.0,50057.0,0,0,0,40000
818365,45206.0,26934.0,34788.0,53072.0,0,0,0,40000
818375,38298.0,32374.0,40630.0,48698.0,0,0,0,40000
818385,33677.0,30767.0,45667.0,49889.0,0,0,0,40000
818395,29146.0,35476.0,48368.0,47010.0,0,0,0,40000
818405,26395.0,32247.0,52275.0,49083.0,0,0,0,40000
818415,23680.0,38754.0,54112.0,43454.0,0,0,0,40000
818425,19919.0,38571.0,58099.0,43411.0,0,0,0,40000
818435,19594.0,40622.0,58818.0,40966.0,0,0,0,40000
818445,18295.0,38631.0,59639.0,43435.0,0,0,0,40000
818455,18442.0,40214.0,59804.0,41540.0,0,0,0,40000
818465,19444.0,38026.0,58560.0,43970.0,0,0,0,40000
818475,22341.0,37141.0,56351.0,44167.0,0,0,0,40000
818485,23495.0,37433.0,54549.0,44523.0,0,0,0,40000
818495,26880.0,37106.0,52020.0,43994.0,0,0,0,40000
818505,29747.0,35409.0,49439.0,45405.0,0,0,0,40000
818515,30533.0,35589.0,48387.0,45491.0,0,0,0,40000
818525,32861.0,32397.0,45957.0,48785.0,0,0,0,40000
818535,34713.0,35957.0,44669.0,44661.0,0,0,0,40000
818545,37913.0,37151.0,41805.0,43131.0,0,0,0,40000
818555,37279.0,40291.0,42687.0,39743.0,0,0,0,40000
818565,37001.0,38931.0,43069.0,40999.0,0,0,0,40000
818575,36062.0,39082.0,45294.0,39562.0,0,0,0,40000
818585,36821.0,44063.0,43209.0,35907.0,0,0,0,40000
818595,38350.0,46766.0,42742.0,32142.0,0,0,0,40000
818605,38919.0,47933.0,42157.0,30991.0,0,0,0,40000
818615,37427.0,46087.0,44317.0,32169.0,0,0,0,40000
818625,37813.0,47725.0,43089.0,31373.0,0,0,0,40000
818635,38999.0,46637.0,42003.0,32361.0,0,0,0,40000
818645,40461.0,46679.0,41009.0,31851.0,0,0,0,40000
818655,40262.0,45762.0,41162.0,32814.0,0,0,0,40000
818665,41368.0,45758.0,38768.0,34106.0,0,0,0,40000
818675,40049.0,44083.0,40899.0,34969.0,0,0,0,40000
818685,40604.0,43934.0,40184.0,35278.0,0,0,0,40000
818695,40516.0,43744.0,40196.0,35544.0,0,0,0,40000
818705,41092.0,42968.0,38934.0,37006.0,0,0,0,40000
818715,39382.0,41934.0,40714.0,37970.0,0,0,0,40000
818725,38961.0,42351.0,41259.0,37429.0,0,0,0,40000
818735,37047.0,42725.0,42243.0,37985.0,0,0,0,40000
818745,37210.0,41938.0,42524.0,38328.0,0,0,0,40000
818755,35812.0,42196.0,43696.0,38296.0,0,0,0,40000
818765,34993.0,41435.0,43925.0,39647.0,0,0,0,40000
818775,34881.0,41043.0,44045.0,40031.0,0,0,0,40000
818785,34820.0,39962.0,44002.0,41216.0,0,0,0,40000
818795,34738.0,40020.0,44010.0,41232.0,0,0,0,40000
818805,33171.0,39929.0,45759.0,41141.0,0,0,0,40000
818815,32992.0,39678.0,45528.0,41802.0,0,0,0,40000
818825,31753.0,38789.0,46793.0,42665.0,0,0,0,40000
818835,32299.0,39369.0,46149.0,42183.0,0,0,0,40000
818845,31495.0,39145.0,47003.0,42357.0,0,0,0,40000
818855,31944.0,39660.0,46672.0,41724.0,0,0,0,40000
818865,31800.0,39182.0,47164.0,41854.0,0,0,0,40000
818875,31391.0,39247.0,47381.0,41981.0,0,0,0,40000
818885,31722.0,39502.0,46880.0,41896.0,0,0,0,40000
818895,31912.0,39996.0,47092.0,41000.0,0,0,0,40000
818905,31195.0,40483.0,47427.0,40895.0,0,0,0,40000
818915,32510.0,40622.0,47278.0,39590.0,0,0,0,40000
818925,32451.0,41149.0,46741.0,39659.0,0,0,0,40000
818935,32995.0,40853.0,46675.0,39477.0,0,0,0,40000
818945,33150.0,41474.0,45988.0,39388.0,0,0,0,40000
818955,35349.0,40921.0,45009.0,38721.0,0,0,0,40000
818965,33318.0,42208.0,45818.0,38656.0,0,0,0,40000
818975,34737.0,41319.0,45687.0,38257.0,0,0,0,40000
818985,35625.0,43425.0,43963.0,36987.0,0,0,0,40000
818995,35790.0,41426.0,44976.0,37808.0,0,0,0,40000
819005,35813.0,42169.0,44187.0,37831.0,0,0,0,40000
819015,36446.0,41338.0,43678.0,38538.0,0,0,0,40000
819025,36479.0,42989.0,43437.0,37095.0,0,0,0,40000
819035,37261.0,43343.0,42871.0,36525.0,0,0,0,40000
819045,36016.0,44488.0,44254.0,35242.0,0,0,0,40000
819055,36432.0,43282.0,44024.0,36262.0,0,0,0,40000
819065,36156.0,44322.0,43714.0,35808.0,0,0,0,40000
819075,35443.0,44225.0,44177.0,36155.0,0,0,0,40000
819085,35103.0,44207.0,44843.0,35847.0,0,0,0,40000
819095,35225.0,43701.0,44681.0,36393.0,0,0,0,40000
819105,36561.0,42541.0,43589.0,37309.0,0,0,0,40000
819115,36537.0,42535.0,43411.0,37517.0,0,0,0,40000
819125,37152.0,41168.0,42468.0,39212.0,0,0,0,40000
819135,36234.0,41622.0,43796.0,38348.0,0,0,0,40000
819145,36246.0,41364.0,42928.0,39462.0,0,0,0,40000
819155,36342.0,40018.0,43194.0,40446.0,0,0,0,40000
819165,36148.0,40714.0,43698.0,39440.0,0,0,0,40000
819175,35841.0,40875.0,44259.0,39025.0,0,0,0,40000
819185,33721.0,41123.0,45389.0,39767.0,0,0,0,40000
819195,33867.0,41305.0,46193.0,38635.0,0,0,0,40000
819205,33209.0,42217.0,45299.0,39275.0,0,0,0,40000
819215,33343.0,40731.0,46499.0,39427.0,0,0,0,40000
819225,32844.0,42486.0,46102.0,38568.0,0,0,0,40000
819235,33115.0,41137.0,47061.0,38687.0,0,0,0,40000
819245,31909.0,41141.0,47353.0,39597.0,0,0,0,40000
819255,33778.0,39962.0,45936.0,40324.0,0,0,0,40000
819265,32780.0,40414.0,45776.0,41030.0,0,0,0,40000
819275,33067.0,39523.0,46561.0,40849.0,0,0,0,40000
819285,32887.0,39109.0,46055.0,41949.0,0,0,0,40000
819295,34580.0,38978.0,45602.0,40840.0,0,0,0,40000
819305,33287.0,39219.0,45789.0,41705.0,0,0,0,40000
819315,34172.0,39774.0,45556.0,40498.0,0,0,0,40000
819325,33101.0,40309.0,46303.0,40287.0,0,0,0,40000
819335,33397.0,41243.0,46287.0,39073.0,0,0,0,40000
819345,33206.0,42218.0,46214.0,38362.0,0,0,0,40000
819355,34801.0,41365.0,44949.0,38885.0,0,0,0,40000
819365,34183.0,40663.0,45325.0,39829.0,0,0,0,40000
819375,33886.0,41794.0,46394.0,37926.0,0,0,0,40000
819385,34265.0,42517.0,45389.0,37829.0,0,0,0,40000
819395,34780.0,41970.0,44610.0,38640.0,0,0,0,40000
819405,36339.0,41453.0,43499.0,38709.0,0,0,0,40000
819415,36366.0,41324.0,43946.0,38364.0,0,0,0,40000
819425,36222.0,41660.0,43746.0,38372.0,0,0,0,40000
819435,34735.0,42411.0,45153.0,37701.0,0,0,0,40000
819445,35062.0,42678.0,44520.0,37740.0,0,0,0,40000
819455,36309.0,43619.0,44221.0,35851.0,0,0,0,40000
819465,34487.0,44605.0,44595.0,36313.0,0,0,0,40000
819475,34864.0,43862.0,46108.0,35166.0,0,0,0,40000
819485,34242.0,43956.0,45096.0,36706.0,0,0,0,40000
819495,34254.0,43554.0,46080.0,36112.0,0,0,0,40000
819505,34374.0,43984.0,44800.0,36842.0,0,0,0,40000
819515,34352.0,43582.0,46262.0,35804.0,0,0,0,40000
819525,34204.0,43460.0,45174.0,37162.0,0,0,0,40000
819535,34820.0,42922.0,45298.0,36960.0,0,0,0,40000
819545,34346.0,41986.0,44840.0,38828.0,0,0,0,40000
819555,35160.0,41186.0,45190.0,38464.0,0,0,0,40000
819565,35810.0,40854.0,43524.0,39812.0,0,0,0,40000
819575,35643.0,39873.0,44033.0,40451.0,0,0,0,40000
819585,34965.0,40739.0,44111.0,40185.0,0,0,0,40000
819595,35199.0,38635.0,44843.0,41323.0,0,0,0,40000
819605,35452.0,39458.0,43924.0,41166.0,0,0,0,40000
819615,34797.0,40061.0,45203.0,39939.0,0,0,0,40000
819625,33832.0,40824.0,45034.0,40310.0,0,0,0,40000
819635,33659.0,40791.0,46191.0,39359.0,0,0,0,40000
819645,33756.0,40384.0,45190.0,40670.0,0,0,0,40000
819655,34836.0,40108.0,45914.0,39142.0,0,0,0,40000
819665,33402.0,41232.0,45300.0,40066.0,0,0,0,40000
819675,34331.0,40199.0,46001.0,39469.0,0,0,0,40000
819685,33738.0,41192.0,45258.0,39812.0,0,0,0,40000
819695,33915.0,41257.0,46085.0,38743.0,0,0,0,40000
819705,33295.0,41027.0,45831.0,39847.0,0,0,0,40000
819715,34391.0,41377.0,45861.0,38371.0,0,0,0,40000
819725,33736.0,42888.0,46070.0,37306.0,0,0,0,40000
819735,34642.0,41894.0,44640.0,38824.0,0,0,0,40000
819745,33149.0,43611.0,46693.0,36547.0,0,0,0,40000
819755,33538.0,43472.0,45478.0,37512.0,0,0,0,40000
819765,34780.0,41692.0,45956.0,37572.0,0,0,0,40000
819775,34888.0,42138.0,44628.0,38346.0,0,0,0,40000
819785,35651.0,41727.0,44537.0,38085.0,0,0,0,40000
819795,36554.0,41224.0,43266.0,38956.0,0,0,0,40000
819805,37279.0,41281.0,42961.0,38479.0,0,0,0,40000
819815,36602.0,41114.0,42590.0,39694.0,0,0,0,40000
819825,37652.0,40930.0,42562.0,38856.0,0,0,0,40000
819835,37949.0,40137.0,41501.0,40413.0,0,0,0,40000
819845,37259.0,39147.0,43471.0,40123.0,0,0,0,40000
819855,36616.0,39916.0,42634.0,40834.0,0,0,0,40000
819865,36364.0,41640.0,43750.0,38246.0,0,0,0,40000
819875,35954.0,42804.0,43490.0,37752.0,0,0,0,40000
819885,35994.0,41502.0,44358.0,38146.0,0,0,0,40000
819895,34859.0,42743.0,44373.0,38025.0,0,0,0,40000
819905,34064.0,42166.0,46450.0,37320.0,0,0,0,40000
819915,33061.0,44827.0,46035.0,36077.0,0,0,0,40000
819925,32898.0,42926.0,47444.0,36732.0,0,0,0,40000
819935,32463.0,43587.0,46537.0,37413.0,0,0,0,40000
819945,33272.0,42868.0,46432.0,37428.0,0,0,0,40000
819955,33052.0,42940.0,46982.0,37026.0,0,0,0,40000
819965,33511.0,43171.0,45977.0,37341.0,0,0,0,40000
819975,33729.0,41771.0,46343.0,38157.0,0,0,0,40000
819985,34590.0,40390.0,45058.0,39962.0,0,0,0,40000
819995,35240.0,41010.0,44254.0,39496.0,0,0,0,40000
820005,35791.0,40985.0,43711.0,39513.0,0,0,0,40000
820015,35258.0,40558.0,44460.0,39724.0,0,0,0,40000
820025,36127.0,40081.0,43633.0,40159.0,0,0,0,40000
820035,35387.0,40311.0,44327.0,39975.0,0,0,0,40000
820045,34122.0,41046.0,45524.0,39308.0,0,0,0,40000
820055,34029.0,41929.0,45801.0,38241.0,0,0,0,40000
820065,33491.0,42539.0,46143.0,37827.0,0,0,0,40000
820075,34093.0,42697.0,45155.0,38055.0,0,0,0,40000
820085,34031.0,42661.0,46199.0,37109.0,0,0,0,40000
820095,32744.0,42790.0,46564.0,37902.0,0,0,0,40000
820105,34492.0,41062.0,45650.0,38796.0,0,0,0,40000
820115,34754.0,41530.0,44376.0,39340.0,0,0,0,40000
820125,35213.0,41223.0,45159.0,38405.0,0,0,0,40000
820135,35643.0,41761.0,43559.0,39037.0,0,0,0,40000
820145,35700.0,41644.0,44420.0,38236.0,0,0,0,40000
820155,35538.0,40878.0,43646.0,39938.0,0,0,0,40000
820165,35552.0,39946.0,44636.0,39866.0,0,0,0,40000
820175,34680.0,40738.0,44308.0,40274.0,0,0,0,40000
820185,37291.0,40249.0,43051.0,39409.0,0,0,0,40000
820195,36505.0,41121.0,42947.0,39427.0,0,0,0,40000
820205,35614.0,41436.0,44434.0,38516.0,0,0,0,40000
820215,34330.0,42186.0,44864.0,38620.0,0,0,0,40000
820225,35482.0,40206.0,44772.0,39540.0,0,0,0,40000
820235,33656.0,41538.0,45500.0,39306.0,0,0,0,40000
820245,34511.0,42259.0,45715.0,37515.0,0,0,0,40000
820255,32882.0,43714.0,46400.0,37004.0,0,0,0,40000
820265,33634.0,42202.0,46584.0,37580.0,0,0,0,40000
820275,32945.0,42757.0,46409.0,37889.0,0,0,0,40000
820285,33977.0,42371.0,46355.0,37297.0,0,0,0,40000
820295,33212.0,42558.0,45994.0,38236.0,0,0,0,40000
820305,34832.0,40814.0,45370.0,38984.0,0,0,0,40000
820315,34622.0,40640.0,44646.0,40092.0,0,0,0,40000
820325,35538.0,39628.0,44562.0,40272.0,0,0,0,40000
820335,35093.0,40297.0,44193.0,40417.0,0,0,0,40000
820345,36072.0,39132.0,43914.0,40882.0,0,0,0,40000
820355,36151.0,40087.0,43263.0,40499.0,0,0,0,40000
820365,36314.0,39416.0,43480.0,40790.0,0,0,0,40000
820375,35414.0,38360.0,44102.0,42124.0,0,0,0,40000
820385,36052.0,41012.0,43974.0,38962.0,0,0,0,40000
820395,34947.0,40535.0,44643.0,39875.0,0,0,0,40000
820405,35686.0,40774.0,44086.0,39454.0,0,0,0,40000
820415,34453.0,41647.0,45051.0,38849.0,0,0,0,40000
820425,33826.0,42100.0,46038.0,38036.0,0,0,0,40000
820435,33499.0,41817.0,46363.0,38321.0,0,0,0,40000
820445,33439.0,43077.0,46627.0,36857.0,0,0,0,40000
820455,33509.0,44409.0,46189.0,35893.0,0,0,0,40000
820465,32546.0,43774.0,46912.0,36768.0,0,0,0,40000
820475,33356.0,42950.0,47028.0,36666.0,0,0,0,40000
820485,34869.0,42535.0,44723.0,37873.0,0,0,0,40000
820495,35189.0,41597.0,44497.0,38717.0,0,0,0,40000
820505,36046.0,40974.0,43808.0,39172.0,0,0,0,40000
820515,36011.0,39917.0,43843.0,40229.0,0,0,0,40000
820525,36488.0,39712.0,43518.0,40282.0,0,0,0,40000
820535,36882.0,40844.0,42458.0,39816.0,0,0,0,40000
820545,35832.0,41450.0,44242.0,38476.0,0,0,0,40000
820555,34754.0,41536.0,44568.0,39142.0,0,0,0,40000
820565,35598.0,40498.0,44822.0,39082.0,0,0,0,40000
820575,33131.0,41839.0,45751.0,39279.0,0,0,0,40000
820585,33685.0,42167.0,46669.0,37479.0,0,0,0,40000
820595,33447.0,43365.0,45471.0,37717.0,0,0,0,40000
820605,34126.0,40298.0,46738.0,38838.0,0,0,0,40000
820615,34531.0,41007.0,44521.0,39941.0,0,0,0,40000
820625,34168.0,41838.0,45824.0,38170.0,0,0,0,40000
820635,34729.0,41501.0,44711.0,39059.0,0,0,0,40000
820645,35659.0,39957.0,44167.0,40217.0,0,0,0,40000
820655,35369.0,40215.0,44331.0,40085.0,0,0,0,40000
820665,35511.0,41051.0,44189.0,39249.0,0,0,0,40000
820675,35152.0,40176.0,44394.0,40278.0,0,0,0,40000
820685,34900.0,41016.0,45026.0,39058.0,0,0,0,40000
820695,34942.0,40698.0,44316.0,40044.0,0,0,0,40000
820705,34438.0,40786.0,45588.0,39188.0,0,0,0,40000
820715,34716.0,41906.0,45112.0,38266.0,0,0,0,40000
820725,34401.0,42477.0,45377.0,37745.0,0,0,0,40000
820735,33767.0,41819.0,45889.0,38525.0,0,0,0,40000
820745,33447.0,41741.0,45781.0,39031.0,0,0,0,40000
820755,34565.0,41543.0,45643.0,38249.0,0,0,0,40000
820765,34586.0,41798.0,44798.0,38818.0,0,0,0,40000
820775,36084.0,42194.0,44284.0,37438.0,0,0,0,40000
820785,33460.0,43268.0,45614.0,37658.0,0,0,0,40000
820795,34540.0,42350.0,45714.0,37396.0,0,0,0,40000
820805,34988.0,41510.0,44070.0,39432.0,0,0,0,40000
820815,35880.0,42272.0,44610.0,37238.0,0,0,0,40000
820825,35337.0,42795.0,43931.0,37937.0,0,0,0,40000
820835,35316.0,42556.0,45054.0,37074.0,0,0,0,40000
820845,36260.0,41420.0,43200.0,39120.0,0,0,0,40000
820855,37119.0,40345.0,43073.0,39463.0,0,0,0,40000
820865,35650.0,40776.0,44096.0,39478.0,0,0,0,40000
820875,35518.0,40986.0,44210.0,39286.0,0,0,0,40000
820885,35496.0,41650.0,44384.0,38470.0,0,0,0,40000
820895,35167.0,43583.0,44385.0,36865.0,0,0,0,40000
820905,35712.0,42246.0,44494.0,37548.0,0,0,0,40000
820915,33358.0,43730.0,45592.0,37320.0,0,0,0,40000
820925,34908.0,42000.0,45452.0,37640.0,0,0,0,40000
820935,33333.0,42935.0,45843.0,37889.0,0,0,0,40000
820945,33913.0,42179.0,46625.0,37283.0,0,0,0,40000
820955,33186.0,43632.0,46058.0,37124.0,0,0,0,40000
820965,34392.0,42044.0,45764.0,37800.0,0,0,0,40000
820975,36264.0,41010.0,43376.0,39350.0,0,0,0,40000
820985,35555.0,41179.0,44255.0,39011.0,0,0,0,40000
820995,35524.0,40780.0,44178.0,39518.0,0,0,0,40000
821005,35814.0,40386.0,43926.0,39874.0,0,0,0,40000
821015,35987.0,40445.0,43917.0,39651.0,0,0,0,40000
821025,35703.0,40747.0,43865.0,39685.0,0,0,0,40000
821035,34920.0,40994.0,44552.0,39534.0,0,0,0,40000
821045,34577.0,41699.0,45015.0,38709.0,0,0,0,40000
821055,35113.0,41251.0,44949.0,38687.0,0,0,0,40000
821065,33858.0,42618.0,45742.0,37782.0,0,0,0,40000
821075,33197.0,42123.0,46905.0,37775.0,0,0,0,40000
821085,34460.0,42714.0,44804.0,38022.0,0,0,0,40000
821095,34815.0,41473.0,45363.0,38349.0,0,0,0,40000
821105,33510.0,42266.0,45096.0,39128.0,0,0,0,40000
821115,34437.0,41145.0,45705.0,38713.0,0,0,0,40000
821125,34571.0,41905.0,44981.0,38543.0,0,0,0,40000
821135,35007.0,41625.0,45101.0,38267.0,0,0,0,40000
821145,35402.0,41296.0,44262.0,39040.0,0,0,0,40000
821155,35470.0,41734.0,44628.0,38168.0,0,0,0,40000
821165,33912.0,41972.0,45924.0,38192.0,0,0,0,40000
821175,34812.0,41866.0,44692.0,38630.0,0,0,0,40000
821185,34343.0,43343.0,45357.0,36957.0,0,0,0,40000
821195,34989.0,43079.0,44835.0,37097.0,0,0,0,40000
821205,33379.0,43613.0,46497.0,36511.0,0,0,0,40000
821215,34085.0,42709.0,45523.0,37683.0,0,0,0,40000
821225,34285.0,42041.0,45497.0,38177.0,0,0,0,40000
821235,34978.0,41476.0,44732.0,38814.0,0,0,0,40000
821245,35004.0,41346.0,44690.0,38960.0,0,0,0,40000
821255,35375.0,40725.0,44239.0,39661.0,0,0,0,40000
821265,35612.0,40494.0,44050.0,39844.0,0,0,0,40000
821275,36123.0,39861.0,43789.0,40227.0,0,0,0,40000
821285,35842.0,40160.0,43722.0,40276.0,0,0,0,40000
821295,37093.0,39207.0,42829.0,40871.0,0,0,0,40000
821305,37357.0,39649.0,42221.0,40773.0,0,0,0,40000
821315,35091.0,40277.0,44531.0,40101.0,0,0,0,40000
821325,34537.0,42157.0,45101.0,38205.0,0,0,0,40000
821335,34981.0,42671.0,44979.0,37369.0,0,0,0,40000
821345,34529.0,42599.0,45209.0,37663.0,0,0,0,40000
821355,33873.0,41911.0,45703.0,38513.0,0,0,0,40000
821365,33684.0,42390.0,46338.0,37588.0,0,0,0,40000
821375,33378.0,42718.0,46310.0,37594.0,0,0,0,40000
821385,34083.0,42623.0,45991.0,37303.0,0,0,0,40000
821395,34537.0,42157.0,44779.0,38527.0,0,0,0,40000
821405,33910.0,41376.0,45942.0,38772.0,0,0,0,40000
821415,33960.0,41388.0,46008.0,38644.0,0,0,0,40000
821425,34834.0,39400.0,44950.0,40816.0,0,0,0,40000
821435,35164.0,41624.0,44606.0,38606.0,0,0,0,40000
821445,34479.0,41163.0,45137.0,39221.0,0,0,0,40000
821455,33743.0,40261.0,45817.0,40179.0,0,0,0,40000
821465,33824.0,40044.0,45952.0,40180.0,0,0,0,40000
821475,33884.0,41214.0,45380.0,39522.0,0,0,0,40000
821485,33689.0,41247.0,46167.0,38897.0,0,0,0,40000
821495,33822.0,40698.0,45948.0,39532.0,0,0,0,40000
821505,34709.0,40139.0,45321.0,39831.0,0,0,0,40000
821515,33823.0,40019.0,45497.0,40661.0,0,0,0,40000
821525,33540.0,40716.0,46532.0,39212.0,0,0,0,40000
821535,34683.0,41219.0,44489.0,39609.0,0,0,0,40000
821545,35655.0,40851.0,44457.0,39037.0,0,0,0,40000
821555,34394.0,40590.0,45260.0,39756.0,0,0,0,40000
821565,34812.0,39804.0,45386.0,39998.0,0,0,0,40000
821575,35248.0,40510.0,44146.0,40096.0,0,0,0,40000
821585,35466.0,40492.0,44682.0,39360.0,0,0,0,40000
821595,33282.0,41146.0,45854.0,39718.0,0,0,0,40000
821605,34350.0,41242.0,46168.0,38240.0,0,0,0,40000
821615,32601.0,41409.0,46385.0,39605.0,0,0,0,40000
821625,33148.0,41454.0,47258.0,38140.0,0,0,0,40000
821635,33121.0,43895.0,46163.0,36821.0,0,0,0,40000
821645,33316.0,43014.0,47092.0,36578.0,0,0,0,40000
821655,33382.0,42930.0,45542.0,38146.0,0,0,0,40000
821665,33139.0,41571.0,46935.0,38355.0,0,0,0,40000
821675,33823.0,42417.0,45835.0,37925.0,0,0,0,40000
821685,34020.0,41516.0,46392.0,38072.0,0,0,0,40000
821695,34028.0,41904.0,45204.0,38864.0,0,0,0,40000
821705,34516.0,40646.0,45490.0,39348.0,0,0,0,40000
821715,34735.0,40189.0,44373.0,40703.0,0,0,0,40000
821725,35410.0,39234.0,44846.0,40510.0,0,0,0,40000
821735,34849.0,40723.0,44509.0,39919.0,0,0,0,40000
821745,35314.0,39908.0,44826.0,39952.0,0,0,0,40000
821755,35261.0,39249.0,44221.0,41269.0,0,0,0,40000
821765,35007.0,40443.0,44739.0,39811.0,0,0,0,40000
821775,33796.0,41834.0,46000.0,38370.0,0,0,0,40000
821785,33866.0,40768.0,45990.0,39376.0,0,0,0,40000
821795,34618.0,40790.0,44834.0,39758.0,0,0,0,40000
821805,35264.0,41638.0,44868.0,38230.0,0,0,0,40000
821815,32640.0,42842.0,46644.0,37874.0,0,0,0,40000
821825,33380.0,42468.0,47058.0,37094.0,0,0,0,40000
821835,33740.0,42618.0,45186.0,38456.0,0,0,0,40000
821845,33805.0,41283.0,46181.0,38731.0,0,0,0,40000
821855,33220.0,42076.0,46326.0,38378.0,0,0,0,40000
821865,35404.0,41318.0,45008.0,38270.0,0,0,0,40000
821875,35892.0,40506.0,43730.0,39872.0,0,0,0,40000
821885,36661.0,39345.0,43123.0,40871.0,0,0,0,40000
821895,35624.0,40816.0,43674.0,39886.0,0,0,0,40000
821905,35955.0,40033.0,44165.0,39847.0,0,0,0,40000
821915,35449.0,40983.0,43623.0,39945.0,0,0,0,40000
821925,36420.0,39074.0,43720.0,40786.0,0,0,0,40000
821935,35205.0,41559.0,44033.0,39203.0,0,0,0,40000
821945,35376.0,40970.0,44994.0,38660.0,0,0,0,40000
821955,33741.0,40901.0,45701.0,39657.0,0,0,0,40000
821965,35295.0,40543.0,45111.0,39051.0,0,0,0,40000
821975,35771.0,42491.0,43201.0,38537.0,0,0,0,40000
821985,33710.0,42826.0,46996.0,36468.0,0,0,0,40000
821995,34101.0,42555.0,44895.0,38449.0,0,0,0,40000
822005,35019.0,42287.0,45343.0,37351.0,0,0,0,40000
822015,33524.0,41226.0,45166.0,40084.0,0,0,0,40000
822025,36031.0,40813.0,45031.0,38125.0,0,0,0,40000
822035,35260.0,41180.0,43784.0,39776.0,0,0,0,40000
822045,36429.0,39393.0,43921.0,40257.0,0,0,0,40000
822055,35645.0,40999.0,43329.0,40027.0,0,0,0,40000
822065,36575.0,40115.0,43663.0,39647.0,0,0,0,40000
822075,35270.0,40366.0,43960.0,40404.0,0,0,0,40000
822085,35398.0,40560.0,44888.0,39154.0,0,0,0,40000
822095,34770.0,41412.0,44400.0,39418.0,0,0,0,40000
822105,35469.0,41247.0,44907.0,38377.0,0,0,0,40000
822115,34198.0,42384.0,44898.0,38520.0,0,0,0,40000
822125,34945.0,41961.0,45101.0,37993.0,0,0,0,40000
822135,32937.0,42137.0,46591.0,38335.0,0,0,0,40000
822145,33508.0,41832.0,46370.0,38290.0,0,0,0,40000
822155,34222.0,41992.0,45820.0,37966.0,0,0,0,40000
822165,34137.0,42901.0,45683.0,37279.0,0,0,0,40000
822175,34061.0,41953.0,45465.0,38521.0,0,0,0,40000
822185,34076.0,40828.0,45658.0,39438.0,0,0,0,40000
822195,35373.0,39831.0,44493.0,40303.0,0,0,0,40000
822205,34667.0,41361.0,44483.0,39489.0,0,0,0,40000
822215,34969.0,40629.0,45231.0,39171.0,0,0,0,40000
822225,35080.0,41630.0,44912.0,38378.0,0,0,0,40000
822235,34719.0,40657.0,44983.0,39641.0,0,0,0,40000
822245,35194.0,40128.0,44118.0,40560.0,0,0,0,40000
822255,34494.0,40122.0,45064.0,40320.0,0,0,0,40000
822265,33839.0,41069.0,46015.0,39077.0,0,0,0,40000
822275,34696.0,41560.0,45144.0,38600.0,0,0,0,40000
822285,34168.0,41850.0,45676.0,38306.0,0,0,0,40000
822295,34532.0,41752.0,45612.0,38104.0,0,0,0,40000
822305,33769.0,41071.0,45879.0,39281.0,0,0,0,40000
822315,33181.0,41417.0,46633.0,38769.0,0,0,0,40000
822325,34254.0,41308.0,45318.0,39120.0,0,0,0,40000
822335,34086.0,41932.0,45350.0,38632.0,0,0,0,40000
822345,34050.0,41980.0,45954.0,38016.0,0,0,0,40000
822355,33464.0,42454.0,46242.0,37840.0,0,0,0,40000
822365,34343.0,41361.0,45825.0,38471.0,0,0,0,40000
822375,34634.0,41050.0,44846.0,39470.0,0,0,0,40000
822385,35948.0,40600.0,43862.0,39590.0,0,0,0,40000
822395,35308.0,41114.0,44412.0,39166.0,0,0,0,40000
822405,35585.0,40233.0,44345.0,39837.0,0,0,0,40000
822415,34607.0,39761.0,44791.0,40841.0,0,0,0,40000
822425,34649.0,41125.0,45397.0,38829.0,0,0,0,40000
822435,34751.0,42187.0,44759.0,38303.0,0,0,0,40000
822445,34728.0,41820.0,45200.0,38252.0,0,0,0,40000
822455,34502.0,41748.0,45018.0,38732.0,0,0,0,40000
822465,33911.0,42045.0,46395.0,37649.0,0,0,0,40000
822475,33600.0,41886.0,46338.0,38176.0,0,0,0,40000
822485,33705.0,43855.0,45441.0,36999.0,0,0,0,40000
822495,34503.0,42991.0,45523.0,36983.0,0,0,0,40000
822505,34508.0,42846.0,45448.0,37198.0,0,0,0,40000
822515,34562.0,42366.0,45360.0,37712.0,0,0,0,40000
822525,34739.0,42323.0,44731.0,38207.0,0,0,0,40000
822535,35872.0,41416.0,44112.0,38600.0,0,0,0,40000
822545,36519.0,41823.0,43107.0,38551.0,0,0,0,40000
822555,36046.0,41158.0,43824.0,38972.0,0,0,0,40000
822565,35795.0,40853.0,43489.0,39863.0,0,0,0,40000
822575,35418.0,40208.0,44666.0,39708.0,0,0,0,40000
822585,35918.0,40324.0,43998.0,39760.0,0,0,0,40000
822595,35871.0,41599.0,43903.0,38627.0,0,0,0,40000
822605,36619.0,41711.0,42661.0,39009.0,0,0,0,40000
822615,34610.0,41984.0,45048.0,38358.0,0,0,0,40000
822625,34148.0,41538.0,45372.0,38942.0,0,0,0,40000
822635,34405.0,41709.0,46151.0,37735.0,0,0,0,40000
822645,32644.0,42920.0,46876.0,37560.0,0,0,0,40000
822655,33564.0,42304.0,46438.0,37694.0,0,0,0,40000
822665,32889.0,44009.0,46333.0,36769.0,0,0,0,40000
822675,34024.0,42044.0,45950.0,37982.0,0,0,0,40000
822685,34608.0,42258.0,44292.0,38842.0,0,0,0,40000
822695,35238.0,40712.0,45158.0,38892.0,0,0,0,40000
822705,34261.0,40809.0,45235.0,39695.0,0,0,0,40000
822715,34398.0,40404.0,46006.0,39192.0,0,0,0,40000
822725,35286.0,40910.0,43472.0,40332.0,0,0,0,40000
822735,36731.0,39757.0,42919.0,40593.0,0,0,0,40000
822745,35555.0,40267.0,43485.0,40693.0,0,0,0,40000
822755,36328.0,40100.0,44198.0,39374.0,0,0,0,40000
822765,36486.0,39536.0,42810.0,41168.0,0,0,0,40000
822775,35000.0,40758.0,44482.0,39760.0,0,0,0,40000
822785,35070.0,40766.0,44166.0,39998.0,0,0,0,40000
822795,34860.0,40840.0,45224.0,39076.0,0,0,0,40000
822805,34659.0,41477.0,44497.0,39367.0,0,0,0,40000
822815,34296.0,41782.0,45516.0,38406.0,0,0,0,40000
822825,34097.0,41565.0,45477.0,38861.0,0,0,0,40000
822835,34402.0,41102.0,45612.0,38884.0,0,0,0,40000
822845,34241.0,41201.0,44985.0,39573.0,0,0,0,40000
822855,33890.0,42302.0,45936.0,37872.0,0,0,0,40000
822865,32794.0,42214.0,45806.0,39186.0,0,0,0,40000
822875,33679.0,42707.0,47047.0,36567.0,0,0,0,40000
822885,33140.0,43856.0,45866.0,37138.0,0,0,0,40000
822895,34533.0,42097.0,45709.0,37661.0,0,0,0,40000
822905,34886.0,41560.0,44970.0,38584.0,19.999999988639303,0.0006741126507986673,0,40000
822915,20351.0,26883.0,59701.0,53065.0,19.997413361142552,0.32165021933367743,0,40000
822925,20409.0,26825.0,59141.0,53625.0,19.98967169109442,0.6426707417164776,0,40000
822935,21072.0,26162.0,59090.0,53676.0,19.97492234899804,1.0012378096629617,0,40000
822945,20474.0,28134.0,58196.0,53196.0,19.95622365846723,1.3225495428273493,0,40000
822955,22635.0,29305.0,57825.0,50235.0,19.931815266733388,1.6500727780355358,0,40000
822965,21993.0,32635.0,57335.0,48037.0,19.931815266733388,1.6500727780355358,0,40000
822975,25349.0,32889.0,55113.0,46649.0,19.86793550990719,2.2945889771740764,0,40000
822985,24391.0,35463.0,55387.0,44759.0,19.828523884863046,2.613358097815099,0,40000
822995,28266.0,37784.0,52372.0,41578.0,19.828523884863046,2.613358097815099,0,40000
823005,29670.0,41152.0,50114.0,39064.0,19.783819148716006,2.932660889175202,0,40000
823015,34811.0,44759.0,46055.0,34375.0,19.733870666791088,3.2518223362235354,0,40000
823025,32223.0,44501.0,48009.0,35267.0,19.679091810796457,3.5683813560554034,0,40000
823035,37512.0,46646.0,43724.0,32118.0,19.61815371873595,3.8894787141783955,0,40000
823045,36227.0,47461.0,44023.0,32289.0,19.55259452543625,4.206667008913403,0,40000
823055,40542.0,48982.0,41000.0,29476.0,19.482247749388776,4.521285506516487,0,40000
823065,39941.0,50347.0,40939.0,28773.0,19.406898579052267,4.83448937762605,0,40000
823075,43471.0,54261.0,37817.0,24451.0,19.325542829537234,5.150086828755606,0,40000
823085,41033.0,52601.0,39417.0,26949.0,19.239736467437037,5.461917306548435,0,40000
823095,43682.0,54458.0,38106.0,23754.0,19.14922094172261,5.771250932431565,0,40000
823105,42157.0,52065.0,38349.0,27429.0,19.053331612844513,6.080341639330794,0,40000
823115,45717.0,53507.0,36105.0,24671.0,18.951065582385922,6.391956921953378,0,40000
823125,44240.0,52288.0,36718.0,26754.0,18.845504916089123,6.696786129007004,0,40000
823135,47278.0,54048.0,33926.0,24748.0,18.73091716080754,7.010901676315653,0,40000
823145,44332.0,50204.0,36678.0,28786.0,18.6157691327625,7.311165406122802,0,40000
823155,45305.0,48915.0,35379.0,30401.0,18.49577962134929,7.609608150127073,0,40000
823165,40633.0,48469.0,39933.0,30965.0,18.371017763222664,7.906055043026031,0,40000
823175,42747.0,48855.0,38459.0,29939.0,18.2415079425338,8.200450474362755,0,40000
823185,39722.0,47872.0,40542.0,31864.0,18.107306245744248,8.492670988730897,0,40000
823195,40212.0,46200.0,40012.0,33576.0,17.96846643705129,8.78260860454121,0,40000
823205,36466.0,44766.0,43272.0,35496.0,17.824947095110232,9.070350657858894,0,40000
823215,35677.0,42503.0,44369.0,37451.0,17.673206574685736,9.362572796431806,0,40000
823225,34446.0,41916.0,44500.0,39138.0,17.518829784585165,9.648347163049827,0,40000
823235,33715.0,39641.0,45075.0,41569.0,17.359966337411148,9.931342747280036,0,40000
823245,32863.0,40487.0,46291.0,40359.0,17.197908447432322,10.209404734544322,0,40000
823255,31663.0,40407.0,46371.0,41559.0,17.031554169928057,10.484567828804682,0,40000
823265,31211.0,39103.0,47571.0,42115.0,16.861329478382892,10.75618743893096,0,40000
823275,28795.0,37809.0,48849.0,44547.0,16.685522197385346,11.026937426165116,0,40000
823285,28369.0,39247.0,49481.0,42903.0,16.685522197385346,11.026937426165116,0,40000
823295,28416.0,35706.0,48958.0,46920.0,16.322402226654877,11.557646194242665,0,40000
823305,27890.0,37462.0,49808.0,44840.0,16.322402226654877,11.557646194242665,0,40000
823315,27153.0,36251.0,49895.0,46701.0,16.133698177764863,11.819635489675084,0,40000
823325,28094.0,37178.0,49816.0,44912.0,15.941567389112617,12.077517508924636,0,40000
823335,29168.0,35802.0,48434.0,46596.0,15.744816199282472,12.332913802131767,0,40000
823345,29393.0,37569.0,48603.0,44435.0,15.54371455611376,12.585425610524945,0,40000
823355,29335.0,37663.0,47819.0,45183.0,15.338856819454287,12.834308375299413,0,40000
823365,29931.0,38805.0,48777.0,42487.0,15.122110419187909,13.088994478946368,0,40000
823375,30961.0,40071.0,46971.0,41997.0,14.905266645739239,13.33540498895378,0,40000
823385,32498.0,40132.0,45780.0,41590.0,14.68485564687229,13.577739673101817,0,40000
823395,32136.0,41276.0,46716.0,39872.0,14.464504341749791,13.812245079910126,0,40000
823405,34225.0,38609.0,45165.0,42001.0,14.233217344257636,14.050463481007435,0,40000
823415,34631.0,39625.0,44349.0,41395.0,14.00606747309299,14.276907015847884,0,40000
823425,35495.0,43277.0,44103.0,37125.0,13.77004722714698,14.504681980730973,0,40000
823435,37582.0,41544.0,42728.0,38146.0,13.531227876216207,14.727724609114247,0,40000
823445,35862.0,42872.0,44366.0,36900.0,13.291186318616221,14.94471030979955,0,40000
823455,37285.0,42749.0,42703.0,37263.0,13.042391261026324,15.162322717654579,0,40000
823465,37549.0,44279.0,42665.0,35507.0,12.790016590274034,15.37580812902252,0,40000
823475,38521.0,44509.0,42343.0,34627.0,12.541874324211387,15.578876353437279,0,40000
823485,38002.0,45178.0,42130.0,34690.0,12.290922064762322,15.777618159847155,0,40000
823495,38716.0,44458.0,41742.0,35084.0,12.035690434186508,15.97316987239638,0,40000
823505,38067.0,44763.0,42613.0,34557.0,11.777015110411027,16.16483575818667,0,40000
823515,38811.0,44253.0,41685.0,35251.0,11.50918774397412,16.356607150444006,0,40000
823525,37531.0,45909.0,42079.0,34481.0,11.246588823048633,16.538265926186988,0,40000
823535,38580.0,44780.0,41132.0,35508.0,10.97895709565681,16.717131963699007,0,40000
823545,36852.0,45130.0,42606.0,35412.0,10.709088568598391,16.891282427036593,0,40000
823555,36590.0,43184.0,42672.0,37554.0,10.437429423101126,17.060482614445082,0,40000
823565,37262.0,43762.0,41694.0,37282.0,10.161884767427207,17.226029663666868,0,40000
823575,37926.0,41776.0,40980.0,39318.0,9.876629583160629,17.39115258046563,0,40000
823585,37147.0,42939.0,41623.0,38291.0,9.876629583160629,17.39115258046563,0,40000
823595,36767.0,42887.0,41015.0,39331.0,9.586673973120977,17.552654560865854,0,40000
823605,35057.0,42605.0,42299.0,40039.0,9.29858126942155,17.706958699222255,0,40000
823615,34926.0,42460.0,42390.0,40224.0,9.002929579020066,17.859094573779647,0,40000
823625,33911.0,42909.0,42873.0,40307.0,8.714182073852234,18.001750769959916,0,40000
823635,34827.0,45623.0,42869.0,36681.0,8.424051198945728,18.139331889503016,0,40000
823645,31482.0,45028.0,44858.0,38632.0,8.132316902124629,18.271984615892663,0,40000
823655,30806.0,44962.0,46238.0,37994.0,7.836199784508354,18.400923154485245,0,40000
823665,32015.0,45179.0,43819.0,38987.0,7.539267140296902,18.524563449302644,0,40000
823675,32162.0,44094.0,44650.0,39094.0,7.240433416181819,18.643393573752544,0,40000
823685,32993.0,45413.0,42389.0,39205.0,6.934037247790875,18.759507654686697,0,40000
823695,32605.0,42781.0,44141.0,40473.0,6.630910483382287,18.868784437831994,0,40000
823705,32858.0,41466.0,43344.0,42332.0,6.32433586308119,18.97373911201862,0,40000
823715,32743.0,39661.0,44007.0,43589.0,6.014379504330981,19.07425592724087,0,40000
823725,32925.0,42175.0,43207.0,41693.0,5.700859551694112,19.17029473878422,0,40000
823735,33115.0,40429.0,43173.0,43283.0,5.389947627873143,19.26002244465942,0,40000
823745,33458.0,40836.0,42768.0,42938.0,5.078030356053107,19.34460151316132,0,40000
823755,32336.0,39964.0,44510.0,43190.0,4.76088064597173,19.425087270712886,0,40000
823765,32374.0,43706.0,43728.0,40192.0,4.448868481092265,19.498912001389815,0,40000
823775,33307.0,40909.0,43695.0,42089.0,4.13039247549647,19.568849174092023,0,40000
823785,32871.0,42557.0,43893.0,40679.0,3.8152449887284363,19.632725375657415,0,40000
823795,32041.0,41981.0,44993.0,40985.0,3.4987572970904974,19.691589508621593,0,40000
823805,33252.0,43154.0,43704.0,39890.0,3.182753379220708,19.745128030151115,0,40000
823815,33625.0,42695.0,43621.0,40059.0,2.8625888596645392,19.794079544664978,0,40000
823825,33681.0,43703.0,43507.0,39109.0,2.5425800003694716,19.837723834697396,0,40000
823835,32573.0,42775.0,44809.0,39843.0,2.2223993850851262,19.876139991788477,0,40000
823845,34352.0,43900.0,42738.0,39010.0,1.9016186249700129,19.909390914971937,0,40000
823855,33867.0,42855.0,43663.0,39615.0,1.5802314150316323,19.93747397929204,0,40000
823865,34851.0,43957.0,42795.0,38397.0,1.2556372611902142,19.960545460189977,0,40000
823875,35396.0,42638.0,42466.0,39500.0,0.9241264639777745,19.97863834896102,0,40000
823885,36261.0,44377.0,41281.0,38081.0,0.5975942990789639,19.991070032734825,0,40000
823895,35399.0,43787.0,42643.0,38171.0,0.2754487008561904,19.998103110375162,0,40000
823905,35318.0,44606.0,42030.0,38046.0,0.2754487008561904,19.998103110375162,0,40000
823915,36435.0,43531.0,41433.0,38601.0,-0.054700428355838146,19.999925196438554,0,40000
823925,35198.0,43038.0,42902.0,38862.0,-0.3788211648093562,19.99641204129112,0,40000
823935,35962.0,42770.0,41732.0,39536.0,-0.701936649712457,19.987678327904682,0,40000
823945,36442.0,44496.0,41390.0,37672.0,-1.0235896555544357,19.973789430577312,0,40000
823955,35865.0,44791.0,41341.0,38003.0,-1.3439685329796696,19.954792621883108,0,40000
823965,37231.0,44309.0,40057.0,38403.0,-1.6717042269716806,19.930012668774825,0,40000
823975,34805.0,44701.0,41831.0,38663.0,-1.9916698360255842,19.900584194044804,0,40000
823985,35591.0,45147.0,42193.0,37069.0,-2.3193200181070703,19.86506367101822,0,40000
823995,34927.0,45855.0,41467.0,37751.0,-2.639346570772715,19.82508132844227,0,40000
824005,37156.0,44072.0,40376.0,38396.0,-2.958983099298652,19.779899368249197,0,40000
824015,35565.0,46285.0,40743.0,37407.0,-3.277981746157137,19.729542206342767,0,40000
824025,35334.0,44794.0,40940.0,38932.0,-3.59538151492226,19.674176774700264,0,40000
824035,34716.0,43978.0,42010.0,39296.0,-3.9114735910657257,19.6137802156136,0,40000
824045,34220.0,41246.0,42018.0,42516.0,-4.227314346164749,19.54814091975781,0,40000
824055,33086.0,43420.0,42922.0,40572.0,-4.541325878120045,19.47758607396505,0,40000
824065,33681.0,42985.0,42743.0,40591.0,-4.859705317384638,19.400599584244386,0,40000
824075,32222.0,43792.0,43722.0,40264.0,-5.171181218631606,19.319909026806307,0,40000
824085,32537.0,43681.0,43751.0,40031.0,-5.480850492765096,19.234351506509302,0,40000
824095,31496.0,43404.0,44440.0,40660.0,-5.788453072115866,19.14402807749488,0,40000
824105,31570.0,43582.0,44762.0,40086.0,-6.100688917186325,19.04682636912827,0,40000
824115,32081.0,43061.0,44067.0,40791.0,-6.405851729813342,18.946373363143866,0,40000
824125,33517.0,43179.0,42683.0,40621.0,-6.717256775160029,18.83821810619483,0,40000
824135,32042.0,43082.0,43814.0,41062.0,-7.021836647658847,18.726820608250488,0,40000
824145,32502.0,42692.0,43994.0,40812.0,-7.329643872959596,18.608501301705786,0,40000
824155,32576.0,41598.0,44020.0,41806.0,-7.633319248654244,18.486006525156387,0,40000
824165,33838.0,41932.0,42924.0,41306.0,-7.929296480829441,18.360998265865227,0,40000
824175,33134.0,43170.0,43204.0,40492.0,-8.223432199440929,18.23115912006689,0,40000
824185,34129.0,42933.0,42529.0,40409.0,-8.516201745740087,18.0962512091829,0,40000
824195,32343.0,41977.0,43881.0,41799.0,-8.804768286179511,17.957618311643877,0,40000
824205,32320.0,43100.0,44328.0,40252.0,-9.09311361321961,17.813345694087907,0,40000
824215,32785.0,43041.0,44251.0,39923.0,-9.378275367296357,17.664879029734745,0,40000
824225,35058.0,42992.0,41880.0,40070.0,-9.378275367296357,17.664879029734745,0,40000
824235,33301.0,43331.0,44083.0,39285.0,-9.94711761187689,17.350932286637757,0,40000
824245,33406.0,43534.0,43614.0,39446.0,-10.224839066822021,17.188736604462534,0,40000
824255,31884.0,43128.0,45144.0,39844.0,-10.499871839825154,17.022123585124355,0,40000
824265,33785.0,44419.0,43679.0,38117.0,-10.499871839825154,17.022123585124355,0,40000
824275,33566.0,44670.0,43910.0,37854.0,-10.77209565613395,16.8511707360379,0,40000
824285,35016.0,44074.0,42342.0,38568.0,-11.042086326562135,16.675500878736734,0,40000
824295,34668.0,43720.0,42918.0,38694.0,-11.313536810950694,16.49254027817618,0,40000
824305,34702.0,43540.0,42800.0,38958.0,-11.577632663806556,16.30823172210769,0,40000
824315,34387.0,42573.0,43129.0,39911.0,-11.83729574351219,16.12074531405506,0,40000
824325,37037.0,43569.0,40395.0,38999.0,-12.095068623106052,15.928255240369406,0,40000
824335,34818.0,43278.0,42858.0,39046.0,-12.34972370850459,15.73163450896313,0,40000
824345,37342.0,43742.0,40406.0,38510.0,-12.606411299140674,15.52669939674554,0,40000
824355,35933.0,43251.0,41729.0,39087.0,-12.855085961500576,15.321447872914323,0,40000
824365,37386.0,43436.0,39814.0,39364.0,-13.099802442568777,15.112748789206718,0,40000
824375,34658.0,42672.0,42964.0,39706.0,-13.341750658320127,14.899586885924538,0,40000
824385,33732.0,43666.0,43248.0,39354.0,-13.58550318363259,14.677673632000023,0,40000
824395,34671.0,43017.0,43175.0,39137.0,-13.822479859676003,14.454724159555978,0,40000
824405,35096.0,43404.0,42164.0,39336.0,-14.054604637904312,14.22912816978604,0,40000
824415,34152.0,43006.0,43094.0,39748.0,-14.279928017175314,14.00298738927846,0,40000
824425,33567.0,43075.0,43915.0,39443.0,-14.507847982622394,13.766711550443675,0,40000
824435,33689.0,43111.0,43629.0,39571.0,-14.730572240329376,13.528127788886295,0,40000
824445,34369.0,43467.0,43413.0,38751.0,-14.945516660410206,13.290279596509663,0,40000
824455,33623.0,44585.0,43457.0,38335.0,-15.159020331964953,13.046229439001644,0,40000
824465,34141.0,43835.0,43943.0,38081.0,-15.36684235659907,12.80078731904537,0,40000
824475,32583.0,42917.0,44223.0,40277.0,-15.571316020199506,12.551259594123538,0,40000
824485,34312.0,44126.0,43768.0,37794.0,-15.776108244777978,12.292860067903169,0,40000
824495,32290.0,45374.0,44604.0,37732.0,-15.972331447821535,12.036803068960264,0,40000
824505,33676.0,43526.0,44724.0,38074.0,-16.169139399379976,11.771105771482056,0,40000
824515,34237.0,43841.0,42719.0,39203.0,-16.359416959948046,11.505193467758994,0,40000
824525,34090.0,42536.0,43844.0,39530.0,-16.542341984253902,11.240592585624242,0,40000
824535,32904.0,42510.0,44520.0,40066.0,-16.721743811309846,10.971931639821717,0,40000
824545,34625.0,42953.0,43181.0,39241.0,-16.896754728216237,10.700452310743792,0,40000
824555,34408.0,42346.0,43332.0,39914.0,-16.896754728216237,10.700452310743792,0,40000
824565,35037.0,42195.0,42435.0,40333.0,-17.071952703822642,10.4186578251924,0,40000
824575,34672.0,41882.0,43520.0,39926.0,-17.242284525884365,10.134279665000797,0,40000
824585,35675.0,41359.0,42367.0,40599.0,-17.404017245533375,9.853942546878221,0,40000
824595,34842.0,41550.0,43130.0,40478.0,-17.5610132221175,9.571353854738337,0,40000
824605,35448.0,41418.0,42348.0,40786.0,-17.712802121095603,9.287445344060501,0,40000
824615,34327.0,43617.0,43657.0,38399.0,-17.86045314951273,9.000234068848481,0,40000
824625,35542.0,42706.0,42302.0,39450.0,-18.00645740392303,8.704452410158005,0,40000
824635,35631.0,42025.0,43185.0,39159.0,-18.14665692762341,8.40826036413819,0,40000
824645,32706.0,44432.0,45126.0,37736.0,-18.280058637438025,8.114151601481666,0,40000
824655,34194.0,42084.0,44680.0,39042.0,-18.408099595118937,7.819326652351978,0,40000
824665,33085.0,43917.0,44773.0,38225.0,-18.53091821909863,7.523634092450166,0,40000
824675,34200.0,42888.0,44636.0,38276.0,-18.649222866897283,7.225405626038967,0,40000
824685,33549.0,43641.0,44403.0,38407.0,-18.763036931400098,6.9244815770508055,0,40000
824695,35688.0,42116.0,43000.0,39196.0,-18.872065077568596,6.62156776813587,0,40000
824705,34327.0,42385.0,44085.0,39203.0,-18.976468233030282,6.316142287883688,0,40000
824715,34350.0,41904.0,44550.0,39196.0,-19.075600149639516,6.01011471862832,0,40000
824725,33462.0,42922.0,45146.0,38470.0,-19.169711780323052,5.702819500856014,0,40000
824735,35773.0,42273.0,42587.0,39367.0,-19.258974441323815,5.393691080182107,0,40000
824745,34971.0,42083.0,43813.0,39133.0,-19.34342570857621,5.082507437947632,0,40000
824755,35564.0,41400.0,42956.0,40080.0,-19.42323328058531,4.76843883550614,0,40000
824765,34681.0,41479.0,44301.0,39539.0,-19.49735130340177,4.455703328514737,0,40000
824775,34421.0,42545.0,43945.0,39089.0,-19.56729629196804,4.137742841493863,0,40000
824785,35332.0,42848.0,43892.0,37928.0,-19.631857564894467,3.819707914447884,0,40000
824795,35119.0,43071.0,43159.0,38651.0,-19.69096548856171,3.502267569485771,0,40000
824805,34096.0,43066.0,45456.0,37382.0,-19.74546286256092,3.180675453929165,0,40000
824815,34295.0,43243.0,43883.0,38579.0,-19.795623636260625,2.851891451566786,0,40000
824825,34441.0,40701.0,44877.0,39981.0,-19.838902441043558,2.53336731145641,0,40000
824835,35734.0,41386.0,42928.0,39952.0,-19.877027302758496,2.2144492781261422,0,40000
824845,34613.0,42733.0,44577.0,38077.0,-19.910004477427254,1.895183819271019,0,40000
824855,35271.0,42689.0,43419.0,38621.0,-19.937853933613155,1.5754302656437678,0,40000
824865,34066.0,42544.0,44856.0,38534.0,-19.960614086119037,1.2545458560875256,0,40000
824875,35179.0,41597.0,44039.0,39185.0,-19.960614086119037,1.2545458560875256,0,40000
824885,32798.0,42514.0,46354.0,38334.0,-19.97844305515599,0.9283388884935522,0,40000
824895,34606.0,41774.0,44358.0,39262.0,-19.990823287218657,0.6057922904727411,0,40000
824905,34274.0,42638.0,44950.0,38138.0,-19.997979112412636,0.2843086694209504,0,40000
824915,35682.0,42332.0,43306.0,38680.0,-19.999964725432964,-0.0375630328540459,0,40000
824925,35720.0,40624.0,43490.0,40166.0,-19.996592998045003,-0.3691455953111198,0,40000
824935,37520.0,39482.0,41694.0,41304.0,-19.98789060182905,-0.6958658558327347,0,40000
824945,35757.0,40473.0,43811.0,39959.0,-19.973915780740533,-1.0211211406509395,0,40000
824955,37489.0,40021.0,41649.0,40841.0,-19.953907008197955,-1.3570538339316291,0,40000
824965,34732.0,41320.0,44324.0,39624.0,-19.92947447613186,-1.6781081923430572,0,40000
824975,36299.0,38823.0,43147.0,41731.0,-19.899812195987185,-1.9993685414249684,0,40000
824985,34415.0,41855.0,44585.0,39145.0,-19.865156595444976,-2.3185239784071494,0,40000
824995,35655.0,40967.0,43871.0,39507.0,-19.825311562709523,-2.6376166214019845,0,40000
825005,35648.0,41934.0,43394.0,39024.0,-19.780498476803736,-2.9549754667619665,0,40000
825015,35213.0,41549.0,44621.0,38617.0,-19.730520971761106,-3.2720852957854256,0,40000
825025,34529.0,42049.0,44481.0,38941.0,-19.6753848151679,-3.5887647422282387,0,40000
825035,36185.0,41443.0,43399.0,38973.0,-19.613869567830868,-3.9110255146340123,0,40000
825045,35640.0,41688.0,43380.0,39292.0,-19.54761515989079,-4.229744857648967,0,40000
825055,36619.0,41225.0,43189.0,38967.0,-19.47631314241689,-4.546781980535162,0,40000
825065,35054.0,42168.0,44298.0,38480.0,-19.400686940811987,-4.859356564876378,0,40000
825075,35449.0,41631.0,44259.0,38661.0,-19.320211110253123,-5.170052480899185,0,40000
825085,33624.0,41180.0,45758.0,39438.0,-19.234622428454653,-5.479899637291654,0,40000
825095,35485.0,42029.0,43529.0,38957.0,-19.143470860019008,-5.79029562557933,0,40000
825105,35433.0,41649.0,44063.0,38855.0,-19.04765327390624,-6.098106653466223,0,40000
825115,35764.0,40814.0,43664.0,39758.0,-18.947325571219054,-6.403034725677237,0,40000
825125,34629.0,41959.0,44863.0,38549.0,-18.842144343458706,-6.706235646043699,0,40000
825135,35068.0,41590.0,44544.0,38798.0,-18.731922585157488,-7.00821491277678,0,40000
825145,34174.0,42784.0,45436.0,37606.0,-18.61680941572262,-7.308516072272232,0,40000
825155,35708.0,41724.0,43564.0,39004.0,-18.49346753851937,-7.615225433414976,0,40000
825165,34345.0,43409.0,44603.0,37643.0,-18.36806449213117,-7.912913926797761,0,40000
825175,34107.0,41527.0,45311.0,39055.0,-18.2388320210601,-8.206400338001592,0,40000
825185,34340.0,41420.0,44856.0,39384.0,-18.10438859993851,-8.498888952234667,0,40000
825195,35963.0,41871.0,43639.0,38527.0,-17.966064687066307,-8.787520677651298,0,40000
825205,35829.0,42033.0,43777.0,38361.0,-17.823003653577093,-9.074168874589981,0,40000
825215,35602.0,41838.0,43258.0,39302.0,-17.823003653577093,-9.074168874589981,0,40000
825225,34839.0,41829.0,44543.0,38789.0,-17.67363433085507,-9.361765300370495,0,40000
825235,34902.0,41842.0,44164.0,39092.0,-17.52126825212943,-9.643918230518198,0,40000
825245,34670.0,41992.0,44912.0,38426.0,-17.363851736617686,-9.924547993171226,0,40000
825255,34483.0,41991.0,44973.0,38553.0,-17.03695091002412,-10.475796088576192,0,40000
825265,34467.0,42125.0,44999.0,38409.0,-17.03695091002412,-10.475796088576192,0,40000
825275,34636.0,42520.0,44572.0,38272.0,-16.86546526214347,-10.74970146057238,0,40000
825285,35135.0,40913.0,43605.0,40347.0,-16.690059286444978,-11.020069011351598,0,40000
825295,35574.0,39820.0,44010.0,40596.0,-16.51001934952945,-11.288014044913442,0,40000
825305,34514.0,41114.0,44018.0,40354.0,-16.32724862075734,-11.550798780862623,0,40000
825315,35616.0,40238.0,43894.0,40252.0,-16.139649822422836,-11.811507253926848,0,40000
825325,34892.0,39922.0,43970.0,41216.0,-15.946401321577587,-12.071134366379514,0,40000
825335,34899.0,39707.0,44693.0,40701.0,-15.750550999375294,-12.325588960211107,0,40000
825345,33701.0,41357.0,44883.0,40059.0,-15.548464485432552,-12.579556913708952,0,40000
825355,33212.0,42770.0,45598.0,38420.0,-15.33868378266738,-12.834515176481606,0,40000
825365,33559.0,43297.0,45307.0,37837.0,-15.12457581683652,-13.086145588398592,0,40000
825375,33576.0,42578.0,45424.0,38422.0,-14.912036862590828,-13.327833905355075,0,40000
825385,34034.0,42976.0,44802.0,38188.0,-14.691997980965095,-13.570010881621194,0,40000
825395,34133.0,41671.0,44911.0,39285.0,-14.472509378444222,-13.803857152652805,0,40000
825405,35354.0,41582.0,43050.0,40014.0,-14.248715778538752,-14.034746120340788,0,40000
825415,35171.0,41123.0,43573.0,40133.0,-14.021912102959304,-14.26134569305728,0,40000
825425,34672.0,42266.0,43834.0,39228.0,-13.78979643969378,-14.485907432805472,0,40000
825435,34768.0,41510.0,43828.0,39894.0,-13.554872482176672,-14.70596586395908,0,40000
825445,34074.0,41874.0,44242.0,39810.0,-13.316537897328583,-14.922125131126986,0,40000
825455,35415.0,40097.0,43999.0,40489.0,-13.07064697554524,-15.137971714885389,0,40000
825465,33549.0,42241.0,44653.0,39557.0,-12.82550567452667,-15.346217911677266,0,40000
825475,33614.0,42924.0,45006.0,38456.0,-12.576499590733661,-15.550937529431339,0,40000
825485,32776.0,42460.0,44628.0,40136.0,-12.32434429770769,-15.751524930353886,0,40000
825495,35179.0,41619.0,43605.0,39597.0,-12.069199336763642,-15.947865918970601,0,40000
825505,33003.0,42819.0,44723.0,39455.0,-11.80818257662425,-16.14208240088953,0,40000
825515,35087.0,40049.0,44453.0,40411.0,-11.547245884556755,-16.329761556176717,0,40000
825525,34368.0,41122.0,43200.0,41310.0,-11.270719860903109,-16.521830219955785,0,40000
825535,35693.0,41475.0,42621.0,40211.0,-11.002004741656233,-16.701972687816664,0,40000
825545,34722.0,41480.0,43056.0,40742.0,-11.002004741656233,-16.701972687816664,0,40000
825555,34520.0,41296.0,43754.0,40430.0,-10.4414160429423,-17.05804300083064,0,40000
825565,35315.0,41163.0,42713.0,40809.0,-10.16521988309351,-17.224061795301374,0,40000
825575,35216.0,41280.0,42842.0,40662.0,-10.16521988309351,-17.224061795301374,0,40000
825585,34341.0,41895.0,42975.0,40789.0,-9.879234715879333,-17.389672838456868,0,40000
825595,34353.0,40645.0,43937.0,41065.0,-9.597636854228192,-17.54666255486669,0,40000
825605,33038.0,40630.0,44486.0,41846.0,-9.313975817105591,-17.698865909384484,0,40000
825615,33648.0,40956.0,44540.0,40856.0,-9.0269058991467,-17.846987697870766,0,40000
825625,32400.0,41724.0,44620.0,41256.0,-8.736288539335172,-17.9910328374299,0,40000
825635,33000.0,40390.0,44996.0,41614.0,-8.44171659178113,-18.131117477531472,0,40000
825645,32780.0,41128.0,44376.0,41716.0,-8.146253698208238,-18.26577539236779,0,40000
825655,31891.0,41421.0,46083.0,40605.0,-7.851454372008443,-18.39441937774252,0,40000
825665,31328.0,42174.0,45390.0,41108.0,-7.555983633106368,-18.517751249442483,0,40000
825675,31885.0,40325.0,46051.0,41739.0,-7.256489516596916,-18.637149993910526,0,40000
825685,32275.0,43877.0,44967.0,38881.0,-6.957511257010955,-18.750814305212607,0,40000
825695,32243.0,42507.0,45819.0,39431.0,-6.656456831816283,-18.85978744435277,0,40000
825705,33289.0,42911.0,43919.0,39881.0,-6.3526667238945596,-18.96427234288526,0,40000
825715,33233.0,42341.0,43519.0,40907.0,-6.046737769575712,-19.064022722027648,0,40000
825725,33050.0,43130.0,44098.0,39722.0,-5.740269610794606,-19.158530862135226,0,40000
825735,34549.0,41595.0,42715.0,41141.0,-5.431626187041271,-19.248309976832967,0,40000
825745,35783.0,42191.0,41345.0,40681.0,-5.122108306382098,-19.33297717625745,0,40000
825755,34437.0,40907.0,42417.0,42239.0,-4.810806575942379,-19.412782904284217,0,40000
825765,35024.0,41316.0,42084.0,41576.0,-4.4966060072052585,-19.487958703157332,0,40000
825775,34139.0,40965.0,42761.0,42135.0,-4.182828878089399,-19.557708009289364,0,40000
825785,34024.0,42518.0,42752.0,40706.0,-3.867971313268657,-19.622405507983235,0,40000
825795,33952.0,43136.0,42966.0,39946.0,-3.5523947412101444,-19.681983934619563,0,40000
825805,33612.0,44772.0,42726.0,38890.0,-3.235392189137449,-19.73657106445971,0,40000
825815,33063.0,43895.0,44153.0,38889.0,-2.914751703761685,-19.786465639558227,0,40000
825825,31729.0,44895.0,44855.0,38521.0,-2.5966191415160127,-19.83072285706985,0,40000
825835,31504.0,44090.0,45672.0,38734.0,-2.2701297247281387,-19.870745105126424,0,40000
825845,30482.0,44166.0,45206.0,40146.0,-1.9507417322437373,-19.904637818711567,0,40000
825855,34159.0,42723.0,43223.0,39895.0,-1.6299324351118105,-19.93347235824633,0,40000
825865,33202.0,43210.0,42988.0,40600.0,-1.301166400392936,-19.957629267988935,0,40000
825875,34853.0,41431.0,42859.0,40857.0,-0.9801041378631535,-19.975970461505582,0,40000
825885,33427.0,42007.0,42839.0,41727.0,-0.9801041378631535,-19.975970461505582,0,40000
825895,34203.0,40519.0,42703.0,42575.0,-0.32829309689687397,-19.997305409542804,0,40000
825905,34792.0,41452.0,41466.0,42290.0,-0.32829309689687397,-19.997305409542804,0,40000
825915,35462.0,41428.0,41856.0,41254.0,-0.006059523625061417,-19.999999082054313,0,40000
825925,33876.0,43034.0,42242.0,40848.0,0.6493260022639573,-19.98945661449515,0,40000
825935,34345.0,40677.0,42767.0,42211.0,0.6493260022639573,-19.98945661449515,0,40000
825945,32559.0,41415.0,43811.0,42215.0,0.9749570801476258,-19.976222332860385,0,40000
825955,33235.0,40689.0,44111.0,41965.0,1.2960240578271005,-19.957963865122448,0,40000
825965,32767.0,42125.0,43821.0,41287.0,1.6165991787644702,-19.934558111360733,0,40000
825975,32626.0,42706.0,44498.0,40170.0,1.9369654855032412,-19.905983138442803,0,40000
825985,31013.0,40549.0,45381.0,43057.0,2.2590932840946394,-19.872002856626164,0,40000
825995,31134.0,40452.0,46304.0,42110.0,2.579581232120672,-19.832946343569095,0,40000
826005,31829.0,40369.0,44943.0,42859.0,2.9044511723745496,-19.78798027559387,0,40000
826015,32609.0,39227.0,44729.0,43435.0,3.2227077343592887,-19.73864622660077,0,40000
826025,31436.0,40226.0,45088.0,43250.0,3.539465169248554,-19.684313204063695,0,40000
826035,31526.0,39216.0,45546.0,43712.0,3.856337596571909,-19.624695165562855,0,40000
826045,33730.0,42196.0,42326.0,41748.0,4.17756241165386,-19.55883361289054,0,40000
826055,33320.0,41838.0,43906.0,40936.0,4.490978770780688,-19.489256262884872,0,40000
826065,33184.0,43398.0,42644.0,40774.0,4.814470682935689,-19.41187451131788,0,40000
826075,34407.0,40409.0,43067.0,42117.0,5.1370653055132465,-19.32900825306079,0,40000
826085,32638.0,42090.0,43534.0,41738.0,5.461312048857381,-19.239908282135993,0,40000
826095,31697.0,41341.0,44969.0,41993.0,5.775087578602022,-19.148064222251726,0,40000
826105,33167.0,42261.0,42899.0,41673.0,6.083231490052893,-19.05240915575846,0,40000
826115,32576.0,43060.0,44202.0,40162.0,6.388578502154751,-18.952204745670254,0,40000
826125,32174.0,44570.0,44042.0,39214.0,6.693186542116138,-18.84678364900588,0,40000
826135,33053.0,42523.0,43969.0,40455.0,6.995536776323744,-18.736660994187357,0,40000
826145,31611.0,42217.0,44907.0,41265.0,7.29512072807958,-18.622062548567055,0,40000
826155,31128.0,41502.0,45648.0,41722.0,7.59768554850757,-18.500680374137573,0,40000
826165,31597.0,42953.0,44893.0,40557.0,7.899539114661356,-18.373820554689637,0,40000
826175,32038.0,43090.0,44850.0,40022.0,8.192887218614405,-18.24490611165387,0,40000
826185,32165.0,43025.0,44183.0,40627.0,8.192887218614405,-18.24490611165387,0,40000
826195,32311.0,40449.0,44579.0,42661.0,8.49535629545302,-18.10604654289022,0,40000
826205,31396.0,40734.0,45058.0,42812.0,8.796454928910645,-17.961692032869387,0,40000
826215,33269.0,41669.0,43887.0,41175.0,9.092219657866393,-17.81380199994117,0,40000
826225,33474.0,41300.0,43552.0,41674.0,9.38252232509154,-17.6626236674838,0,40000
826235,31322.0,40796.0,45248.0,42634.0,9.66735503712258,-17.508347911388462,0,40000
826245,30617.0,40735.0,46225.0,42423.0,9.947007144891781,-17.350995615798876,0,40000
826255,32011.0,42005.0,44755.0,41229.0,10.224497887766582,-17.18893955260349,0,40000
826265,32101.0,42373.0,44335.0,41191.0,10.50174599822194,-17.020967392860765,0,40000
826275,30191.0,41459.0,46501.0,41849.0,10.773875264745296,-16.850032990463536,0,40000
826285,30036.0,42100.0,46744.0,41120.0,11.042467274309757,-16.67524861871025,0,40000
826295,29833.0,41491.0,47089.0,41587.0,11.308273795557078,-16.49614936173643,0,40000
826305,32101.0,42077.0,44677.0,41145.0,11.57749218978688,-16.308331447313172,0,40000
826315,29828.0,42324.0,46594.0,41254.0,11.836836901453427,-16.12108222695953,0,40000
826325,32495.0,42073.0,44641.0,40791.0,12.093959058464932,-15.929097723731061,0,40000
826335,30483.0,41701.0,45587.0,42229.0,12.347820628870299,-15.733128287700609,0,40000
826345,30295.0,41253.0,46559.0,41893.0,12.598675974441061,-15.532976652626553,0,40000
826355,30628.0,40668.0,45838.0,42866.0,12.846212874906659,-15.328888243202192,0,40000
826365,33774.0,42326.0,43636.0,40264.0,13.091231353693242,-15.120173995165498,0,40000
826375,33433.0,43007.0,43071.0,40489.0,13.332691854303443,-14.90769358144279,0,40000
826385,31213.0,41723.0,45915.0,41149.0,13.574940139368497,-14.687443624149237,0,40000
826395,32011.0,41685.0,44591.0,41713.0,13.809184132651408,-14.467426640233175,0,40000
826405,31710.0,41990.0,45468.0,40832.0,14.040220070688248,-14.243321956855532,0,40000
826415,31434.0,43190.0,44906.0,40470.0,14.267556586582906,-14.015592354540523,0,40000
826425,32809.0,42027.0,44901.0,40263.0,14.498894569427211,-13.77614083350755,0,40000
826435,32368.0,42980.0,44508.0,40144.0,14.718325840681963,-13.541450603517838,0,40000
826445,31583.0,40641.0,46089.0,41687.0,14.934063320231852,-13.303148226916273,0,40000
826455,30663.0,41849.0,45717.0,41771.0,15.14614348577024,-13.061176727556354,0,40000
826465,31365.0,41599.0,46765.0,40271.0,15.35994158128269,-12.809066891057405,0,40000
826475,32083.0,42725.0,44569.0,40623.0,15.564121645927864,-12.560179831147313,0,40000
826485,32093.0,42467.0,45469.0,39971.0,15.764467473887528,-12.307784742379198,0,40000
826495,32154.0,42420.0,44568.0,40858.0,15.965991172362411,-12.045211740938619,0,40000
826505,32102.0,42168.0,45578.0,40152.0,15.965991172362411,-12.045211740938619,0,40000
826515,31729.0,42879.0,45491.0,39901.0,16.35280028625827,-11.514596076187454,0,40000
826525,31181.0,41995.0,46585.0,40239.0,16.535047337374515,-11.251320346998568,0,40000
826535,31338.0,41760.0,45338.0,41564.0,16.535047337374515,-11.251320346998568,0,40000
826545,30539.0,41585.0,46703.0,41173.0,16.71366085673367,-10.984240563921052,0,40000
826555,31834.0,42282.0,45938.0,39946.0,16.88699772432406,-10.715843777261497,0,40000
826565,29574.0,42438.0,47280.0,40708.0,17.06336281698225,-10.432720133120966,0,40000
826575,31985.0,40341.0,46505.0,41169.0,17.231298236884538,-10.152948393030464,0,40000
826585,29711.0,42023.0,47017.0,41249.0,17.39496851240962,-9.869907317309414,0,40000
826595,32093.0,41707.0,46567.0,39633.0,17.551900548458704,-9.588054397896112,0,40000
826605,32641.0,42341.0,44347.0,40671.0,17.70817390000194,-9.296266838214686,0,40000
826615,34577.0,40123.0,43739.0,41561.0,17.8551986353789,-9.01065378822,0,40000
826625,30751.0,41941.0,45783.0,41525.0,17.997349247955043,-8.723268885408274,0,40000
826635,33058.0,41076.0,45426.0,40440.0,18.13771310829011,-8.427536010089845,0,40000
826645,31293.0,41683.0,45963.0,41061.0,18.271762279546206,-8.132816437111588,0,40000
826655,32971.0,42675.0,44881.0,39473.0,18.399919332087947,-7.838556536292653,0,40000
826665,32948.0,41744.0,45050.0,40258.0,18.52309769846052,-7.542867601468729,0,40000
826675,33021.0,41811.0,44347.0,40821.0,18.64261795115651,-7.242430250076079,0,40000
826685,32637.0,41261.0,45491.0,40611.0,18.75628814345288,-6.942741179085452,0,40000
826695,33586.0,41690.0,44100.0,40624.0,18.865519067417704,-6.640195051118534,0,40000
826705,31765.0,42467.0,46011.0,39757.0,18.97451583956637,-6.322005113414969,0,40000
826715,33068.0,41518.0,44620.0,40794.0,19.0755213689437,-6.010364756233374,0,40000
826725,32139.0,41857.0,46379.0,39625.0,19.16969469426914,-5.702876934364757,0,40000
826735,32718.0,42902.0,45128.0,39252.0,19.25844511510775,-5.39558076099158,0,40000
826745,32890.0,41738.0,45340.0,40032.0,19.3426926851285,-5.085296420925365,0,40000
826755,31336.0,42472.0,46234.0,39958.0,19.4255168905585,-4.759127392140962,0,40000
826765,31999.0,41933.0,46561.0,39507.0,19.5000227034173,-4.443997588456797,0,40000
826775,33744.0,42048.0,44030.0,40178.0,19.568926513711805,-4.130026041194793,0,40000
826785,32236.0,41762.0,46042.0,39960.0,19.632511019270108,-3.8163478717535404,0,40000
826795,34215.0,41249.0,43599.0,40937.0,19.691361473012346,-3.500040476789526,0,40000
826805,34261.0,41455.0,44281.0,40003.0,19.691361473012346,-3.500040476789526,0,40000
826815,33026.0,41330.0,44940.0,40704.0,19.796407905541628,-2.846442347459179,0,40000
826825,33057.0,40875.0,45239.0,40829.0,19.796407905541628,-2.846442347459179,0,40000
826835,35019.0,41181.0,43905.0,39895.0,19.839532753757243,-2.528426410357554,0,40000
826845,32730.0,42364.0,45332.0,39574.0,19.87872485899665,-2.199158470940329,0,40000
826855,32286.0,42866.0,46222.0,38626.0,19.91208050492668,-1.8732458368614733,0,40000
826865,31235.0,43105.0,47325.0,38335.0,19.94008157347059,-1.5469799104509006,0,40000
826875,32106.0,42748.0,46550.0,38596.0,19.96320535694563,-1.2126136550515145,0,40000
826885,31909.0,41973.0,46575.0,39543.0,19.980100637757555,-0.8919520755512682,0,40000
826895,34280.0,40920.0,44296.0,40504.0,19.991920264565056,-0.5684400894316397,0,40000
826905,32437.0,43281.0,46843.0,37439.0,19.998480125558093,-0.24656169138374312,0,40000
826915,33613.0,41791.0,44755.0,39841.0,19.999855790014585,0.07594984279172982,0,40000
826925,32985.0,39947.0,45791.0,41277.0,19.996045471820906,0.397700250025793,0,40000
826935,32958.0,40438.0,45872.0,40732.0,19.987067904471033,0.7191081852293448,0,40000
826945,33341.0,40483.0,45469.0,40707.0,19.972930730080474,1.0402105803187476,0,40000
