timestamp,stabilizer.roll,stabilizer.pitch,stateEstimateZ.rateRoll,stateEstimateZ.ratePitch,controller.pitchRate,controller.rollRate,roll,pitch,yawdot,thrust
1025740,-40.971763610839844,66.03560638427734,8.0,4.0,-398.5909118652344,247.3054962158203,0,0,0,40000
1025750,-40.983036041259766,66.0259780883789,-10.0,-3.0,-400.5140686035156,248.6024627685547,0,0,0,40000
1025760,-41.02332305908203,66.00440979003906,-16.0,-27.0,-402.3650817871094,250.07435607910156,0,0,0,40000
1025770,-41.02067565917969,65.95917510986328,4.0,-79.0,-404.0730285644531,251.28909301757812,0,0,0,40000
1025780,-40.96635818481445,65.84120178222656,4.0,-271.0,-405.3421325683594,252.1931610107422,0,0,0,40000
1025790,-40.77603530883789,65.6655044555664,-26.0,-497.0,-406.2601318359375,252.27687072753906,0,0,0,40000
1025800,-40.31716537475586,65.29293823242188,-63.0,-781.0,-405.98846435546875,250.73947143554688,0,0,0,40000
1025810,-39.76756286621094,64.90888977050781,-61.0,-1212.0,-405.6361999511719,248.6417236328125,0,0,0,40000
1025820,-38.590702056884766,64.10435485839844,-25.0,-1705.0,-402.74267578125,242.7539520263672,0,0,0,40000
1025830,-37.53009796142578,63.37665939331055,-24.0,-2284.0,-400.2867736816406,237.52926635742188,0,0,0,40000
1025840,-35.52911376953125,61.93059158325195,-41.0,-2849.0,-393.48681640625,226.61439514160156,0,0,0,40000
1025850,-33.952335357666016,60.709415435791016,-5.0,-3565.0,-387.99603271484375,218.19151306152344,0,0,0,40000
1025860,-31.298297882080078,58.40074920654297,61.0,-4384.0,-375.92535400390625,203.23904418945312,0,0,0,40000
1025870,-29.417232513427734,56.51565170288086,84.0,-5221.0,-366.3332824707031,192.85787963867188,0,0,0,40000
1025880,-26.508747100830078,53.12434768676758,90.0,-6102.0,-347.6217041015625,176.23707580566406,0,0,0,40000
1025890,-24.579235076904297,50.472679138183594,247.0,-6880.0,-333.25811767578125,165.42041015625,0,0,0,40000
1025900,-21.803865432739258,45.98480224609375,425.0,-7613.0,-307.76593017578125,149.45533752441406,0,0,0,40000
1025910,-20.08561897277832,42.698631286621094,548.0,-8097.0,-289.36962890625,139.76881408691406,0,0,0,40000
1025920,-17.69111442565918,37.502437591552734,706.0,-8334.0,-259.3804931640625,125.96037292480469,0,0,0,40000
1025930,-16.205968856811523,33.953125,1006.0,-8365.0,-239.14584350585938,117.55335998535156,0,0,0,40000
1025940,-14.139705657958984,28.66328239440918,1345.0,-8103.0,-208.32972717285156,105.60459899902344,0,0,0,40000
1025950,-12.830202102661133,25.27787971496582,1659.0,-7638.0,-188.81602478027344,98.14822387695312,0,0,0,40000
1025960,-10.902283668518066,20.545686721801758,1947.0,-6937.0,-161.09458923339844,86.9308090209961,0,0,0,40000
1025970,-9.63327407836914,17.73494529724121,2214.0,-6018.0,-144.79544067382812,79.62089538574219,0,0,0,40000
1025980,-7.703614711761475,14.210227966308594,2440.0,-4853.0,-124.11335754394531,68.29718017578125,0,0,0,40000
1025990,-6.4031548500061035,12.379302978515625,2669.0,-3619.0,-113.52052307128906,60.70222854614258,0,0,0,40000
1026000,-4.4048357009887695,10.49236011505127,2820.0,-2304.0,-102.53347778320312,48.86869430541992,0,0,0,40000
1026010,-3.048598051071167,9.782536506652832,2909.0,-1123.0,-98.57589721679688,40.83906555175781,0,0,0,40000
1026020,-1.0007061958312988,9.420230865478516,2914.0,-175.0,-96.68698120117188,28.6063232421875,0,0,0,40000
1026030,0.3638155460357666,9.540074348449707,2889.0,536.0,-97.69046783447266,20.424619674682617,0,0,0,40000
1026040,2.3802781105041504,10.103567123413086,2824.0,1034.0,-101.36665344238281,8.278510093688965,0,0,0,40000
1026050,3.6860733032226562,10.648924827575684,2705.0,1280.0,-104.95159912109375,0.3487892150878906,0,0,0,40000
1026060,5.559490203857422,11.551772117614746,2558.0,1396.0,-110.70428466796875,-11.036304473876953,0,0,0,40000
1026070,6.716003894805908,12.151045799255371,2374.0,1352.0,-114.65730285644531,-18.163101196289062,0,0,0,40000
1026080,8.38264274597168,12.962014198303223,2199.0,1197.0,-119.90255737304688,-28.394929885864258,0,0,0,40000
1026090,9.379851341247559,13.429113388061523,1919.0,1007.0,-123.1025390625,-34.6478271484375,0,0,0,40000
1026100,10.722496032714844,13.91213607788086,1718.0,649.0,-126.41305541992188,-43.0097541809082,0,0,0,40000
1026110,11.509139060974121,14.048392295837402,1509.0,224.0,-127.6506118774414,-48.06559753417969,0,0,0,40000
1026120,12.44619369506836,13.942129135131836,1225.0,-286.0,-127.43367004394531,-54.05077362060547,0,0,0,40000
1026130,12.944422721862793,13.623393058776855,996.0,-874.0,-125.93406677246094,-57.42268753051758,0,0,0,40000
1026140,13.488080978393555,12.757736206054688,670.0,-1496.0,-121.13453674316406,-61.083717346191406,0,0,0,40000
1026150,13.67672061920166,11.90253734588623,388.0,-2142.0,-116.37103271484375,-62.623809814453125,0,0,0,40000
1026160,13.773530960083008,10.220778465270996,114.0,-2720.0,-106.60847473144531,-63.61742401123047,0,0,0,40000
1026170,13.674321174621582,8.88447093963623,-256.0,-3145.0,-98.8734130859375,-63.43382263183594,0,0,0,40000
1026180,13.395960807800293,6.691359996795654,-391.0,-3373.0,-85.94222259521484,-62.16908264160156,0,0,0,40000
1026190,13.087252616882324,5.179807662963867,-683.0,-3429.0,-77.04647827148438,-60.71324157714844,0,0,0,40000
1026200,12.478261947631836,2.953099012374878,-943.0,-3267.0,-63.80124282836914,-57.44146728515625,0,0,0,40000
1026210,11.985799789428711,1.5678600072860718,-1122.0,-2963.0,-55.55328369140625,-54.85228729248047,0,0,0,40000
1026220,11.137923240661621,-0.26084089279174805,-1287.0,-2536.0,-44.59427261352539,-50.10964584350586,0,0,0,40000
1026230,10.507719039916992,-1.2715989351272583,-1421.0,-2037.0,-38.50340270996094,-46.65126419067383,0,0,0,40000
1026240,9.493573188781738,-2.444188356399536,-1514.0,-1494.0,-31.407432556152344,-40.863548278808594,0,0,0,40000
1026250,8.780893325805664,-2.991574764251709,-1580.0,-1009.0,-28.039676666259766,-36.85948181152344,0,0,0,40000
1026260,7.693446636199951,-3.500274419784546,-1601.0,-577.0,-24.887727737426758,-30.57878875732422,0,0,0,40000
1026270,6.949427604675293,-3.6677377223968506,-1624.0,-204.0,-23.774709701538086,-26.33211898803711,0,0,0,40000
1026280,5.8576531410217285,-3.7181971073150635,-1550.0,42.0,-23.36048698425293,-19.970170974731445,0,0,0,40000
1026290,5.161262512207031,-3.66749906539917,-1476.0,158.0,-23.553970336914062,-15.954946517944336,0,0,0,40000
1026300,4.166801929473877,-3.5587515830993652,-1387.0,194.0,-24.098243713378906,-10.124841690063477,0,0,0,40000
1026310,3.565401792526245,-3.492121934890747,-1275.0,112.0,-24.392505645751953,-6.630570411682129,0,0,0,40000
1026320,2.747676134109497,-3.498767137527466,-1131.0,-67.0,-24.248126983642578,-1.816171646118164,0,0,0,40000
1026330,2.2748522758483887,-3.593294382095337,-986.0,-276.0,-23.574419021606445,0.9469242095947266,0,0,0,40000
1026340,1.6686725616455078,-3.870922088623047,-802.0,-473.0,-21.79631805419922,4.527061462402344,0,0,0,40000
1026350,1.3453867435455322,-4.15607213973999,-629.0,-692.0,-19.964279174804688,6.4226484298706055,0,0,0,40000
1026360,0.992154061794281,-4.6884942054748535,-429.0,-830.0,-16.63580322265625,8.508491516113281,0,0,0,40000
1026370,0.8401960134506226,-5.108802318572998,-235.0,-955.0,-13.96579360961914,9.393357276916504,0,0,0,40000
1026380,0.7397333979606628,-5.76297664642334,-72.0,-964.0,-9.875720977783203,9.973094940185547,0,0,0,40000
1026390,0.7442151308059692,-6.201997756958008,51.0,-966.0,-7.060802459716797,9.923986434936523,0,0,0,40000
1026400,0.8692713975906372,-6.828225612640381,250.0,-867.0,-3.1058616638183594,9.149541854858398,0,0,0,40000
1026410,1.0185424089431763,-7.184047222137451,363.0,-720.0,-0.7596168518066406,8.225225448608398,0,0,0,40000
1026420,1.32038152217865,-7.61789083480835,492.0,-577.0,2.0670738220214844,6.3785400390625,0,0,0,40000
1026430,1.5734621286392212,-7.827631950378418,581.0,-360.0,3.5579452514648438,4.815927505493164,0,0,0,40000
1026440,2.010329008102417,-8.000500679016113,645.0,-168.0,4.833564758300781,2.1397924423217773,0,0,0,40000
1026450,2.333862543106079,-8.029465675354004,695.0,0.0,5.247978210449219,0.1324777603149414,0,0,0,40000
1026460,2.8354127407073975,-7.95393180847168,741.0,167.0,5.034664154052734,-2.9557762145996094,0,0,0,40000
1026470,3.176064968109131,-7.850207805633545,730.0,267.0,4.649120330810547,-5.090883255004883,0,0,0,40000
1026480,3.695378541946411,-7.624222278594971,738.0,351.0,3.524768829345703,-8.311448097229004,0,0,0,40000
1026490,4.036358833312988,-7.4726996421813965,722.0,318.0,2.8415908813476562,-10.474333763122559,0,0,0,40000
1026500,4.529873847961426,-7.271461009979248,706.0,254.0,1.8545608520507812,-13.565457344055176,0,0,0,40000
1026510,4.83333158493042,-7.182647228240967,647.0,142.0,1.5381622314453125,-15.527568817138672,0,0,0,40000
1026520,5.252212047576904,-7.148480415344238,561.0,-18.0,1.5476799011230469,-18.19365119934082,0,0,0,40000
1026530,5.496259689331055,-7.188966751098633,474.0,-152.0,2.005695343017578,-19.819969177246094,0,0,0,40000
1026540,5.811736106872559,-7.362829685211182,395.0,-325.0,3.2672767639160156,-21.883625030517578,0,0,0,40000
1026550,5.985805988311768,-7.544440269470215,320.0,-435.0,4.5810546875,-23.105552673339844,0,0,0,40000
1026560,6.174039840698242,-7.9047017097473145,243.0,-574.0,6.975147247314453,-24.41806411743164,0,0,0,40000
1026570,6.250564098358154,-8.170666694641113,127.0,-595.0,8.812881469726562,-25.063873291015625,0,0,0,40000
1026580,6.289435863494873,-8.57052993774414,16.0,-556.0,11.464469909667969,-25.485595703125,0,0,0,40000
1026590,6.281100273132324,-8.790743827819824,-91.0,-409.0,13.046886444091797,-25.624237060546875,0,0,0,40000
1026600,6.185196876525879,-8.993101119995117,-188.0,-242.0,14.5286865234375,-25.23577117919922,0,0,0,40000
1026610,6.08975076675415,-9.047800064086914,-229.0,-39.0,15.127788543701172,-24.846935272216797,0,0,0,40000
1026620,5.887511253356934,-9.017818450927734,-290.0,112.0,15.219093322753906,-23.812673568725586,0,0,0,40000
1026630,5.715391635894775,-8.941701889038086,-382.0,228.0,15.031631469726562,-22.95355224609375,0,0,0,40000
1026640,5.427637100219727,-8.753301620483398,-434.0,322.0,14.166290283203125,-21.393476486206055,0,0,0,40000
1026650,5.217871189117432,-8.59671401977539,-467.0,359.0,13.486564636230469,-20.293943405151367,0,0,0,40000
1026660,4.875829219818115,-8.369991302490234,-487.0,316.0,12.379940032958984,-18.392086029052734,0,0,0,40000
1026670,4.633217811584473,-8.250677108764648,-490.0,245.0,11.912967681884766,-17.078290939331055,0,0,0,40000
1026680,4.2629828453063965,-8.139178276062012,-534.0,123.0,11.489246368408203,-14.98929214477539,0,0,0,40000
1026690,4.016024112701416,-8.090981483459473,-510.0,82.0,11.443344116210938,-13.630990028381348,0,0,0,40000
1026700,3.7854819297790527,-8.083786964416504,-513.0,-55.0,11.594146728515625,-12.339950561523438,0,0,0,40000
1026710,3.438291072845459,-8.160846710205078,-478.0,-150.0,12.300216674804688,-10.363992691040039,0,0,0,40000
1026720,3.116220235824585,-8.312664031982422,-427.0,-221.0,13.50759506225586,-8.549371719360352,0,0,0,40000
1026730,2.9211292266845703,-8.433618545532227,-393.0,-268.0,14.434246063232422,-7.451228141784668,0,0,0,40000
1026740,2.7386884689331055,-8.561793327331543,-364.0,-273.0,15.458625793457031,-6.440937042236328,0,0,0,40000
1026750,2.5054988861083984,-8.733979225158691,-317.0,-254.0,16.75174331665039,-5.119649887084961,0,0,0,40000
1026760,2.3695406913757324,-8.82960319519043,-251.0,-147.0,17.589290618896484,-4.376570701599121,0,0,0,40000
1026770,2.2104177474975586,-8.905948638916016,-182.0,-26.0,18.313915252685547,-3.4898786544799805,0,0,0,40000
1026780,2.1287286281585693,-8.911297798156738,-139.0,80.0,18.613388061523438,-3.0645885467529297,0,0,0,40000
1026790,2.0502872467041016,-8.81690788269043,-87.0,188.0,18.31292724609375,-2.6563491821289062,0,0,0,40000
1026800,2.026381492614746,-8.71613597869873,-49.0,263.0,17.971038818359375,-2.573965072631836,0,0,0,40000
1026810,2.0248148441314697,-8.529423713684082,34.0,298.0,17.108928680419922,-2.6251211166381836,0,0,0,40000
1026820,2.044334888458252,-8.38027286529541,61.0,309.0,16.467220306396484,-2.8033246994018555,0,0,0,40000
1026830,2.100050926208496,-8.155304908752441,129.0,347.0,15.36489486694336,-3.1998348236083984,0,0,0,40000
1026840,2.1528334617614746,-8.001561164855957,127.0,348.0,14.684303283691406,-3.580479621887207,0,0,0,40000
1026850,2.25948166847229,-7.761476039886475,157.0,347.0,13.479549407958984,-4.286869049072266,0,0,0,40000
1026860,2.345968008041382,-7.610619068145752,181.0,284.0,12.804508209228516,-4.875116348266602,0,0,0,40000
1026870,2.471524238586426,-7.4451093673706055,211.0,217.0,12.036674499511719,-5.701053619384766,0,0,0,40000
1026880,2.561924934387207,-7.368766784667969,209.0,131.0,11.800518035888672,-6.319244384765625,0,0,0,40000
1026890,2.7022738456726074,-7.320487976074219,211.0,49.0,11.730880737304688,-7.240755081176758,0,0,0,40000
1026900,2.80076003074646,-7.309216022491455,196.0,3.0,11.882610321044922,-7.914541244506836,0,0,0,40000
1026910,2.935199737548828,-7.327649116516113,193.0,-29.0,12.212738037109375,-8.807600021362305,0,0,0,40000
1026920,3.030911922454834,-7.337817668914795,190.0,-15.0,12.493751525878906,-9.471649169921875,0,0,0,40000
1026930,3.1377506256103516,-7.338573455810547,128.0,20.0,12.718494415283203,-10.205574035644531,0,0,0,40000
1026940,3.192695140838623,-7.312252998352051,126.0,84.0,12.780237197875977,-10.630386352539062,0,0,0,40000
1026950,3.2599446773529053,-7.244215488433838,80.0,129.0,12.590215682983398,-11.131004333496094,0,0,0,40000
1026960,3.291851758956909,-7.174247741699219,64.0,194.0,12.386507034301758,-11.420827865600586,0,0,0,40000
1026970,3.3252148628234863,-7.034211158752441,26.0,213.0,11.759040832519531,-11.72043228149414,0,0,0,40000
1026980,3.337111711502075,-6.94359016418457,5.0,221.0,11.424688339233398,-11.89177131652832,0,0,0,40000
1026990,3.3321311473846436,-6.803743839263916,-16.0,185.0,10.791290283203125,-11.961956024169922,0,0,0,40000
1027000,3.3065524101257324,-6.744089603424072,-57.0,129.0,10.63636589050293,-11.908023834228516,0,0,0,40000
1027010,3.2538695335388184,-6.667440891265869,-77.0,83.0,10.377342224121094,-11.690260887145996,0,0,0,40000
1027020,3.206671714782715,-6.637566089630127,-157.0,54.0,10.397573471069336,-11.503923416137695,0,0,0,40000
1027030,3.0918197631835938,-6.614206314086914,-170.0,52.0,10.45615005493164,-10.908934593200684,0,0,0,40000
1027040,3.012409210205078,-6.587233543395996,-193.0,84.0,10.492267608642578,-10.523788452148438,0,0,0,40000
1027050,2.8731706142425537,-6.519026279449463,-211.0,121.0,10.279525756835938,-9.776253700256348,0,0,0,40000
1027060,2.764983654022217,-6.46222448348999,-232.0,153.0,10.133264541625977,-9.211402893066406,0,0,0,40000
1027070,2.6107943058013916,-6.363837242126465,-219.0,156.0,9.735023498535156,-8.366446495056152,0,0,0,40000
1027080,2.514633893966675,-6.293948173522949,-235.0,170.0,9.50535774230957,-7.866104602813721,0,0,0,40000
1027090,2.3485207557678223,-6.183175086975098,-234.0,170.0,9.027538299560547,-6.941842079162598,0,0,0,40000
1027100,2.2465686798095703,-6.102727890014648,-201.0,149.0,8.728860855102539,-6.398707866668701,0,0,0,40000
1027110,2.09729266166687,-6.02020788192749,-206.0,119.0,8.415252685546875,-5.567687034606934,0,0,0,40000
1027120,2.0018484592437744,-5.973528861999512,-198.0,72.0,8.314897537231445,-5.056244850158691,0,0,0,40000
1027130,1.8633897304534912,-5.92136287689209,-199.0,95.0,8.180206298828125,-4.283082962036133,0,0,0,40000
1027140,1.7794939279556274,-5.876142501831055,-168.0,116.0,8.085737228393555,-3.8340907096862793,0,0,0,40000
1027150,1.6701163053512573,-5.802710056304932,-148.0,119.0,7.8201446533203125,-3.229184150695801,0,0,0,40000
1027160,1.6022475957870483,-5.762380123138428,-122.0,111.0,7.751520156860352,-2.870856761932373,0,0,0,40000
1027170,1.5239629745483398,-5.698747158050537,-116.0,71.0,7.541362762451172,-2.44779109954834,0,0,0,40000
1027180,1.4771389961242676,-5.678589820861816,-62.0,91.0,7.591045379638672,-2.211705207824707,0,0,0,40000
1027190,1.4452520608901978,-5.630345344543457,-46.0,69.0,7.471031188964844,-2.0641345977783203,0,0,0,40000
1027200,1.4345154762268066,-5.597026824951172,-26.0,87.0,7.439420700073242,-2.0428876876831055,0,0,0,40000
1027210,1.4255664348602295,-5.533699035644531,-3.0,105.0,7.2262725830078125,-2.03206729888916,0,0,0,40000
1027220,1.4260603189468384,-5.4801530838012695,27.0,161.0,7.070087432861328,-2.0777788162231445,0,0,0,40000
1027230,1.4507654905319214,-5.3709211349487305,51.0,164.0,6.577157974243164,-2.269219398498535,0,0,0,40000
1027240,1.4691559076309204,-5.307796955108643,46.0,144.0,6.358392715454102,-2.4234375953674316,0,0,0,40000
1027250,1.5060911178588867,-5.225599765777588,47.0,97.0,6.022861480712891,-2.689815044403076,0,0,0,40000
1027260,1.5349781513214111,-5.18705415725708,47.0,57.0,5.947664260864258,-2.9088339805603027,0,0,0,40000
1027270,1.584370732307434,-5.142947673797607,65.0,45.0,5.837827682495117,-3.2520275115966797,0,0,0,40000
1027280,1.6106044054031372,-5.122097969055176,61.0,50.0,5.8666534423828125,-3.457425594329834,0,0,0,40000
1027290,1.6316895484924316,-5.102820873260498,40.0,45.0,5.9042816162109375,-3.632699489593506,0,0,0,40000
1027300,1.6416715383529663,-5.076737880706787,21.0,46.0,5.900381088256836,-3.7417478561401367,0,0,0,40000
1027310,1.661960244178772,-5.038327217102051,18.0,59.0,5.821563720703125,-3.913094997406006,0,0,0,40000
1027320,1.67441987991333,-5.030730247497559,7.0,0.0,5.926946640014648,-4.037917613983154,0,0,0,40000
1027330,1.6832689046859741,-5.036722660064697,15.0,-20.0,6.113880157470703,-4.141397953033447,0,0,0,40000
1027340,1.6809114217758179,-5.050695896148682,-3.0,-19.0,6.349071502685547,-4.177731513977051,0,0,0,40000
1027350,1.6711368560791016,-5.082172870635986,-26.0,-32.0,6.689990997314453,-4.169406890869141,0,0,0,40000
1027360,1.6574835777282715,-5.098174571990967,-40.0,-17.0,6.938762664794922,-4.137382507324219,0,0,0,40000
1027370,1.6282095909118652,-5.106380462646484,-32.0,-6.0,7.141120910644531,-4.010890483856201,0,0,0,40000
1027380,1.6119974851608276,-5.088683128356934,-60.0,74.0,7.18781852722168,-3.962203025817871,0,0,0,40000
1027390,1.5677376985549927,-5.036046981811523,-74.0,100.0,7.023780822753906,-3.7442188262939453,0,0,0,40000
1027400,1.5230729579925537,-4.996737480163574,-82.0,74.0,6.938238143920898,-3.522456169128418,0,0,0,40000
1027410,1.460488200187683,-4.9575090408325195,-90.0,41.0,6.852010726928711,-3.191526412963867,0,0,0,40000
1027420,1.4123092889785767,-4.9461822509765625,-95.0,40.0,6.932567596435547,-2.94539737701416,0,0,0,40000
1027430,1.3442615270614624,-4.933845043182373,-103.0,11.0,7.006633758544922,-2.5782718658447266,0,0,0,40000
1027440,1.2955808639526367,-4.928805351257324,-80.0,20.0,7.124334335327148,-2.325615882873535,0,0,0,40000
1027450,1.2430994510650635,-4.90980339050293,-69.0,55.0,7.157888412475586,-2.0485987663269043,0,0,0,40000
1027460,1.2129062414169312,-4.8778910636901855,-33.0,76.0,7.113155364990234,-1.9041824340820312,0,0,0,40000
1027470,1.1851423978805542,-4.802159786224365,-66.0,115.0,6.803810119628906,-1.7735638618469238,0,0,0,40000
1027480,1.1605091094970703,-4.751758575439453,-34.0,144.0,6.6446075439453125,-1.6608476638793945,0,0,0,40000
1027490,1.1414686441421509,-4.65705680847168,-21.0,150.0,6.217258453369141,-1.5810413360595703,0,0,0,40000
1027500,1.1333812475204468,-4.601128101348877,0.0,139.0,6.020374298095703,-1.5666074752807617,0,0,0,40000
1027510,1.1334261894226074,-4.512992858886719,-19.0,121.0,5.627983093261719,-1.600935459136963,0,0,0,40000
1027520,1.1375283002853394,-4.455580234527588,-9.0,108.0,5.4178619384765625,-1.6596226692199707,0,0,0,40000
1027530,1.1409854888916016,-4.396406650543213,15.0,84.0,5.195363998413086,-1.7145371437072754,0,0,0,40000
1027540,1.1534240245819092,-4.363105773925781,12.0,47.0,5.126810073852539,-1.8236069679260254,0,0,0,40000
1027550,1.1621876955032349,-4.336287498474121,22.0,40.0,5.096342086791992,-1.9108867645263672,0,0,0,40000
1027560,1.1689634323120117,-4.308459758758545,23.0,85.0,5.058967590332031,-1.986541748046875,0,0,0,40000
1027570,1.1960870027542114,-4.236424922943115,35.0,130.0,4.754819869995117,-2.1848058700561523,0,0,0,40000
1027580,1.2110459804534912,-4.16889762878418,13.0,168.0,4.47557258605957,-2.3107666969299316,0,0,0,40000
1027590,1.230446457862854,-4.026428699493408,19.0,230.0,3.7433948516845703,-2.463838577270508,0,0,0,40000
1027600,1.2490475177764893,-3.9267349243164062,66.0,193.0,3.264209747314453,-2.6126303672790527,0,0,0,40000
1027610,1.2705186605453491,-3.83083438873291,31.0,113.0,2.8046741485595703,-2.779376983642578,0,0,0,40000
1027620,1.2791966199874878,-3.7942795753479004,6.0,49.0,2.6995792388916016,-2.869729518890381,0,0,0,40000
1027630,1.2822109460830688,-3.7892467975616455,0.0,-21.0,2.782938003540039,-2.9262771606445312,0,0,0,40000
1027640,1.2788426876068115,-3.830533981323242,-18.0,-108.0,3.145059585571289,-2.944450855255127,0,0,0,40000
1027650,1.267930507659912,-3.9401636123657227,-15.0,-170.0,3.9196300506591797,-2.9170780181884766,0,0,0,40000
1027660,1.2563828229904175,-4.02332067489624,-13.0,-188.0,4.538280487060547,-2.885596752166748,0,0,0,40000
1027670,1.2223238945007324,-4.154468059539795,-49.0,-180.0,5.448223114013672,-2.7183589935302734,0,0,0,40000
1027680,1.200783371925354,-4.228425979614258,-48.0,-155.0,6.017948150634766,-2.6254100799560547,0,0,0,40000
1027690,1.1561111211776733,-4.330580711364746,-78.0,-125.0,6.759624481201172,-2.3926639556884766,0,0,0,40000
1027700,1.125238060951233,-4.3940019607543945,-68.0,-91.0,7.27128791809082,-2.241549491882324,0,0,0,40000
1027710,1.0808309316635132,-4.413787841796875,-55.0,32.0,7.522405624389648,-2.008049964904785,0,0,0,40000
1027720,1.0583642721176147,-4.375214576721191,-8.0,127.0,7.422746658325195,-1.90521240234375,0,0,0,40000
1027730,1.0197644233703613,-4.26192569732666,-73.0,205.0,6.872373580932617,-1.704765796661377,0,0,0,40000
1027740,0.9825226664543152,-4.1517839431762695,-79.0,265.0,6.337438583374023,-1.5112361907958984,0,0,0,40000
1027750,0.9260078072547913,-3.9700779914855957,-82.0,273.0,5.368537902832031,-1.200653076171875,0,0,0,40000
1027760,0.8972989320755005,-3.852159261703491,-68.0,244.0,4.778003692626953,-1.0556144714355469,0,0,0,40000
1027770,0.8450337648391724,-3.7046914100646973,-73.0,192.0,4.006000518798828,-0.7679901123046875,0,0,0,40000
1027780,0.8112351298332214,-3.6280176639556885,-84.0,176.0,3.655702590942383,-0.589961051940918,0,0,0,40000
1027790,0.761650562286377,-3.5283162593841553,-83.0,134.0,3.1644973754882812,-0.31591129302978516,0,0,0,40000
1027800,0.7318918108940125,-3.4901881217956543,-66.0,62.0,3.0408554077148438,-0.15967321395874023,0,0,0,40000
1027810,0.6925294995307922,-3.477909803390503,-57.0,-8.0,3.0715198516845703,0.055242061614990234,0,0,0,40000
1027820,0.6741893887519836,-3.4906415939331055,-20.0,-15.0,3.2524681091308594,0.14486455917358398,0,0,0,40000
1027830,0.6549356579780579,-3.524413824081421,-37.0,-57.0,3.560300827026367,0.24041175842285156,0,0,0,40000
1027840,0.6361672282218933,-3.5492658615112305,-31.0,-46.0,3.8155994415283203,0.3337211608886719,0,0,0,40000
1027850,0.6206175088882446,-3.5830764770507812,-24.0,-36.0,4.125568389892578,0.4082515239715576,0,0,0,40000
1027860,0.6122439503669739,-3.5936522483825684,-5.0,3.0,4.296710968017578,0.4400444030761719,0,0,0,40000
1027870,0.6162050366401672,-3.566174268722534,-3.0,58.0,4.23924446105957,0.3978104591369629,0,0,0,40000
1027880,0.6098575592041016,-3.538118839263916,10.0,73.0,4.1774139404296875,0.41755008697509766,0,0,0,40000
1027890,0.5993013978004456,-3.4860875606536865,-23.0,76.0,3.9704227447509766,0.4627108573913574,0,0,0,40000
1027900,0.6034940481185913,-3.449669122695923,12.0,88.0,3.8558406829833984,0.4194962978363037,0,0,0,40000
1027910,0.6106564402580261,-3.412160873413086,15.0,57.0,3.733592987060547,0.35832691192626953,0,0,0,40000
1027920,0.6229459047317505,-3.373103380203247,22.0,105.0,3.600931167602539,0.2660706043243408,0,0,0,40000
1027930,0.646628737449646,-3.299548387527466,36.0,115.0,3.259492874145508,0.10487484931945801,0,0,0,40000
1027940,0.6647518873214722,-3.2399744987487793,25.0,135.0,2.999950408935547,-0.023612022399902344,0,0,0,40000
1027950,0.6866485476493835,-3.1556196212768555,40.0,116.0,2.5894718170166016,-0.1753065586090088,0,0,0,40000
1027960,0.7055152654647827,-3.1042449474334717,42.0,88.0,2.3749313354492188,-0.30943870544433594,0,0,0,40000
1027970,0.7309550642967224,-3.0586438179016113,43.0,59.0,2.193593978881836,-0.48365068435668945,0,0,0,40000
1027980,0.7584086060523987,-3.0524752140045166,57.0,-3.0,2.2481861114501953,-0.6707866191864014,0,0,0,40000
1027990,0.7873842716217041,-3.0819664001464844,58.0,-64.0,2.5171070098876953,-0.8678576946258545,0,0,0,40000
1028000,0.8024537563323975,-3.1143593788146973,9.0,-69.0,2.8045244216918945,-0.9822428226470947,0,0,0,40000
1028010,0.8214223384857178,-3.1992437839508057,23.0,-130.0,3.408702850341797,-1.12050199508667,0,0,0,40000
1028020,0.8374828100204468,-3.248060941696167,18.0,-100.0,3.798452377319336,-1.241818904876709,0,0,0,40000
1028030,0.846222460269928,-3.3120508193969727,21.0,-77.0,4.281060218811035,-1.3195018768310547,0,0,0,40000
1028040,0.8543427586555481,-3.3291821479797363,33.0,-21.0,4.483527183532715,-1.3937263488769531,0,0,0,40000
1028050,0.8759709000587463,-3.3323159217834473,50.0,38.0,4.602418899536133,-1.5494754314422607,0,0,0,40000
1028060,0.8825682401657104,-3.3319389820098877,5.0,-2.0,4.700107574462891,-1.6154627799987793,0,0,0,40000
1028070,0.8877437114715576,-3.313382863998413,5.0,58.0,4.688564300537109,-1.6730976104736328,0,0,0,40000
1028080,0.8834633231163025,-3.2790353298187256,1.0,81.0,4.581259727478027,-1.6739697456359863,0,0,0,40000
1028090,0.8717595338821411,-3.221426486968994,-22.0,108.0,4.333003044128418,-1.6300759315490723,0,0,0,40000
1028100,0.8648005127906799,-3.153139114379883,2.0,174.0,4.018758773803711,-1.6143312454223633,0,0,0,40000
1028110,0.8522019982337952,-3.055601119995117,-30.0,117.0,3.526182174682617,-1.5645551681518555,0,0,0,40000
1028120,0.8358027338981628,-3.010932207107544,-51.0,98.0,3.3490238189697266,-1.4914751052856445,0,0,0,40000
1028130,0.8128924369812012,-2.944847822189331,-48.0,94.0,3.041597366333008,-1.3786919116973877,0,0,0,40000
1028140,0.8006677031517029,-2.9069457054138184,-61.0,90.0,2.901888847351074,-1.3295512199401855,0,0,0,40000
1028150,0.755091667175293,-2.885747194290161,-52.0,30.0,2.861431121826172,-1.079247236251831,0,0,0,40000
1028160,0.7332375049591064,-2.8758046627044678,-38.0,-1.0,2.888132095336914,-0.9703495502471924,0,0,0,40000
1028170,0.6996790766716003,-2.8666250705718994,-44.0,31.0,2.9191761016845703,-0.7903575897216797,0,0,0,40000
1028180,0.6776501536369324,-2.8513855934143066,-41.0,73.0,2.91348934173584,-0.6787900924682617,0,0,0,40000
1028190,0.6525231599807739,-2.795276641845703,-40.0,90.0,2.6613407135009766,-0.5479466915130615,0,0,0,40000
1028200,0.6296300292015076,-2.7601191997528076,-47.0,86.0,2.5336341857910156,-0.4297480583190918,0,0,0,40000
1028210,0.607654333114624,-2.691918134689331,-29.0,81.0,2.205934524536133,-0.316317081451416,0,0,0,40000
1028220,0.5875149965286255,-2.6657662391662598,-16.0,73.0,2.1292877197265625,-0.21331357955932617,0,0,0,40000
1028230,0.5665573477745056,-2.6231346130371094,-19.0,57.0,1.95263671875,-0.10483121871948242,0,0,0,40000
1028240,0.5454959273338318,-2.6152350902557373,-35.0,5.0,1.983785629272461,0.0049092769622802734,0,0,0,40000
1028250,0.5124504566192627,-2.6367626190185547,-48.0,-53.0,2.1916961669921875,0.18738079071044922,0,0,0,40000
1028260,0.5134503841400146,-2.6790478229522705,-31.0,-102.0,2.5252723693847656,0.16598296165466309,0,0,0,40000
1028270,0.49295392632484436,-2.736607313156128,-22.0,-73.0,2.952101707458496,0.27394556999206543,0,0,0,40000
1028280,0.478705495595932,-2.765598773956299,-21.0,-48.0,3.2086896896362305,0.34491443634033203,0,0,0,40000
1028290,0.4480271637439728,-2.785527467727661,-31.0,-9.0,3.4116878509521484,0.5151875019073486,0,0,0,40000
1028300,0.43012455105781555,-2.784083604812622,-17.0,44.0,3.486618995666504,0.6094884872436523,0,0,0,40000
1028310,0.4189533591270447,-2.750025749206543,-13.0,64.0,3.3652610778808594,0.6638073921203613,0,0,0,40000
1028320,0.42247042059898376,-2.704557418823242,-15.0,117.0,3.1741790771484375,0.6300668716430664,0,0,0,40000
1028330,0.41973090171813965,-2.606588840484619,-2.0,151.0,2.6658029556274414,0.6339247226715088,0,0,0,40000
1028340,0.41665196418762207,-2.53347110748291,9.0,176.0,2.3039731979370117,0.6398885250091553,0,0,0,40000
1028350,0.4367951452732086,-2.3989298343658447,38.0,206.0,1.5703516006469727,0.5062463283538818,0,0,0,40000
1028360,0.4578147530555725,-2.3075568675994873,48.0,182.0,1.0924081802368164,0.36661601066589355,0,0,0,40000
1028370,0.49704834818840027,-2.1757218837738037,56.0,186.0,0.3682689666748047,0.1167595386505127,0,0,0,40000
1028380,0.5325048565864563,-2.1028597354888916,69.0,138.0,-0.004993438720703125,-0.11152029037475586,0,0,0,40000
1028390,0.583656370639801,-2.0188682079315186,77.0,104.0,-0.44742870330810547,-0.4352707862854004,0,0,0,40000
1028400,0.6218817830085754,-1.9856568574905396,73.0,42.0,-0.5867891311645508,-0.6828315258026123,0,0,0,40000
1028410,0.6753823161125183,-1.977084755897522,72.0,-20.0,-0.5789699554443359,-1.023493766784668,0,0,0,40000
1028420,0.7140698432922363,-1.9942749738693237,73.0,-37.0,-0.4162282943725586,-1.2765920162200928,0,0,0,40000
1028430,0.7669102549552917,-2.04211163520813,63.0,-82.0,-0.06862068176269531,-1.6160717010498047,0,0,0,40000
1028440,0.7932285666465759,-2.083698272705078,62.0,-102.0,0.2429037094116211,-1.7974534034729004,0,0,0,40000
1028450,0.8141363859176636,-2.142871379852295,56.0,-132.0,0.6489801406860352,-1.942305088043213,0,0,0,40000
1028460,0.8517571091651917,-2.2350051403045654,64.0,-123.0,1.2678260803222656,-2.1931445598602295,0,0,0,40000
1028470,0.8732973337173462,-2.2993831634521484,46.0,-123.0,1.722304344177246,-2.348356246948242,0,0,0,40000
1028480,0.8923274874687195,-2.366227626800537,18.0,-86.0,2.193659782409668,-2.4891884326934814,0,0,0,40000
1028490,0.9079769253730774,-2.3903396129608154,25.0,-7.0,2.409799575805664,-2.610116958618164,0,0,0,40000
1028500,0.9344223737716675,-2.3798258304595947,23.0,67.0,2.4184389114379883,-2.796433210372925,0,0,0,40000
1028510,0.9300137162208557,-2.3389129638671875,0.0,111.0,2.243649482727051,-2.7979605197906494,0,0,0,40000
1028520,0.9278378486633301,-2.266117811203003,7.0,113.0,1.8758001327514648,-2.8127732276916504,0,0,0,40000
1028530,0.9340841174125671,-2.209355592727661,15.0,122.0,1.6021795272827148,-2.8781967163085938,0,0,0,40000
1028540,0.9374436736106873,-2.1329691410064697,14.0,90.0,1.2087535858154297,-2.9264090061187744,0,0,0,40000
1028550,0.9392613768577576,-2.098207712173462,4.0,58.0,1.0635595321655273,-2.96545672416687,0,0,0,40000
1028560,0.9455072283744812,-2.0883097648620605,-6.0,-36.0,1.0667200088500977,-3.0312366485595703,0,0,0,40000
1028570,0.939515233039856,-2.1128127574920654,-27.0,-60.0,1.2768049240112305,-3.023550510406494,0,0,0,40000
1028580,0.9186694025993347,-2.1571590900421143,-30.0,-64.0,1.6070880889892578,-2.926307201385498,0,0,0,40000
1028590,0.9004321694374084,-2.1909501552581787,-28.0,-58.0,1.875162124633789,-2.8441123962402344,0,0,0,40000
1028600,0.8721408247947693,-2.2245352268218994,-54.0,-26.0,2.1430912017822266,-2.7009599208831787,0,0,0,40000
1028610,0.849337100982666,-2.2402026653289795,-58.0,-34.0,2.304107666015625,-2.589883327484131,0,0,0,40000
1028620,0.8133016228675842,-2.2737557888031006,-53.0,-63.0,2.573183059692383,-2.3984827995300293,0,0,0,40000
1028630,0.7879582047462463,-2.308830976486206,-97.0,-39.0,2.852499008178711,-2.270395040512085,0,0,0,40000
1028640,0.72794508934021,-2.323169231414795,-55.0,11.0,3.0082273483276367,-1.9327757358551025,0,0,0,40000
1028650,0.699783444404602,-2.3278679847717285,-72.0,10.0,3.106168746948242,-1.7851614952087402,0,0,0,40000
1028660,0.6497204303741455,-2.3179948329925537,-71.0,33.0,3.1166839599609375,-1.5048718452453613,0,0,0,40000
1028670,0.623176097869873,-2.296509027481079,-64.0,44.0,3.056917190551758,-1.3646025657653809,0,0,0,40000
1028680,0.5861096978187561,-2.263751745223999,-61.0,32.0,2.9286861419677734,-1.1601862907409668,0,0,0,40000
1028690,0.5602794885635376,-2.2440340518951416,-25.0,52.0,2.877948760986328,-1.0222644805908203,0,0,0,40000
1028700,0.5330827236175537,-2.209463119506836,-33.0,46.0,2.7372026443481445,-0.8754348754882812,0,0,0,40000
1028710,0.5080121755599976,-2.187737464904785,-49.0,70.0,2.6727781295776367,-0.7405798435211182,0,0,0,40000
1028720,0.48048293590545654,-2.1496400833129883,-47.0,45.0,2.5091018676757812,-0.5901851654052734,0,0,0,40000
1028730,0.4701712727546692,-2.132441282272339,-28.0,33.0,2.4701147079467773,-0.5425164699554443,0,0,0,40000
1028740,0.454129159450531,-2.1269869804382324,-22.0,0.0,2.5012598037719727,-0.46002650260925293,0,0,0,40000
1028750,0.44423723220825195,-2.1343979835510254,-8.0,-21.0,2.609661102294922,-0.41410040855407715,0,0,0,40000
1028760,0.44079363346099854,-2.158856153488159,10.0,-20.0,2.8208541870117188,-0.406665563583374,0,0,0,40000
1028770,0.4453584849834442,-2.1624348163604736,5.0,-19.0,2.9071426391601562,-0.447376012802124,0,0,0,40000
1028780,0.4475776255130768,-2.175567150115967,26.0,0.0,3.0510902404785156,-0.47402071952819824,0,0,0,40000
1028790,0.4532430171966553,-2.1694278717041016,10.0,42.0,3.0794553756713867,-0.5215542316436768,0,0,0,40000
1028800,0.47255489230155945,-2.135902166366577,29.0,62.0,2.942770004272461,-0.65138840675354,0,0,0,40000
1028810,0.4862205386161804,-2.100538969039917,19.0,95.0,2.794036865234375,-0.747812032699585,0,0,0,40000
1028820,0.5039646029472351,-2.0204339027404785,52.0,127.0,2.375035285949707,-0.8690755367279053,0,0,0,40000
1028830,0.5193341970443726,-1.9625749588012695,45.0,158.0,2.0874834060668945,-0.9766747951507568,0,0,0,40000
1028840,0.5641929507255554,-1.8600425720214844,73.0,133.0,1.5292224884033203,-1.2621283531188965,0,0,0,40000
1028850,0.5969426035881042,-1.8139499425888062,67.0,88.0,1.3076143264770508,-1.476151943206787,0,0,0,40000
1028860,0.6504324674606323,-1.770369529724121,41.0,31.0,1.0995922088623047,-1.8160483837127686,0,0,0,40000
1028870,0.6696313619613647,-1.7716394662857056,32.0,-22.0,1.1603240966796875,-1.9511120319366455,0,0,0,40000
1028880,0.6946617960929871,-1.8063175678253174,46.0,-53.0,1.422043800354004,-2.1217947006225586,0,0,0,40000
1028890,0.7116539478302002,-1.839685320854187,44.0,-60.0,1.6770515441894531,-2.2448649406433105,0,0,0,40000
1028900,0.7276884317398071,-1.8801108598709106,24.0,-66.0,1.975478172302246,-2.3627402782440186,0,0,0,40000
1028910,0.7377010583877563,-1.9121769666671753,17.0,-59.0,2.2248830795288086,-2.4448320865631104,0,0,0,40000
1028920,0.7429295778274536,-1.943806767463684,5.0,-52.0,2.4725866317749023,-2.49847412109375,0,0,0,40000
1028930,0.7412930727005005,-1.970796823501587,-56.0,-13.0,2.6933507919311523,-2.5109915733337402,0,0,0,40000
1028940,0.7404192090034485,-1.9873331785202026,0.0,-6.0,2.852004051208496,-2.527820587158203,0,0,0,40000
1028950,0.7324003577232361,-1.9872829914093018,-6.0,34.0,2.911343574523926,-2.5017378330230713,0,0,0,40000
1028960,0.7185335755348206,-1.9536415338516235,-19.0,66.0,2.7685976028442383,-2.440305471420288,0,0,0,40000
1028970,0.701137363910675,-1.925039291381836,-17.0,93.0,2.655074119567871,-2.357182741165161,0,0,0,40000
1028980,0.6929950714111328,-1.8364917039871216,20.0,128.0,2.180047035217285,-2.3291430473327637,0,0,0,40000
1028990,0.6809582114219666,-1.7781378030776978,-53.0,107.0,1.8839035034179688,-2.2775564193725586,0,0,0,40000
1029000,0.6428780555725098,-1.722351312637329,-34.0,69.0,1.6014490127563477,-2.0687665939331055,0,0,0,40000
1029010,0.6240033507347107,-1.7005788087844849,-58.0,49.0,1.5220746994018555,-1.9744548797607422,0,0,0,40000
1029020,0.587714433670044,-1.6743584871292114,-42.0,41.0,1.4153327941894531,-1.7747244834899902,0,0,0,40000
1029030,0.5543445944786072,-1.665313482284546,-71.0,55.0,1.4111328125,-1.5915656089782715,0,0,0,40000
1029040,0.5158295035362244,-1.6484655141830444,-57.0,0.0,1.3596181869506836,-1.3763866424560547,0,0,0,40000
1029050,0.4914344847202301,-1.652021884918213,-63.0,5.0,1.4304609298706055,-1.2450599670410156,0,0,0,40000
1029060,0.4535927474498749,-1.6603096723556519,-51.0,-11.0,1.5298185348510742,-1.0320360660552979,0,0,0,40000
1029070,0.43196725845336914,-1.6614296436309814,-64.0,-1.0,1.5863800048828125,-0.9154999256134033,0,0,0,40000
1029080,0.38828402757644653,-1.6678338050842285,-64.0,-15.0,1.674696922302246,-0.665553092956543,0,0,0,40000
1029090,0.354128897190094,-1.6853657960891724,-56.0,-47.0,1.8302154541015625,-0.4716324806213379,0,0,0,40000
1029100,0.3195224404335022,-1.7215510606765747,-38.0,-42.0,2.0985240936279297,-0.2739429473876953,0,0,0,40000
1029110,0.2931218147277832,-1.7345139980316162,-55.0,-2.0,2.2282161712646484,-0.1246793270111084,0,0,0,40000
1029120,0.25984928011894226,-1.7347882986068726,-57.0,-14.0,2.2818603515625,0.06674826145172119,0,0,0,40000
1029130,0.24364644289016724,-1.7387512922286987,-42.0,3.0,2.357789993286133,0.1564856767654419,0,0,0,40000
1029140,0.2165268510580063,-1.7299727201461792,-36.0,31.0,2.3571882247924805,0.3124274015426636,0,0,0,40000
1029150,0.20475830137729645,-1.708221197128296,-29.0,67.0,2.278188705444336,0.3767439126968384,0,0,0,40000
1029160,0.1838987171649933,-1.6591899394989014,-41.0,78.0,2.034390449523926,0.49609827995300293,0,0,0,40000
1029170,0.17067287862300873,-1.632312536239624,-17.0,46.0,1.9224157333374023,0.5702000856399536,0,0,0,40000
1029180,0.15460145473480225,-1.6016123294830322,-8.0,33.0,1.7866077423095703,0.6618294715881348,0,0,0,40000
1029190,0.1464938372373581,-1.5903666019439697,-2.0,26.0,1.766988754272461,0.7059633731842041,0,0,0,40000
1029200,0.14765620231628418,-1.5560380220413208,-2.0,66.0,1.6081476211547852,0.6945372819900513,0,0,0,40000
1029210,0.14843085408210754,-1.522158145904541,13.0,93.0,1.4509410858154297,0.6854670643806458,0,0,0,40000
1029220,0.16947326064109802,-1.4520275592803955,42.0,85.0,1.0745582580566406,0.5544525384902954,0,0,0,40000
1029230,0.18344534933567047,-1.4306128025054932,8.0,65.0,0.9892339706420898,0.465267539024353,0,0,0,40000
1029240,0.19003720581531525,-1.4006338119506836,4.0,37.0,0.8516979217529297,0.4200831651687622,0,0,0,40000
1029250,0.19907428324222565,-1.3830466270446777,24.0,24.0,0.7878551483154297,0.36001718044281006,0,0,0,40000
1029260,0.21566006541252136,-1.3954378366470337,28.0,-25.0,0.90380859375,0.25424814224243164,0,0,0,40000
1029270,0.22840577363967896,-1.4197334051132202,21.0,-64.0,1.0918292999267578,0.1710721254348755,0,0,0,40000
1029280,0.2491188496351242,-1.4729690551757812,33.0,-87.0,1.4547510147094727,0.039600253105163574,0,0,0,40000
1029290,0.2635429799556732,-1.5220508575439453,22.0,-71.0,1.7943124771118164,-0.054677724838256836,0,0,0,40000
1029300,0.28342363238334656,-1.572068452835083,42.0,-39.0,2.141038417816162,-0.18217086791992188,0,0,0,40000
1029310,0.29268643260002136,-1.5942623615264893,41.0,-22.0,2.321803092956543,-0.24637436866760254,0,0,0,40000
1029320,0.3106932044029236,-1.6021641492843628,43.0,6.0,2.4172821044921875,-0.36348938941955566,0,0,0,40000
1029330,0.32344579696655273,-1.5919277667999268,29.0,58.0,2.403789520263672,-0.44958949089050293,0,0,0,40000
1029340,0.3597719967365265,-1.5376875400543213,30.0,88.0,2.1252055168151855,-0.6779320240020752,0,0,0,40000
1029350,0.38629987835884094,-1.4814789295196533,53.0,104.0,1.8330554962158203,-0.8483471870422363,0,0,0,40000
1029360,0.4007803201675415,-1.3977268934249878,22.0,142.0,1.3735733032226562,-0.9471096992492676,0,0,0,40000
1029370,0.4076825976371765,-1.3382961750030518,21.0,123.0,1.057835578918457,-1.0006669759750366,0,0,0,40000
1029380,0.4154128432273865,-1.28480064868927,16.0,56.0,0.7759151458740234,-1.0593901872634888,0,0,0,40000
1029390,0.4203554689884186,-1.2624106407165527,15.0,51.0,0.6797151565551758,-1.1016066074371338,0,0,0,40000
1029400,0.4251159727573395,-1.2412728071212769,-9.0,31.0,0.5903711318969727,-1.1429473161697388,0,0,0,40000
1029410,0.4314514994621277,-1.2194199562072754,4.0,28.0,0.4960975646972656,-1.1937944889068604,0,0,0,40000
1029420,0.43656477332115173,-1.1895105838775635,36.0,50.0,0.35271215438842773,-1.237385869026184,0,0,0,40000
1029430,0.43384644389152527,-1.1789127588272095,-15.0,27.0,0.3246345520019531,-1.2341349124908447,0,0,0,40000
1029440,0.4135100841522217,-1.1801973581314087,-23.0,8.0,0.3677186965942383,-1.1247634887695312,0,0,0,40000
1029450,0.402228981256485,-1.1838266849517822,-21.0,17.0,0.42498254776000977,-1.069277286529541,0,0,0,40000
1029460,0.3950311243534088,-1.149457335472107,-22.0,73.0,0.2537841796875,-1.0380163192749023,0,0,0,40000
1029470,0.3746189475059509,-1.1099995374679565,-35.0,89.0,0.05083465576171875,-0.927004337310791,0,0,0,40000
1029480,0.3463970422744751,-1.0316638946533203,-39.0,110.0,-0.3872842788696289,-0.7683902978897095,0,0,0,40000
1029490,0.33160993456840515,-0.9800779819488525,-19.0,103.0,-0.6667923927307129,-0.6897677183151245,0,0,0,40000
1029500,0.3023948669433594,-0.9312319159507751,-43.0,62.0,-0.9314618110656738,-0.5239206552505493,0,0,0,40000
1029510,0.2806258201599121,-0.9228260517120361,-44.0,0.0,-0.9541459083557129,-0.4020075798034668,0,0,0,40000
1029520,0.2507379949092865,-0.9484065175056458,-38.0,-46.0,-0.7726249694824219,-0.23055362701416016,0,0,0,40000
1029530,0.24002008140087128,-0.9689356088638306,-43.0,-50.0,-0.6206083297729492,-0.17356526851654053,0,0,0,40000
1029540,0.21060633659362793,-1.0328372716903687,-38.0,-99.0,-0.2070636749267578,-0.003711700439453125,0,0,0,40000
1029550,0.19403433799743652,-1.0847951173782349,-22.0,-109.0,0.13660526275634766,0.08974266052246094,0,0,0,40000
1029560,0.17519959807395935,-1.144934058189392,-2.0,-91.0,0.5310573577880859,0.197363018989563,0,0,0,40000
1029570,0.1571837216615677,-1.1833142042160034,-35.0,-51.0,0.7963771820068359,0.30048227310180664,0,0,0,40000
1029580,0.14154891669750214,-1.2174100875854492,-28.0,-21.0,1.0371313095092773,0.38982439041137695,0,0,0,40000
1029590,0.12856267392635345,-1.2117990255355835,-5.0,62.0,1.0399627685546875,0.4637504816055298,0,0,0,40000
1029600,0.12618717551231384,-1.1497671604156494,-3.0,130.0,0.7031850814819336,0.47418659925460815,0,0,0,40000
1029610,0.1285708248615265,-1.0683530569076538,-4.0,189.0,0.24773597717285156,0.45605260133743286,0,0,0,40000
1029620,0.12156893312931061,-0.929348349571228,-9.0,206.0,-0.5567293167114258,0.4943135976791382,0,0,0,40000
1029630,0.12155158072710037,-0.831650972366333,-9.0,201.0,-1.1168150901794434,0.4907512068748474,0,0,0,40000
1029640,0.11806220561265945,-0.7124666571617126,-7.0,164.0,-1.809251308441162,0.5080710053443909,0,0,0,40000
1029650,0.11910602450370789,-0.6553664803504944,2.0,92.0,-2.131554126739502,0.49826258420944214,0,0,0,40000
1029660,0.12315461784601212,-0.619085431098938,21.0,31.0,-2.3304026126861572,0.47044503688812256,0,0,0,40000
1029670,0.11568278074264526,-0.6359459757804871,3.0,-85.0,-2.2104387283325195,0.5116890668869019,0,0,0,40000
1029680,0.11599809676408768,-0.7138024568557739,-17.0,-148.0,-1.7229690551757812,0.5062163472175598,0,0,0,40000
1029690,0.11475002765655518,-0.7838560938835144,-6.0,-148.0,-1.2799816131591797,0.5102508068084717,0,0,0,40000
1029700,0.11550319939851761,-0.8739306330680847,15.0,-141.0,-0.7144122123718262,0.5023717284202576,0,0,0,40000
1029710,0.11433496326208115,-0.9384171962738037,-18.0,-143.0,-0.3001112937927246,0.5058938264846802,0,0,0,40000
1029720,0.10056941956281662,-1.0384050607681274,-20.0,-123.0,0.3298006057739258,0.585263192653656,0,0,0,40000
1029730,0.08599532395601273,-1.0809054374694824,-49.0,-74.0,0.6167488098144531,0.6699234843254089,0,0,0,40000
1029740,0.0645969808101654,-1.1103330850601196,-37.0,-3.0,0.8264808654785156,0.7961267828941345,0,0,0,40000
1029750,0.04968464374542236,-1.1085869073867798,-41.0,31.0,0.8493142127990723,0.8839337825775146,0,0,0,40000
1029760,0.016231263056397438,-1.0689256191253662,-46.0,78.0,0.6440129280090332,1.083756685256958,0,0,0,40000
1029770,0.0017076171934604645,-1.0314438343048096,-36.0,73.0,0.4505314826965332,1.1706832647323608,0,0,0,40000
1029780,-0.02366451360285282,-0.9864538908004761,-23.0,71.0,0.21076488494873047,1.3233842849731445,0,0,0,40000
1029790,-0.03581327199935913,-0.9488921165466309,-26.0,85.0,0.014295101165771484,1.3971880674362183,0,0,0,40000
1029800,-0.049322307109832764,-0.8917945027351379,-29.0,94.0,-0.3008127212524414,1.4795271158218384,0,0,0,40000
1029810,-0.060875434428453445,-0.8529307246208191,-47.0,97.0,-0.5079183578491211,1.5505036115646362,0,0,0,40000
1029820,-0.085110604763031,-0.7927625179290771,-17.0,82.0,-0.8444371223449707,1.6982475519180298,0,0,0,40000
1029830,-0.09153793007135391,-0.7554553151130676,-15.0,75.0,-1.0451855659484863,1.7394713163375854,0,0,0,40000
1029840,-0.10796154290437698,-0.7063316702842712,-27.0,50.0,-1.3181958198547363,1.8410017490386963,0,0,0,40000
1029850,-0.1138477623462677,-0.7042564749717712,-14.0,1.0,-1.3095316886901855,1.8796720504760742,0,0,0,40000
1029860,-0.10577235370874405,-0.7163623571395874,35.0,-19.0,-1.2156100273132324,1.8346599340438843,0,0,0,40000
1029870,-0.08733092248439789,-0.730801522731781,23.0,6.0,-1.1071743965148926,1.7268236875534058,0,0,0,40000
1029880,-0.08524325489997864,-0.7485893368721008,-3.0,-27.0,-0.978264331817627,1.7168424129486084,0,0,0,40000
1029890,-0.08320896327495575,-0.7457076907157898,13.0,-3.0,-0.9731311798095703,1.7071645259857178,0,0,0,40000
1029900,-0.0815156027674675,-0.7589622735977173,19.0,-34.0,-0.8710699081420898,1.6994884014129639,0,0,0,40000
1029910,-0.07910683751106262,-0.7732238173484802,-18.0,-18.0,-0.7624611854553223,1.6873817443847656,0,0,0,40000
1029920,-0.06563708186149597,-0.7864173054695129,17.0,-44.0,-0.659965991973877,1.6087510585784912,0,0,0,40000
1029930,-0.05797891691327095,-0.8079693913459778,-10.0,-36.0,-0.5066623687744141,1.5646147727966309,0,0,0,40000
1029940,-0.04768351465463638,-0.8524724245071411,9.0,-72.0,-0.21465778350830078,1.5044673681259155,0,0,0,40000
1029950,-0.05526810139417648,-0.8848429918289185,14.0,-17.0,0.005779266357421875,1.5515446662902832,0,0,0,40000
1029960,-0.0491713285446167,-0.8784890174865723,-3.0,15.0,-0.005839824676513672,1.5164079666137695,0,0,0,40000
1029970,-0.0598195344209671,-0.8730436563491821,-5.0,14.0,-0.012263298034667969,1.5819454193115234,0,0,0,40000
1029980,-0.06118711456656456,-0.8655017614364624,-2.0,11.0,-0.03142833709716797,1.591943383216858,0,0,0,40000
1029990,-0.05061812326312065,-0.8364881873130798,-5.0,84.0,-0.18001985549926758,1.5301692485809326,0,0,0,40000
1030000,-0.04339296743273735,-0.7936883568763733,21.0,101.0,-0.41750288009643555,1.4879322052001953,0,0,0,40000
1030010,-0.019756853580474854,-0.73050457239151,43.0,88.0,-0.7696166038513184,1.3471909761428833,0,0,0,40000
1030020,0.0011618488933891058,-0.6944668889045715,72.0,44.0,-0.9689531326293945,1.2217684984207153,0,0,0,40000
1030030,0.029903845861554146,-0.6659373044967651,25.0,30.0,-1.1158263683319092,1.0483967065811157,0,0,0,40000
1030040,0.04272373765707016,-0.6562648415565491,32.0,5.0,-1.1580557823181152,0.970517635345459,0,0,0,40000
1030050,0.07953829318284988,-0.6440383791923523,2.0,-2.0,-1.2081069946289062,0.747174084186554,0,0,0,40000
1030060,0.08821305632591248,-0.6585268974304199,18.0,-42.0,-1.1054620742797852,0.6930965781211853,0,0,0,40000
1030070,0.09348529577255249,-0.6919575929641724,14.0,-55.0,-0.8804082870483398,0.6581469774246216,0,0,0,40000
1030080,0.09046260267496109,-0.7253136038780212,-7.0,-74.0,-0.663121223449707,0.6740248203277588,0,0,0,40000
1030090,0.07739989459514618,-0.795067310333252,-21.0,-102.0,-0.2169036865234375,0.7493735551834106,0,0,0,40000
1030100,0.07091161608695984,-0.8477763533592224,-26.0,-126.0,0.11938142776489258,0.7865659594535828,0,0,0,40000
1030110,0.04830096662044525,-0.9372004866600037,-24.0,-132.0,0.6885695457458496,0.920242428779602,0,0,0,40000
1030120,0.039508916437625885,-0.9938187003135681,-26.0,-126.0,1.0517840385437012,0.9719722270965576,0,0,0,40000
1030130,0.025987612083554268,-1.0656708478927612,-27.0,-68.0,1.5204801559448242,1.0519932508468628,0,0,0,40000
1030140,0.018005652353167534,-1.082625150680542,2.0,0.0,1.6481385231018066,1.099414587020874,0,0,0,40000
1030150,0.024116018787026405,-1.0542515516281128,10.0,105.0,1.5163564682006836,1.0619410276412964,0,0,0,40000
1030160,0.022378841415047646,-0.9932360649108887,2.0,154.0,1.1745214462280273,1.071810007095337,0,0,0,40000
1030170,0.026005223393440247,-0.8982823491096497,9.0,144.0,0.6382465362548828,1.0491983890533447,0,0,0,40000
1030180,0.026207376271486282,-0.842435359954834,33.0,98.0,0.32370901107788086,1.0473716259002686,0,0,0,40000
1030190,0.045196905732154846,-0.7848781943321228,14.0,59.0,0.0025153160095214844,0.9322658777236938,0,0,0,40000
1030200,0.05544322356581688,-0.7692552804946899,30.0,2.0,-0.0679779052734375,0.8692502975463867,0,0,0,40000
1030210,0.06209498271346092,-0.7875462770462036,-2.0,-37.0,0.06505584716796875,0.8274688720703125,0,0,0,40000
1030220,0.06044301763176918,-0.8089906573295593,0.0,-36.0,0.21775531768798828,0.8355320692062378,0,0,0,40000
1030230,0.06709015369415283,-0.8446238040924072,21.0,-63.0,0.45635318756103516,0.7937418222427368,0,0,0,40000
1030240,0.06524161994457245,-0.8836511373519897,7.0,-87.0,0.7165651321411133,0.8028364181518555,0,0,0,40000
1030250,0.07199564576148987,-0.9388027191162109,27.0,-71.0,1.0749788284301758,0.7602819800376892,0,0,0,40000
1030260,0.07009472697973251,-0.9845013618469238,-3.0,-84.0,1.3781700134277344,0.7695358991622925,0,0,0,40000
1030270,0.07585233449935913,-1.0259281396865845,3.0,-35.0,1.6571264266967773,0.7328420877456665,0,0,0,40000
1030280,0.08316982537508011,-1.034623146057129,13.0,9.0,1.7402591705322266,0.6865453124046326,0,0,0,40000
1030290,0.08564460277557373,-1.0157296657562256,8.0,54.0,1.657656192779541,0.6691887378692627,0,0,0,40000
1030300,0.08647732436656952,-0.9848819375038147,7.0,88.0,1.5024924278259277,0.6615951061248779,0,0,0,40000
1030310,0.07388143241405487,-0.9217222332954407,-5.0,129.0,1.1519880294799805,0.7347536087036133,0,0,0,40000
1030320,0.075261689722538,-0.8617967963218689,26.0,139.0,0.8190159797668457,0.724263072013855,0,0,0,40000
1030330,0.08852096647024155,-0.7755570411682129,4.0,109.0,0.3257589340209961,0.6421723365783691,0,0,0,40000
1030340,0.09422971308231354,-0.7309139370918274,21.0,66.0,0.08034515380859375,0.6051856279373169,0,0,0,40000
1030350,0.09998816251754761,-0.6998476386070251,-7.0,28.0,-0.08478212356567383,0.5676048994064331,0,0,0,40000
1030360,0.10335791856050491,-0.700339674949646,-2.0,-13.0,-0.06085014343261719,0.544294536113739,0,0,0,40000
1030370,0.09813690185546875,-0.7198674082756042,-6.0,-32.0,0.07758283615112305,0.5726046562194824,0,0,0,40000
1030380,0.09869203716516495,-0.7495734095573425,18.0,-50.0,0.27795982360839844,0.5663579702377319,0,0,0,40000
1030390,0.10330072045326233,-0.7903351783752441,15.0,-37.0,0.5457587242126465,0.5356959700584412,0,0,0,40000
1030400,0.09753670543432236,-0.8080026507377625,2.0,-25.0,0.6757903099060059,0.5672652721405029,0,0,0,40000
1030410,0.09220726042985916,-0.82649827003479,-9.0,-26.0,0.8113231658935547,0.5963672995567322,0,0,0,40000
1030420,0.0818343311548233,-0.8385377526283264,-22.0,-29.0,0.9085736274719238,0.6560077667236328,0,0,0,40000
1030430,0.06848157942295074,-0.8368203639984131,-30.0,18.0,0.9234414100646973,0.733869194984436,0,0,0,40000
1030440,0.05458000302314758,-0.8168571591377258,0.0,73.0,0.828458309173584,0.8155131936073303,0,0,0,40000
1030450,0.052447497844696045,-0.7540144920349121,12.0,99.0,0.4747934341430664,0.8267456293106079,0,0,0,40000
1030460,0.04712013155221939,-0.7135717868804932,4.0,143.0,0.25404787063598633,0.857223391532898,0,0,0,40000
1030470,0.060760561376810074,-0.6024348735809326,14.0,199.0,-0.39328527450561523,0.7737342119216919,0,0,0,40000
1030480,0.07826191186904907,-0.5108300447463989,16.0,169.0,-0.9265315532684326,0.6665934324264526,0,0,0,40000
1030490,0.08843577653169632,-0.39686182141304016,17.0,145.0,-1.5971193313598633,0.6030400395393372,0,0,0,40000
1030500,0.09752684831619263,-0.3513524830341339,22.0,81.0,-1.8591225147247314,0.5456825494766235,0,0,0,40000
1030510,0.10768861323595047,-0.32730284333229065,14.0,13.0,-1.9934701919555664,0.48158103227615356,0,0,0,40000
1030520,0.11200663447380066,-0.33598408102989197,19.0,-42.0,-1.9314374923706055,0.4523724913597107,0,0,0,40000
1030530,0.13040125370025635,-0.3813857138156891,21.0,-75.0,-1.6482152938842773,0.33833301067352295,0,0,0,40000
1030540,0.14291851222515106,-0.41828277707099915,46.0,-63.0,-1.414736270904541,0.2591066360473633,0,0,0,40000
1030550,0.16615049540996552,-0.46112650632858276,15.0,-36.0,-1.1442701816558838,0.11493957042694092,0,0,0,40000
1030560,0.18871872127056122,-0.46777915954589844,49.0,-23.0,-1.0903851985931396,-0.02582573890686035,0,0,0,40000
1030570,0.21163763105869293,-0.4894542396068573,36.0,-27.0,-0.9459109306335449,-0.16948652267456055,0,0,0,40000
1030580,0.21977482736110687,-0.49538758397102356,33.0,-20.0,-0.8955049514770508,-0.22480499744415283,0,0,0,40000
1030590,0.2271793931722641,-0.5149338245391846,3.0,-30.0,-0.7629952430725098,-0.2760387659072876,0,0,0,40000
1030600,0.23113857209682465,-0.5230743288993835,14.0,-2.0,-0.698519229888916,-0.30666327476501465,0,0,0,40000
1030610,0.23486661911010742,-0.539851725101471,-2.0,-26.0,-0.5819082260131836,-0.3360922336578369,0,0,0,40000
1030620,0.23026253283023834,-0.5449782609939575,-2.0,16.0,-0.5348489284515381,-0.3154333829879761,0,0,0,40000
1030630,0.21342691779136658,-0.5332111716270447,-24.0,32.0,-0.5892624855041504,-0.22107303142547607,0,0,0,40000
1030640,0.20261423289775848,-0.5120639801025391,-40.0,69.0,-0.7005064487457275,-0.16243219375610352,0,0,0,40000
1030650,0.17615175247192383,-0.46792322397232056,-42.0,70.0,-0.9507846832275391,-0.009259223937988281,0,0,0,40000
1030660,0.16830310225486755,-0.4488714933395386,4.0,73.0,-1.0514159202575684,0.03274035453796387,0,0,0,40000
1030670,0.1377856433391571,-0.4231102168560028,-50.0,38.0,-1.193047285079956,0.21119922399520874,0,0,0,40000
1030680,0.11987470835447311,-0.403584361076355,-34.0,29.0,-1.2978544235229492,0.31486815214157104,0,0,0,40000
1030690,0.08796953409910202,-0.3892481029033661,-39.0,1.0,-1.3720653057098389,0.503250777721405,0,0,0,40000
1030700,0.07600446790456772,-0.3811711370944977,-43.0,13.0,-1.4090070724487305,0.5726115703582764,0,0,0,40000
1030710,0.045988600701093674,-0.39066165685653687,-35.0,-16.0,-1.3405277729034424,0.7509878873825073,0,0,0,40000
1030720,0.029416201636195183,-0.4005250632762909,-23.0,-45.0,-1.2694611549377441,0.849332332611084,0,0,0,40000
1030730,-0.004717235919088125,-0.4801081418991089,-52.0,-129.0,-0.7787086963653564,1.0537828207015991,0,0,0,40000
1030740,-0.023415276780724525,-0.5482519268989563,-22.0,-168.0,-0.3542506694793701,1.1664798259735107,19.99998925387031,0.020732705372993723,0,40000
1030750,-0.0388445220887661,-0.672094464302063,-18.0,-173.0,0.2827160358428955,121.61997985839844,19.337083705022337,5.106583376873381,0,40000
1030760,-0.0503598190844059,-0.741910457611084,-4.0,-170.0,-29.884260177612305,118.30107879638672,17.407407665386007,9.847951988665487,0,40000
1030770,-0.034512441605329514,-0.8462024331092834,59.0,-146.0,-57.92100524902344,107.1746826171875,14.3308436562922,13.950875244905232,0,40000
1030780,0.01717056892812252,-0.9008709788322449,158.0,-140.0,-82.52884674072266,88.89066314697266,10.243173118525963,17.177817220587343,0,40000
1030790,0.1649240255355835,-1.0293734073638916,270.0,-229.0,-101.54757690429688,63.85604476928711,5.3305590165360766,19.276543792164247,0,40000
1030800,0.311841756105423,-1.1648861169815063,391.0,-402.0,-113.83416748046875,33.73969268798828,5.3305590165360766,19.276543792164247,0,40000
1030810,0.6146395802497864,-1.553329348564148,506.0,-723.0,-116.37506103515625,1.642833948135376,-4.843094237649773,19.404752979753276,0,40000
1030820,0.8691785335540771,-1.9651834964752197,609.0,-1103.0,-110.88198852539062,-30.60765838623047,-4.843094237649773,19.404752979753276,0,40000
1030830,1.3122714757919312,-2.8588531017303467,654.0,-1507.0,-92.39776611328125,-66.30439758300781,-10.314108039607952,17.13531952860216,0,40000
1030840,1.6440259218215942,-3.62656569480896,720.0,-1832.0,-69.12317657470703,-92.73243713378906,-14.323903481491822,13.958000897438946,0,40000
1030850,2.117525100708008,-4.963466644287109,670.0,-2042.0,-36.91791534423828,-114.4587631225586,-17.38713047089149,9.883708513923137,0,40000
1030860,2.4050235748291016,-5.918182849884033,599.0,-2067.0,-2.858938217163086,-128.42445373535156,-19.32691733481812,5.14492627091068,0,40000
1030870,2.756777286529541,-7.293746471405029,398.0,-1946.0,35.89679718017578,-135.23541259765625,-19.999861979756382,0.07430202349302141,0,40000
1030880,2.907489776611328,-8.11666488647461,203.0,-1620.0,71.70530700683594,-132.969482421875,-19.35788122050288,-5.027169646322073,0,40000
1030890,2.9783616065979004,-9.085582733154297,-35.0,-1192.0,107.20247650146484,-122.1697998046875,-17.377409292945764,-9.900790183891496,0,40000
1030900,2.917029857635498,-9.50374984741211,-257.0,-591.0,110.28894805908203,-122.41149139404297,-14.221230602698311,-14.062595782602763,0,40000
1030910,2.669448137283325,-9.663153648376465,-474.0,166.0,136.92762756347656,-102.49911499023438,-10.173198100334634,-17.21935075464077,0,40000
1030920,2.387871742248535,-9.400837898254395,-726.0,1029.0,155.0964813232422,-76.90177917480469,-5.461535418396462,-19.239844876547238,0,40000
1030930,1.7882848978042603,-8.405019760131836,-946.0,1913.0,162.0877685546875,-45.25943374633789,-0.3883843147006395,-19.996228585013085,0,40000
1030940,1.2782797813415527,-7.350215911865234,-1160.0,2762.0,161.13076782226562,-11.816751480102539,4.722773219972938,-19.43438738712148,0,40000
1030950,0.4022902846336365,-5.215511798858643,-1317.0,3466.0,145.7181396484375,24.224868774414062,9.586719988235519,-17.552629428868073,0,40000
1030960,-0.24517777562141418,-3.507169008255005,-1470.0,3993.0,124.83013916015625,57.58039855957031,13.772051542527306,-14.502778916813536,0,40000
1030970,-1.275916337966919,-0.6223577857017517,-1534.0,4366.0,89.71138763427734,89.31574249267578,17.06946282947541,-10.42273662303511,0,40000
1030980,-1.97083580493927,1.4127469062805176,-1532.0,4565.0,53.33979034423828,113.81283569335938,19.160415178184046,-5.733976822382046,0,40000
1030990,-3.0077784061431885,4.544622421264648,-1479.0,4590.0,6.517396926879883,133.2204132080078,19.988765230409957,-0.6702720071388899,0,40000
1031000,-3.7003061771392822,6.6103339195251465,-1399.0,4498.0,-36.38218307495117,143.04312133789062,19.497548190044427,4.454841700542836,0,40000
1031010,-4.702244281768799,9.59570598602295,-1317.0,4306.0,-85.40049743652344,146.8244171142578,17.646722950277844,9.412394441168368,0,40000
1031020,-5.331514358520508,11.476030349731445,-1220.0,3980.0,-127.00228118896484,140.18798828125,14.609373069640888,13.658924500561954,0,40000
1031030,-6.215864181518555,14.03382682800293,-1058.0,3582.0,-168.5782928466797,127.92086791992188,10.587329991320555,16.967865029369026,0,40000
1031040,-6.744929790496826,15.53192138671875,-911.0,3092.0,-198.3380889892578,107.52497100830078,5.918896841527481,19.104100611631946,0,40000
1031050,-7.425350189208984,17.414562225341797,-699.0,2506.0,-223.49993896484375,84.04556274414062,0.8300286473260403,19.982768888335222,0,40000
1031060,-7.790826797485352,18.392562866210938,-545.0,1846.0,-235.769287109375,56.02059555053711,-4.278714459351308,19.536954792785338,0,40000
1031070,-8.190325736999512,19.39473533630371,-427.0,1220.0,-240.27023315429688,27.939416885375977,-9.119168338850127,17.800021595709186,0,40000
1031080,-8.356610298156738,19.73041534423828,-209.0,386.0,-233.005859375,-0.07223749160766602,-13.360343973497478,14.88291668020182,0,40000
1031090,-8.458642959594727,19.713794708251953,-64.0,-333.0,-216.495849609375,-24.978466033935547,-16.695476141929507,11.011860714441617,0,40000
1031100,-8.432969093322754,19.32745933532715,73.0,-1198.0,-191.9132080078125,-45.35072326660156,-18.951596947766866,6.390381297653026,0,40000
1031110,-8.259448051452637,18.14297103881836,188.0,-2107.0,-157.91270446777344,-60.2062873840332,-18.951596947766866,6.390381297653026,0,40000
1031120,-8.070101737976074,16.94689178466797,297.0,-3005.0,-121.2042236328125,-67.69145202636719,-19.953755432525636,1.3592807432438838,0,40000
