timestamp,motor.m1,motor.m2,motor.m3,motor.m4,roll,pitch,yawdot,thrust
891974,7268.0,39966.0,65535.0,39966.0,0,0,0,40000
891984,7430.0,39804.0,65535.0,39804.0,0,0,0,40000
891994,7587.0,39647.0,65535.0,39647.0,0,0,0,40000
892004,7689.0,39545.0,65535.0,39545.0,0,0,0,40000
892014,7687.0,39547.0,65535.0,39547.0,0,0,0,40000
892024,7943.0,39291.0,65535.0,39291.0,0,0,0,40000
892034,7690.0,39544.0,65535.0,39544.0,0,0,0,40000
892044,7645.0,39589.0,65535.0,39589.0,0,0,0,40000
892054,7528.0,39706.0,65535.0,39706.0,0,0,0,40000
892064,7243.0,39991.0,65535.0,39991.0,0,0,0,40000
892074,7031.0,40203.0,65535.0,40203.0,0,0,0,40000
892084,6667.0,40567.0,65535.0,40567.0,0,0,0,40000
892094,7417.0,39817.0,65535.0,42427.0,0,0,0,40000
892104,20384.0,26850.0,56460.0,56306.0,0,0,0,40000
892114,23357.0,23877.0,52149.0,60617.0,0,0,0,40000
892124,36373.0,10861.0,37177.0,65535.0,0,0,0,40000
892134,35270.0,11964.0,36646.0,65535.0,0,0,0,40000
892144,36514.0,13650.0,33584.0,65535.0,0,0,0,40000
892154,36705.0,14895.0,32339.0,65535.0,0,0,0,40000
892164,45073.0,23903.0,23331.0,65535.0,0,0,0,40000
892174,42358.0,22064.0,25170.0,65535.0,0,0,0,40000
892184,48974.0,27604.0,19630.0,63792.0,0,0,0,40000
892194,51721.0,29463.0,17771.0,61045.0,0,0,0,40000
892204,56015.0,33069.0,14165.0,56751.0,0,0,0,40000
892214,42759.0,43517.0,28749.0,44975.0,0,0,0,40000
892224,44980.0,52724.0,27936.0,34360.0,0,0,0,40000
892234,32802.0,63298.0,41364.0,22536.0,0,0,0,40000
892244,33605.0,65535.0,41431.0,13629.0,0,0,0,40000
892254,30990.0,65535.0,43170.0,16244.0,0,0,0,40000
892264,34640.0,65535.0,40218.0,12594.0,0,0,0,40000
892274,33568.0,65535.0,40988.0,13666.0,0,0,0,40000
892284,35417.0,65535.0,38715.0,11817.0,0,0,0,40000
892294,32883.0,65535.0,41241.0,14351.0,0,0,0,40000
892304,35379.0,65535.0,39169.0,11855.0,0,0,0,40000
892314,32910.0,65535.0,41628.0,14324.0,0,0,0,40000
892324,32826.0,65535.0,41718.0,14408.0,0,0,0,40000
892334,31111.0,65535.0,43935.0,16123.0,0,0,0,40000
892344,31254.0,65535.0,45176.0,15980.0,0,0,0,40000
892354,32024.0,65535.0,44672.0,16862.0,0,0,0,40000
892364,36475.0,58059.0,41525.0,23941.0,0,0,0,40000
892374,39874.0,50710.0,38480.0,30936.0,0,0,0,40000
892384,46819.0,40259.0,32873.0,40049.0,0,0,0,40000
892394,46289.0,37549.0,33085.0,43077.0,0,0,0,40000
892404,50080.0,29126.0,30276.0,50518.0,0,0,0,40000
892414,47444.0,29794.0,32994.0,49768.0,0,0,0,40000
892424,48434.0,24396.0,32086.0,55084.0,0,0,0,40000
892434,40958.0,29102.0,38510.0,51430.0,0,0,0,40000
892444,38443.0,24865.0,40763.0,55929.0,0,0,0,40000
892454,32676.0,29888.0,45976.0,51460.0,0,0,0,40000
892464,27760.0,31326.0,49844.0,51070.0,0,0,0,40000
892474,24756.0,35974.0,53844.0,45426.0,0,0,0,40000
892484,19454.0,35178.0,58494.0,46874.0,0,0,0,40000
892494,18548.0,37572.0,59416.0,44464.0,0,0,0,40000
892504,15174.0,39188.0,62428.0,43210.0,0,0,0,40000
892514,17071.0,40525.0,61367.0,41037.0,0,0,0,40000
892524,17185.0,38353.0,61181.0,43281.0,0,0,0,40000
892534,18810.0,39560.0,59870.0,41760.0,0,0,0,40000
892544,20299.0,36445.0,58055.0,45201.0,0,0,0,40000
892554,24797.0,36725.0,53983.0,44495.0,0,0,0,40000
892564,28656.0,34428.0,50336.0,46580.0,0,0,0,40000
892574,30565.0,35907.0,48651.0,44877.0,0,0,0,40000
892584,32893.0,32143.0,45855.0,49109.0,0,0,0,40000
892594,34808.0,34682.0,44580.0,45930.0,0,0,0,40000
892604,37446.0,34748.0,41764.0,46042.0,0,0,0,40000
892614,37628.0,36698.0,42620.0,43054.0,0,0,0,40000
892624,39696.0,37454.0,40510.0,42340.0,0,0,0,40000
892634,37925.0,41071.0,42577.0,38427.0,0,0,0,40000
892644,38038.0,42842.0,42444.0,36676.0,0,0,0,40000
892654,37393.0,42719.0,44049.0,35839.0,0,0,0,40000
892664,38459.0,45409.0,43131.0,33001.0,0,0,0,40000
892674,36751.0,47781.0,44589.0,30879.0,0,0,0,40000
892684,38476.0,50284.0,43110.0,28130.0,0,0,0,40000
892694,37007.0,49247.0,44223.0,29523.0,0,0,0,40000
892704,38441.0,49245.0,43545.0,28769.0,0,0,0,40000
892714,38601.0,48985.0,42255.0,30159.0,0,0,0,40000
892724,39621.0,47517.0,41761.0,31101.0,0,0,0,40000
892734,39254.0,46932.0,41976.0,31838.0,0,0,0,40000
892744,40333.0,45925.0,40719.0,33023.0,0,0,0,40000
892754,39892.0,45528.0,40380.0,34200.0,0,0,0,40000
892764,41470.0,43490.0,39158.0,35882.0,0,0,0,40000
892774,41138.0,42086.0,39158.0,37618.0,0,0,0,40000
892784,41027.0,41175.0,39343.0,38455.0,0,0,0,40000
892794,40441.0,40815.0,38737.0,40007.0,0,0,0,40000
892804,39199.0,40445.0,40629.0,39727.0,0,0,0,40000
892814,37967.0,39763.0,41963.0,40307.0,0,0,0,40000
892824,36598.0,39992.0,41560.0,41850.0,0,0,0,40000
892834,35539.0,41171.0,43841.0,39449.0,0,0,0,40000
892844,33361.0,41481.0,45113.0,40045.0,0,0,0,40000
892854,32386.0,41244.0,46736.0,39634.0,0,0,0,40000
892864,30383.0,41433.0,48053.0,40131.0,0,0,0,40000
892874,31587.0,40719.0,47241.0,40453.0,0,0,0,40000
892884,28989.0,40721.0,49081.0,41209.0,0,0,0,40000
892894,31125.0,39111.0,47589.0,42175.0,0,0,0,40000
892904,29234.0,40004.0,48384.0,42378.0,0,0,0,40000
892914,31202.0,39100.0,47882.0,41816.0,0,0,0,40000
892924,30617.0,38645.0,47311.0,43427.0,0,0,0,40000
892934,32496.0,37940.0,46902.0,42662.0,0,0,0,40000
892944,32276.0,38784.0,46434.0,42506.0,0,0,0,40000
892954,32712.0,38138.0,46232.0,42918.0,0,0,0,40000
892964,32628.0,38976.0,46180.0,42216.0,0,0,0,40000
892974,33737.0,38183.0,45863.0,42217.0,0,0,0,40000
892984,33462.0,39666.0,45332.0,41540.0,0,0,0,40000
892994,33770.0,40370.0,46064.0,39796.0,0,0,0,40000
893004,32852.0,41264.0,46994.0,38890.0,0,0,0,40000
893014,33438.0,40628.0,46694.0,39240.0,0,0,0,40000
893024,35084.0,41296.0,44306.0,39314.0,0,0,0,40000
893034,33882.0,42226.0,45506.0,38386.0,0,0,0,40000
893044,34871.0,41773.0,46017.0,37339.0,0,0,0,40000
893054,34414.0,42900.0,46184.0,36502.0,0,0,0,40000
893064,35517.0,42993.0,44777.0,36713.0,0,0,0,40000
893074,36710.0,42926.0,42846.0,37518.0,0,0,0,40000
893084,36392.0,41052.0,44556.0,38000.0,0,0,0,40000
893094,36828.0,41772.0,42492.0,38908.0,0,0,0,40000
893104,37741.0,40475.0,42803.0,38981.0,0,0,0,40000
893114,37183.0,41871.0,42529.0,38417.0,0,0,0,40000
893124,37384.0,41086.0,43090.0,38440.0,0,0,0,40000
893134,37847.0,41807.0,42025.0,38505.0,0,0,0,40000
893144,36315.0,41323.0,43535.0,38827.0,0,0,0,40000
893154,35466.0,42268.0,44456.0,37810.0,0,0,0,40000
893164,35494.0,42702.0,44314.0,37490.0,0,0,0,40000
893174,34741.0,43717.0,45453.0,36089.0,0,0,0,40000
893184,34929.0,43643.0,44711.0,36717.0,0,0,0,40000
893194,33976.0,44122.0,46052.0,35850.0,0,0,0,40000
893204,34614.0,43062.0,44762.0,37562.0,0,0,0,40000
893214,34988.0,42562.0,44484.0,37966.0,0,0,0,40000
893224,35482.0,42758.0,43814.0,37946.0,0,0,0,40000
893234,34782.0,41094.0,45776.0,38348.0,0,0,0,40000
893244,34479.0,41535.0,44719.0,39267.0,0,0,0,40000
893254,35240.0,40198.0,44576.0,39986.0,0,0,0,40000
893264,36030.0,39914.0,42892.0,41164.0,0,0,0,40000
893274,34421.0,39449.0,45789.0,40341.0,0,0,0,40000
893284,34571.0,40933.0,44111.0,40385.0,0,0,0,40000
893294,34674.0,40386.0,45032.0,39908.0,0,0,0,40000
893304,34375.0,40277.0,44547.0,40801.0,0,0,0,40000
893314,33555.0,39525.0,47075.0,39845.0,0,0,0,40000
893324,32236.0,41686.0,46208.0,39870.0,0,0,0,40000
893334,32445.0,40979.0,47257.0,39319.0,0,0,0,40000
893344,32678.0,41708.0,46162.0,39452.0,0,0,0,40000
893354,33114.0,41652.0,47252.0,37982.0,0,0,0,40000
893364,32739.0,42207.0,46637.0,38417.0,0,0,0,40000
893374,31986.0,42020.0,47418.0,38576.0,0,0,0,40000
893384,32734.0,42058.0,46586.0,38622.0,0,0,0,40000
893394,33706.0,40820.0,46742.0,38732.0,0,0,0,40000
893404,33352.0,43342.0,45884.0,37422.0,0,0,0,40000
893414,34658.0,42172.0,45126.0,38044.0,0,0,0,40000
893424,35012.0,41322.0,44500.0,39166.0,0,0,0,40000
893434,36234.0,40132.0,44348.0,39286.0,0,0,0,40000
893444,35842.0,39524.0,43494.0,41140.0,0,0,0,40000
893454,37435.0,39931.0,42639.0,39995.0,0,0,0,40000
893464,37657.0,39785.0,41887.0,40671.0,0,0,0,40000
893474,37825.0,39559.0,42311.0,40305.0,0,0,0,40000
893484,36160.0,40220.0,43500.0,40120.0,0,0,0,40000
893494,35314.0,41390.0,44094.0,39202.0,0,0,0,40000
893504,34718.0,41526.0,45174.0,38582.0,0,0,0,40000
893514,35153.0,41691.0,44759.0,38397.0,0,0,0,40000
893524,35047.0,42405.0,44625.0,37923.0,0,0,0,40000
893534,33780.0,42824.0,45662.0,37734.0,0,0,0,40000
893544,33730.0,41322.0,46240.0,38708.0,0,0,0,40000
893554,33087.0,42133.0,46599.0,38181.0,0,0,0,40000
893564,33738.0,41710.0,46080.0,38472.0,0,0,0,40000
893574,34433.0,41503.0,44845.0,39219.0,0,0,0,40000
893584,34717.0,41647.0,44895.0,38741.0,0,0,0,40000
893594,33165.0,39997.0,46483.0,40355.0,0,0,0,40000
893604,34312.0,41228.0,45404.0,39056.0,0,0,0,40000
893614,34572.0,39870.0,45366.0,40192.0,0,0,0,40000
893624,35516.0,42098.0,43580.0,38806.0,0,0,0,40000
893634,33983.0,41125.0,45961.0,38931.0,0,0,0,40000
893644,32752.0,43118.0,46886.0,37244.0,0,0,0,40000
893654,33804.0,42556.0,45928.0,37712.0,0,0,0,40000
893664,34730.0,41676.0,45032.0,38562.0,0,0,0,40000
893674,34060.0,42622.0,45826.0,37492.0,0,0,0,40000
893684,34235.0,42813.0,45523.0,37429.0,0,0,0,40000
893694,34807.0,42065.0,45003.0,38125.0,0,0,0,40000
893704,35999.0,41919.0,44149.0,37933.0,0,0,0,40000
893714,34362.0,41552.0,44824.0,39262.0,0,0,0,40000
893724,36358.0,42342.0,43994.0,37306.0,0,0,0,40000
893734,35711.0,42583.0,43277.0,38429.0,0,0,0,40000
893744,37044.0,40646.0,43922.0,38388.0,0,0,0,40000
893754,35682.0,41150.0,43714.0,39454.0,0,0,0,40000
893764,36419.0,41873.0,43355.0,38353.0,0,0,0,40000
893774,35859.0,41887.0,44289.0,37965.0,0,0,0,40000
893784,35389.0,43083.0,44399.0,37129.0,0,0,0,40000
893794,34484.0,43112.0,44964.0,37440.0,0,0,0,40000
893804,34051.0,42747.0,45629.0,37573.0,0,0,0,40000
893814,34182.0,43768.0,45946.0,36104.0,0,0,0,40000
893824,33155.0,44277.0,46533.0,36035.0,0,0,0,40000
893834,33653.0,43629.0,46071.0,36647.0,0,0,0,40000
893844,34404.0,41064.0,45090.0,39442.0,0,0,0,40000
893854,34681.0,42357.0,45235.0,37727.0,0,0,0,40000
893864,34388.0,42532.0,45162.0,37918.0,0,0,0,40000
893874,33846.0,42084.0,45598.0,38472.0,0,0,0,40000
893884,35503.0,40507.0,43927.0,40063.0,0,0,0,40000
893894,35561.0,39929.0,44441.0,40069.0,0,0,0,40000
893904,35080.0,40492.0,44768.0,39660.0,0,0,0,40000
893914,35123.0,40859.0,44509.0,39509.0,0,0,0,40000
893924,35105.0,41071.0,43857.0,39967.0,0,0,0,40000
893934,35914.0,39566.0,44192.0,40328.0,0,0,0,40000
893944,35614.0,40434.0,44194.0,39758.0,0,0,0,40000
893954,35208.0,40572.0,44526.0,39694.0,0,0,0,40000
893964,35152.0,41760.0,43904.0,39184.0,0,0,0,40000
893974,35323.0,41187.0,44757.0,38733.0,0,0,0,40000
893984,35163.0,41911.0,44217.0,38709.0,0,0,0,40000
893994,34784.0,41618.0,45300.0,38298.0,0,0,0,40000
894004,34879.0,42467.0,44861.0,37793.0,0,0,0,40000
894014,32701.0,43505.0,47005.0,36789.0,0,0,0,40000
894024,34513.0,41491.0,45677.0,38319.0,0,0,0,40000
894034,33769.0,42279.0,45429.0,38523.0,0,0,0,40000
894044,34828.0,41878.0,44978.0,38316.0,0,0,0,40000
894054,33785.0,43643.0,45669.0,36903.0,0,0,0,40000
894064,35546.0,40554.0,44964.0,38936.0,0,0,0,40000
894074,34754.0,40950.0,44626.0,39670.0,0,0,0,40000
894084,34857.0,40653.0,45039.0,39451.0,0,0,0,40000
894094,34938.0,41824.0,43966.0,39272.0,0,0,0,40000
894104,34917.0,41431.0,45355.0,38297.0,0,0,0,40000
894114,35153.0,41399.0,44539.0,38909.0,0,0,0,40000
894124,36433.0,40831.0,43133.0,39603.0,0,0,0,40000
894134,34976.0,40310.0,44220.0,40494.0,0,0,0,40000
894144,34516.0,40150.0,45552.0,39782.0,0,0,0,40000
894154,33785.0,41287.0,45725.0,39203.0,0,0,0,40000
894164,33763.0,40957.0,45979.0,39301.0,0,0,0,40000
894174,33574.0,41638.0,45592.0,39196.0,0,0,0,40000
894184,34020.0,41126.0,46122.0,38732.0,0,0,0,40000
894194,32264.0,42362.0,47408.0,37966.0,0,0,0,40000
894204,33463.0,40173.0,46413.0,39951.0,0,0,0,40000
894214,33090.0,41246.0,46124.0,39540.0,0,0,0,40000
894224,34314.0,40896.0,45688.0,39102.0,0,0,0,40000
894234,32999.0,41237.0,46797.0,38967.0,0,0,0,40000
894244,34529.0,39665.0,45281.0,40525.0,0,0,0,40000
894254,34589.0,41053.0,44987.0,39371.0,0,0,0,40000
894264,32525.0,40785.0,47145.0,39545.0,0,0,0,40000
894274,32930.0,41392.0,46564.0,39114.0,0,0,0,40000
894284,33420.0,42218.0,46088.0,38274.0,0,0,0,40000
894294,34643.0,41125.0,45211.0,39021.0,0,0,0,40000
894304,34101.0,40793.0,46013.0,39093.0,0,0,0,40000
894314,33843.0,41289.0,45783.0,39085.0,0,0,0,40000
894324,34820.0,41742.0,44378.0,39060.0,0,0,0,40000
894334,34493.0,41561.0,45241.0,38705.0,0,0,0,40000
894344,34326.0,40280.0,45792.0,39602.0,0,0,0,40000
894354,34272.0,40742.0,45272.0,39714.0,0,0,0,40000
894364,34751.0,41815.0,44967.0,38467.0,0,0,0,40000
894374,35013.0,40721.0,44989.0,39277.0,0,0,0,40000
894384,33426.0,42036.0,46142.0,38396.0,0,0,0,40000
894394,33282.0,41436.0,46546.0,38736.0,0,0,0,40000
894404,33718.0,42016.0,45260.0,39006.0,0,0,0,40000
894414,34983.0,40231.0,45617.0,39169.0,0,0,0,40000
894424,33695.0,41147.0,45629.0,39529.0,0,0,0,40000
894434,34435.0,41163.0,45993.0,38409.0,0,0,0,40000
894444,33493.0,42937.0,45785.0,37785.0,0,0,0,40000
894454,34258.0,42026.0,45642.0,38074.0,0,0,0,40000
894464,33319.0,41497.0,46359.0,38825.0,0,0,0,40000
894474,34654.0,40982.0,45418.0,38946.0,0,0,0,40000
894484,34570.0,41968.0,44386.0,39076.0,0,0,0,40000
894494,35174.0,40224.0,44972.0,39630.0,0,0,0,40000
894504,34184.0,40018.0,45160.0,40638.0,0,0,0,40000
894514,33838.0,40158.0,46102.0,39902.0,0,0,0,40000
894524,34558.0,40408.0,44546.0,40488.0,0,0,0,40000
894534,35130.0,40098.0,45318.0,39454.0,0,0,0,40000
894544,34778.0,41978.0,44806.0,38438.0,0,0,0,40000
894554,33646.0,40298.0,46034.0,40022.0,0,0,0,40000
894564,33623.0,41889.0,45871.0,38617.0,0,0,0,40000
894574,33463.0,41139.0,46547.0,38851.0,0,0,0,40000
894584,32577.0,42429.0,46979.0,38015.0,0,0,0,40000
894594,32256.0,42468.0,47750.0,37526.0,0,0,0,40000
894604,32298.0,41934.0,46708.0,39060.0,0,0,0,40000
894614,34367.0,40013.0,46031.0,39589.0,0,0,0,40000
894624,33595.0,42979.0,45715.0,37711.0,0,0,0,40000
894634,34353.0,40359.0,45523.0,39765.0,0,0,0,40000
894644,34532.0,41260.0,44898.0,39310.0,0,0,0,40000
894654,34067.0,41217.0,45857.0,38859.0,0,0,0,40000
894664,34502.0,41546.0,45384.0,38568.0,0,0,0,40000
894674,33952.0,41362.0,45924.0,38762.0,0,0,0,40000
894684,34674.0,40686.0,44710.0,39930.0,0,0,0,40000
894694,33878.0,40802.0,46176.0,39144.0,0,0,0,40000
894704,33204.0,42580.0,45596.0,38620.0,0,0,0,40000
894714,34481.0,41919.0,46077.0,37523.0,0,0,0,40000
894724,33772.0,41892.0,45682.0,38654.0,0,0,0,40000
894734,33321.0,41819.0,47501.0,37359.0,0,0,0,40000
894744,32790.0,42192.0,45730.0,39288.0,0,0,0,40000
894754,34463.0,40779.0,45999.0,38759.0,0,0,0,40000
894764,34138.0,41002.0,44902.0,39958.0,0,0,0,40000
894774,34082.0,40264.0,46564.0,39090.0,0,0,0,40000
894784,33685.0,40951.0,45139.0,40225.0,0,0,0,40000
894794,35128.0,39974.0,45790.0,39108.0,0,0,0,40000
894804,34128.0,40418.0,44804.0,40650.0,0,0,0,40000
894814,33552.0,40620.0,46588.0,39240.0,0,0,0,40000
894824,33394.0,41536.0,45814.0,39256.0,0,0,0,40000
894834,33298.0,40904.0,46624.0,39174.0,0,0,0,40000
894844,33112.0,41188.0,46574.0,39126.0,0,0,0,40000
894854,33434.0,41332.0,46794.0,38440.0,0,0,0,40000
894864,33710.0,41010.0,45548.0,39732.0,0,0,0,40000
894874,34196.0,41522.0,45452.0,38830.0,0,0,0,40000
894884,33861.0,41269.0,45645.0,39225.0,0,0,0,40000
894894,34243.0,39179.0,45607.0,40971.0,0,0,0,40000
894904,35415.0,38949.0,44429.0,41207.0,0,0,0,40000
894914,34633.0,39545.0,44995.0,40827.0,0,0,0,40000
894924,35141.0,39297.0,44553.0,41009.0,0,0,0,40000
894934,34357.0,41051.0,45251.0,39341.0,0,0,0,40000
894944,33217.0,42003.0,46137.0,38643.0,0,0,0,40000
894954,33445.0,40619.0,46605.0,39331.0,0,0,0,40000
894964,33488.0,41306.0,46312.0,38894.0,0,0,0,40000
894974,33324.0,41916.0,46772.0,37988.0,0,0,0,40000
894984,32109.0,43033.0,47535.0,37323.0,0,0,0,40000
894994,34189.0,40373.0,45675.0,39763.0,0,0,0,40000
895004,34016.0,41160.0,45168.0,39656.0,0,0,0,40000
895014,33637.0,40779.0,46137.0,39447.0,0,0,0,40000
895024,36046.0,40058.0,44248.0,39648.0,0,0,0,40000
895034,36068.0,39642.0,43932.0,40358.0,0,0,0,40000
895044,35792.0,39792.0,43586.0,40830.0,0,0,0,40000
895054,36678.0,39036.0,43008.0,41278.0,0,0,0,40000
895064,36075.0,38955.0,43393.0,41577.0,0,0,0,40000
895074,35451.0,41767.0,44309.0,38473.0,0,0,0,40000
895084,37152.0,39316.0,42660.0,40872.0,0,0,0,40000
895094,35340.0,39368.0,44552.0,40740.0,0,0,0,40000
895104,35135.0,39847.0,44887.0,40131.0,0,0,0,40000
895114,34054.0,42178.0,44804.0,38964.0,0,0,0,40000
895124,33873.0,42485.0,45999.0,37643.0,0,0,0,40000
895134,33407.0,42625.0,46407.0,37561.0,0,0,0,40000
895144,32574.0,42498.0,47342.0,37586.0,0,0,0,40000
895154,33622.0,40628.0,46442.0,39308.0,0,0,0,40000
895164,33322.0,41800.0,46310.0,38568.0,0,0,0,40000
895174,34116.0,42280.0,45918.0,37686.0,0,0,0,40000
895184,34030.0,43188.0,45246.0,37536.0,0,0,0,40000
895194,34581.0,41555.0,44975.0,38889.0,0,0,0,40000
895204,34563.0,40367.0,45177.0,39893.0,0,0,0,40000
895214,34389.0,40445.0,45823.0,39343.0,0,0,0,40000
895224,35127.0,40145.0,44819.0,39909.0,0,0,0,40000
895234,36853.0,39277.0,42801.0,41069.0,0,0,0,40000
895244,34470.0,42290.0,44520.0,38720.0,0,0,0,40000
895254,33356.0,41534.0,46738.0,38372.0,0,0,0,40000
895264,33425.0,42343.0,45859.0,38373.0,0,0,0,40000
895274,33512.0,41144.0,46978.0,38366.0,0,0,0,40000
895284,33871.0,42975.0,45309.0,37845.0,0,0,0,40000
895294,33199.0,41659.0,46883.0,38259.0,0,0,0,40000
895304,32144.0,42860.0,46878.0,38118.0,0,0,0,40000
895314,33613.0,40995.0,46659.0,38733.0,0,0,0,40000
895324,34133.0,42205.0,45247.0,38415.0,0,0,0,40000
895334,34130.0,41234.0,46212.0,38424.0,0,0,0,40000
895344,33384.0,41778.0,46102.0,38736.0,0,0,0,40000
895354,34391.0,40089.0,45309.0,40211.0,0,0,0,40000
895364,35341.0,40223.0,44615.0,39821.0,0,0,0,40000
895374,35477.0,40549.0,43603.0,40371.0,0,0,0,40000
895384,35776.0,40696.0,44114.0,39414.0,0,0,0,40000
895394,35033.0,40927.0,44443.0,39597.0,0,0,0,40000
895404,36154.0,40098.0,44788.0,38960.0,0,0,0,40000
895414,34477.0,42333.0,44373.0,38817.0,0,0,0,40000
895424,34728.0,40852.0,45060.0,39360.0,0,0,0,40000
895434,33571.0,42349.0,45501.0,38579.0,0,0,0,40000
895444,33428.0,42114.0,46836.0,37622.0,0,0,0,40000
895454,34190.0,42060.0,45332.0,38418.0,0,0,0,40000
895464,34624.0,42702.0,45734.0,36940.0,0,0,0,40000
895474,33246.0,43088.0,45766.0,37900.0,0,0,0,40000
895484,34280.0,40940.0,46024.0,38756.0,0,0,0,40000
895494,34087.0,41683.0,45463.0,38767.0,0,0,0,40000
895504,35055.0,41411.0,44419.0,39115.0,0,0,0,40000
895514,35335.0,40443.0,44193.0,40029.0,0,0,0,40000
895524,35260.0,40178.0,44946.0,39616.0,0,0,0,40000
895534,35186.0,40910.0,44678.0,39226.0,0,0,0,40000
895544,34966.0,41254.0,44556.0,39224.0,0,0,0,40000
895554,34832.0,41510.0,44538.0,39120.0,0,0,0,40000
895564,34520.0,40574.0,45340.0,39566.0,0,0,0,40000
895574,34282.0,40646.0,45276.0,39796.0,0,0,0,40000
895584,34647.0,41505.0,45351.0,38497.0,0,0,0,40000
895594,34822.0,41510.0,44678.0,38990.0,0,0,0,40000
895604,34470.0,41240.0,45372.0,38918.0,0,0,0,40000
895614,33234.0,41668.0,46464.0,38634.0,0,0,0,40000
895624,33987.0,42477.0,45823.0,37713.0,0,0,0,40000
895634,34285.0,41117.0,44871.0,39727.0,0,0,0,40000
895644,35023.0,40369.0,45415.0,39193.0,0,0,0,40000
895654,34178.0,41282.0,45194.0,39346.0,0,0,0,40000
895664,35066.0,41344.0,45472.0,38118.0,0,0,0,40000
895674,34236.0,41230.0,44854.0,39680.0,0,0,0,40000
895684,34734.0,42222.0,45378.0,37666.0,0,0,0,40000
895694,33171.0,43001.0,46189.0,37639.0,0,0,0,40000
895704,33480.0,41744.0,46452.0,38324.0,0,0,0,40000
895714,34236.0,41996.0,45020.0,38748.0,0,0,0,40000
895724,35529.0,41247.0,44723.0,38501.0,0,0,0,40000
895734,35688.0,40858.0,44064.0,39390.0,0,0,0,40000
895744,35474.0,40180.0,43898.0,40448.0,0,0,0,40000
895754,36072.0,39722.0,43340.0,40866.0,0,0,0,40000
895764,36179.0,38637.0,44041.0,41143.0,0,0,0,40000
895774,35844.0,40406.0,43754.0,39996.0,0,0,0,40000
895784,35223.0,41481.0,44501.0,38795.0,0,0,0,40000
895794,34372.0,42536.0,45220.0,37872.0,0,0,0,40000
895804,33771.0,42143.0,46145.0,37941.0,0,0,0,40000
895814,33428.0,42178.0,46314.0,38080.0,0,0,0,40000
895824,32924.0,43736.0,46516.0,36824.0,0,0,0,40000
895834,34118.0,43240.0,46128.0,36514.0,0,0,0,40000
895844,33158.0,43424.0,46064.0,37354.0,0,0,0,40000
895854,33461.0,42149.0,46593.0,37797.0,0,0,0,40000
895864,33604.0,43094.0,45454.0,37848.0,0,0,0,40000
895874,33246.0,42000.0,47180.0,37574.0,0,0,0,40000
895884,32689.0,41689.0,46415.0,39207.0,0,0,0,40000
895894,35006.0,40366.0,45036.0,39592.0,0,0,0,40000
895904,34606.0,40818.0,44606.0,39970.0,0,0,0,40000
895914,35009.0,39917.0,45235.0,39839.0,0,0,0,40000
895924,35804.0,39552.0,43546.0,41098.0,0,0,0,40000
895934,35057.0,39797.0,44435.0,40711.0,0,0,0,40000
895944,35907.0,40585.0,43817.0,39691.0,0,0,0,40000
895954,36375.0,41065.0,43941.0,38619.0,0,0,0,40000
895964,33195.0,41059.0,46579.0,39167.0,0,0,0,40000
895974,34112.0,40852.0,45090.0,39946.0,0,0,0,40000
895984,34047.0,40833.0,45633.0,39487.0,0,0,0,40000
895994,33732.0,42012.0,46044.0,38212.0,0,0,0,40000
896004,33547.0,42709.0,46159.0,37585.0,0,0,0,40000
896014,34676.0,40692.0,45052.0,39580.0,0,0,0,40000
896024,35350.0,40578.0,44748.0,39324.0,0,0,0,40000
896034,35461.0,39201.0,44325.0,41013.0,0,0,0,40000
896044,36094.0,40104.0,43828.0,39974.0,0,0,0,40000
896054,35631.0,40295.0,43291.0,40783.0,0,0,0,40000
896064,35112.0,41106.0,45004.0,38778.0,0,0,0,40000
896074,35680.0,41268.0,44416.0,38636.0,0,0,0,40000
896084,34368.0,42442.0,45452.0,37738.0,0,0,0,40000
896094,34016.0,42184.0,45356.0,38444.0,0,0,0,40000
896104,33225.0,42717.0,46543.0,37515.0,0,0,0,40000
896114,33628.0,41730.0,46330.0,38312.0,0,0,0,40000
896124,33603.0,42645.0,45993.0,37759.0,0,0,0,40000
896134,34332.0,42202.0,45692.0,37774.0,0,0,0,40000
896144,33381.0,43683.0,46069.0,36867.0,0,0,0,40000
896154,34689.0,41787.0,45363.0,38161.0,0,0,0,40000
896164,34021.0,41577.0,45363.0,39039.0,0,0,0,40000
896174,35534.0,40514.0,44326.0,39626.0,0,0,0,40000
896184,35042.0,41024.0,44298.0,39636.0,0,0,0,40000
896194,35829.0,40081.0,44071.0,40019.0,0,0,0,40000
896204,35763.0,40921.0,44209.0,39107.0,0,0,0,40000
896214,36511.0,41767.0,43031.0,38691.0,0,0,0,40000
896224,36490.0,40468.0,43394.0,39648.0,0,0,0,40000
896234,35362.0,40450.0,44168.0,40020.0,0,0,0,40000
896244,34107.0,42133.0,45853.0,37907.0,0,0,0,40000
896254,33878.0,42590.0,45508.0,38024.0,0,0,0,40000
896264,34353.0,42845.0,45719.0,37083.0,0,0,0,40000
896274,33199.0,43017.0,46511.0,37273.0,0,0,0,40000
896284,33591.0,43331.0,45739.0,37339.0,0,0,0,40000
896294,32814.0,43498.0,47092.0,36596.0,0,0,0,40000
896304,32517.0,43839.0,47289.0,36355.0,0,0,0,40000
896314,33294.0,42346.0,46896.0,37464.0,0,0,0,40000
896324,33596.0,42800.0,45970.0,37634.0,0,0,0,40000
896334,34159.0,41989.0,45483.0,38369.0,0,0,0,40000
896344,33704.0,41528.0,45768.0,39000.0,0,0,0,40000
896354,34948.0,41554.0,44780.0,38718.0,0,0,0,40000
896364,34926.0,40560.0,44764.0,39750.0,0,0,0,40000
896374,34484.0,41122.0,45338.0,39056.0,0,0,0,40000
896384,34040.0,40614.0,45898.0,39448.0,0,0,0,40000
896394,33838.0,40054.0,45372.0,40736.0,0,0,0,40000
896404,35389.0,40365.0,44693.0,39553.0,0,0,0,40000
896414,35229.0,41867.0,43909.0,38995.0,0,0,0,40000
896424,34830.0,40608.0,45390.0,39172.0,0,0,0,40000
896434,34443.0,41257.0,44929.0,39371.0,0,0,0,40000
896444,35787.0,39611.0,44969.0,39633.0,0,0,0,40000
896454,35120.0,40952.0,44046.0,39882.0,0,0,0,40000
896464,34113.0,41387.0,45987.0,38513.0,0,0,0,40000
896474,32936.0,42192.0,46006.0,38866.0,0,0,0,40000
896484,33984.0,42302.0,46258.0,37456.0,0,0,0,40000
896494,33842.0,43182.0,45752.0,37224.0,0,0,0,40000
896504,33556.0,43318.0,46548.0,36578.0,0,0,0,40000
896514,32669.0,43027.0,46771.0,37533.0,0,0,0,40000
896524,33164.0,42676.0,46686.0,37474.0,0,0,0,40000
896534,33982.0,42224.0,45608.0,38186.0,0,0,0,40000
896544,34479.0,42369.0,45645.0,37507.0,0,0,0,40000
896554,33817.0,42021.0,45203.0,38959.0,0,0,0,40000
896564,35343.0,40573.0,45143.0,38941.0,0,0,0,40000
896574,34569.0,41355.0,44927.0,39149.0,0,0,0,40000
896584,34965.0,40939.0,44569.0,39527.0,0,0,0,40000
896594,34320.0,42216.0,44694.0,38770.0,0,0,0,40000
896604,35660.0,40488.0,44336.0,39516.0,0,0,0,40000
896614,35126.0,40048.0,44478.0,40348.0,0,0,0,40000
896624,35123.0,39795.0,45077.0,40005.0,0,0,0,40000
896634,34160.0,41194.0,45078.0,39568.0,0,0,0,40000
896644,34264.0,41688.0,45756.0,38292.0,0,0,0,40000
896654,33854.0,41910.0,45538.0,38712.0,0,0,0,40000
896664,34145.0,41919.0,45975.0,37961.0,0,0,0,40000
896674,34610.0,41390.0,44870.0,39130.0,0,0,0,40000
896684,34138.0,43082.0,45694.0,37086.0,0,0,0,40000
896694,33753.0,43263.0,46155.0,36829.0,0,0,0,40000
896704,33302.0,43230.0,45736.0,37732.0,0,0,0,40000
896714,33749.0,42023.0,46255.0,37973.0,0,0,0,40000
896724,34218.0,41866.0,45482.0,38434.0,0,0,0,40000
896734,34540.0,41636.0,45342.0,38482.0,0,0,0,40000
896744,35409.0,42929.0,44129.0,37533.0,0,0,0,40000
896754,35544.0,41904.0,44608.0,37944.0,0,0,0,40000
896764,35252.0,42414.0,44292.0,38042.0,0,0,0,40000
896774,33751.0,42451.0,45953.0,37845.0,0,0,0,40000
896784,33853.0,42837.0,45741.0,37569.0,0,0,0,40000
896794,36299.0,42921.0,43553.0,37227.0,0,0,0,40000
896804,35838.0,41102.0,44358.0,38702.0,0,0,0,40000
896814,35955.0,40951.0,43667.0,39427.0,0,0,0,40000
896824,36233.0,40553.0,43563.0,39651.0,0,0,0,40000
896834,35407.0,41695.0,43693.0,39205.0,0,0,0,40000
896844,36128.0,40474.0,44312.0,39086.0,0,0,0,40000
896854,35585.0,40893.0,44251.0,39271.0,0,0,0,40000
896864,35070.0,42048.0,44272.0,38610.0,0,0,0,40000
896874,34428.0,42280.0,45640.0,37652.0,0,0,0,40000
896884,32661.0,42097.0,46797.0,38445.0,0,0,0,40000
896894,33092.0,42026.0,46926.0,37956.0,0,0,0,40000
896904,31695.0,43149.0,47395.0,37761.0,0,0,0,40000
896914,32446.0,41456.0,47634.0,38464.0,0,0,0,40000
896924,32563.0,43211.0,47795.0,36431.0,0,0,0,40000
896934,32264.0,42220.0,47384.0,38132.0,0,0,0,40000
896944,32353.0,41855.0,46387.0,39405.0,0,0,0,40000
896954,34183.0,41457.0,45729.0,38631.0,0,0,0,40000
896964,34457.0,41431.0,45597.0,38515.0,0,0,0,40000
896974,35057.0,39353.0,45043.0,40547.0,19.999999780056914,0.0029660956532028813,0,40000
896984,21216.0,26018.0,58034.0,54732.0,19.94727144264077,1.4513311109488771,0,40000
896994,19608.0,27626.0,60178.0,52588.0,19.812560647971914,2.731746798375477,0,40000
897004,19539.0,27695.0,60527.0,52239.0,19.596901942882603,3.995176371706772,0,40000
897014,19493.0,29309.0,59715.0,51483.0,19.29870947819795,5.249744039104435,0,40000
897024,18443.0,31985.0,61305.0,48267.0,18.91631411323683,6.494078869967405,0,40000
897034,21217.0,33757.0,58851.0,46175.0,18.459123743812025,7.69810045469888,0,40000
897044,22083.0,35691.0,58929.0,43297.0,17.926902966698332,8.867138773165927,0,40000
897054,25059.0,39049.0,53899.0,41993.0,17.300915703390046,10.033858471405292,0,40000
897064,27812.0,39336.0,52806.0,40046.0,16.623214310214568,11.120645035099248,0,40000
897074,30569.0,42699.0,49569.0,37163.0,15.86594809032518,12.176686379927293,0,40000
897084,33162.0,43102.0,48300.0,35436.0,15.048037501422026,13.17408696478797,0,40000
897094,38548.0,45392.0,41824.0,34236.0,14.167873491190527,14.116350829361702,0,40000
897104,38553.0,52771.0,42741.0,25935.0,14.167873491190527,14.116350829361702,0,40000
897114,45015.0,46931.0,36879.0,31175.0,12.228695589668535,15.825896631003921,0,40000
897124,44949.0,55203.0,37255.0,22593.0,12.228695589668535,15.825896631003921,0,40000
897134,50753.0,57449.0,31663.0,20135.0,11.176859811513067,16.585469687463906,0,40000
897144,48888.0,57924.0,34236.0,18952.0,10.08236193614199,17.272694572319487,0,40000
897154,51939.0,60827.0,31423.0,15811.0,8.931211651055616,17.895067992160534,0,40000
897164,50341.0,60775.0,33007.0,15877.0,7.72590990263092,18.447501624242495,0,40000
897174,52344.0,60422.0,30614.0,16620.0,6.531726074506591,18.903347705832708,0,40000
897184,48780.0,54808.0,34560.0,21852.0,5.295118192584067,19.28630921992503,0,40000
897194,50409.0,54375.0,32921.0,22295.0,4.021124192716059,19.591594121631697,0,40000
897204,45596.0,55752.0,36290.0,22362.0,2.729669199260982,19.812846995386753,0,40000
897214,45367.0,56547.0,36861.0,21225.0,1.4587715215874684,19.946728695397784,0,40000
897224,42353.0,58869.0,38019.0,20759.0,0.1766451783780042,19.99921989680987,0,40000
897234,43491.0,55267.0,36349.0,24893.0,-1.111682674413825,19.9690801398414,0,40000
897244,42792.0,56392.0,35342.0,25474.0,-2.3969120895843177,19.855850836335485,0,40000
897254,41748.0,51934.0,36648.0,29670.0,-3.6721665422194967,19.659989646136736,0,40000
897264,39919.0,51393.0,36671.0,32017.0,-4.967582714988014,19.37325790799659,0,40000
897274,38592.0,45202.0,36710.0,39496.0,-6.202441499846407,19.01393487526932,0,40000
897284,39251.0,47331.0,35335.0,38083.0,-7.414658612942837,18.574790379800053,0,40000
897294,36453.0,44179.0,36457.0,42911.0,-8.590624065150084,18.061040340225816,0,40000
897304,37645.0,44469.0,33889.0,43997.0,-9.741218425332395,17.467359949058263,0,40000
897314,35308.0,38668.0,34998.0,51026.0,-10.848296123868968,16.802216258840662,0,40000
897324,31983.0,43035.0,37509.0,47473.0,-11.911242557515902,16.066185008769878,0,40000
897334,30578.0,37998.0,38090.0,53334.0,-12.91796307388881,15.268471764444705,0,40000
897344,30478.0,42920.0,36844.0,49758.0,-13.8697188089424,14.409403185450447,0,40000
897354,23837.0,39477.0,43193.0,53493.0,-14.768698805478554,13.486494562823076,0,40000
897364,24513.0,41411.0,41747.0,52329.0,-15.60494862304051,12.509419589743803,0,40000
897374,19686.0,38178.0,46544.0,55592.0,-16.40186272170974,11.444601314951443,0,40000
897384,20002.0,43342.0,45708.0,50948.0,-17.10693360500756,10.36112072286889,0,40000
897394,15067.0,39589.0,51503.0,53841.0,-17.10693360500756,10.36112072286889,0,40000
897404,17836.0,41782.0,49202.0,51180.0,-17.750004399565437,9.216145822164902,0,40000
897414,13337.0,38953.0,53611.0,54099.0,-18.313637368904306,8.038077277575265,0,40000
897424,16463.0,41093.0,51429.0,51015.0,-18.80766682860679,6.8023281649832,0,40000
897434,20994.0,35850.0,47664.0,55492.0,-19.21947167603764,5.532802950945118,0,40000
897444,24840.0,34510.0,45250.0,55400.0,-19.538351051302993,4.272334045465918,0,40000
897454,22553.0,31937.0,48619.0,56891.0,-19.772802123855527,3.0060432749470505,0,40000
897464,28461.0,31549.0,42959.0,57031.0,-19.925380848337213,1.7260353555813022,0,40000
897474,23956.0,30338.0,48760.0,56946.0,-19.99519176139792,0.43852756461230824,0,40000
897484,29579.0,30561.0,44133.0,55727.0,-19.981469551405574,-0.860740707909178,0,40000
897494,29159.0,27491.0,45809.0,57541.0,-19.885341391293313,-2.1385036244339086,0,40000
897504,25962.0,34544.0,49194.0,50300.0,-19.707638989686277,-3.407193192673011,0,40000
897514,24802.0,35596.0,51364.0,48238.0,-19.448980766000176,-4.662311354227131,0,40000
897524,29486.0,36644.0,47640.0,46230.0,-19.109872569697302,-5.900234772441743,0,40000
897534,30638.0,39178.0,47432.0,42752.0,-18.69416724968707,-7.108312798458389,0,40000
897544,31132.0,39200.0,47294.0,42374.0,-18.1959525080013,-8.301042845724933,0,40000
897554,29547.0,40421.0,49331.0,40701.0,-17.626901645393872,-9.449462333043652,0,40000
897564,30002.0,39830.0,49616.0,40552.0,-16.984069999161512,-10.561314608683048,0,40000
897574,29204.0,42354.0,51550.0,36892.0,-16.264422779266855,-11.639095826449125,0,40000
897584,31192.0,43292.0,48476.0,37040.0,-15.48560906576607,-12.656852367878189,0,40000
897594,31471.0,46787.0,48487.0,33255.0,-14.643599976486213,-13.622223743891926,0,40000
897604,32681.0,45643.0,47857.0,33819.0,-13.719210876281764,-14.552774750270551,0,40000
897614,32199.0,47639.0,48333.0,31829.0,-12.74410605739315,-15.413882080706184,0,40000
897624,32764.0,46278.0,47096.0,33862.0,-11.713067434337459,-16.21123225663809,0,40000
897634,33195.0,48127.0,46215.0,32463.0,-10.639463689106307,-16.935224014112965,0,40000
897644,33741.0,45635.0,45495.0,35129.0,-9.529900483611296,-17.58354335088537,0,40000
897654,34321.0,46179.0,45311.0,34189.0,-8.384936179838558,-18.15744600047139,0,40000
897664,34795.0,43025.0,43841.0,38339.0,-7.204385389278173,-18.65735327324739,0,40000
897674,34094.0,44690.0,44690.0,36526.0,-5.968844404287227,-19.088554069845337,0,40000
897684,34603.0,42709.0,43443.0,39245.0,-4.722773219972945,-19.434387387121475,0,40000
897694,34711.0,43033.0,43647.0,38609.0,-3.460203381776974,-19.698400761400382,0,40000
897704,34326.0,41050.0,43632.0,40992.0,-2.167604981690053,-19.88219023758078,0,40000
897714,32959.0,44047.0,44499.0,38495.0,-0.8831598309411748,-19.980491202996287,0,40000
897724,32560.0,40100.0,45058.0,42282.0,0.4008454821113075,-19.995982669013067,0,40000
897734,31234.0,43324.0,45818.0,39624.0,1.679794988917419,-19.929332372039156,0,40000
897744,31359.0,40823.0,45715.0,42103.0,2.952627130325814,-19.780849148336983,0,40000
897754,30518.0,42488.0,46010.0,40984.0,2.952627130325814,-19.780849148336983,0,40000
897764,29568.0,40086.0,47258.0,43088.0,5.471535854565427,-19.237003285132666,0,40000
897774,29329.0,42945.0,46635.0,41091.0,5.471535854565427,-19.237003285132666,0,40000
897784,27623.0,41605.0,49021.0,41751.0,6.698345874131448,-18.84495058498446,0,40000
897794,27719.0,44409.0,46821.0,41051.0,7.902993299753628,-18.372335096662297,0,40000
897804,29002.0,42088.0,47100.0,41810.0,9.072847231297244,-17.823676475899745,0,40000
897814,28437.0,44093.0,45557.0,41913.0,10.214775811611156,-17.19471881475599,0,40000
897824,22253.0,39407.0,53315.0,45025.0,11.315599697568587,-16.49112499147301,0,40000
897834,21741.0,43989.0,51985.0,42285.0,12.352380647403061,-15.729548383270968,0,40000
897844,22797.0,41491.0,51841.0,43871.0,13.34064578163934,-14.900576167679842,0,40000
897854,22233.0,47119.0,50599.0,40049.0,14.27220111283129,-14.01086276411618,0,40000
897864,23489.0,43251.0,50817.0,42443.0,15.142787415253714,-13.065067519780897,0,40000
897874,23225.0,48153.0,48823.0,39799.0,15.949569800001067,-12.066947550847063,0,40000
897884,32278.0,43888.0,42048.0,41786.0,16.71859968996636,-10.976721933558158,0,40000
897894,32297.0,47495.0,39863.0,40345.0,17.390741991180402,-9.877352529711324,0,40000
897904,32302.0,44920.0,41744.0,41034.0,18.000278664571884,-8.7172224933036,0,40000
897914,32862.0,47916.0,39236.0,39986.0,18.5241709565172,-7.540231453591105,0,40000
897924,32757.0,47039.0,40569.0,39635.0,18.972611400628306,-6.327718122731824,0,40000
897934,35774.0,49646.0,37202.0,37378.0,19.340750612324477,-5.092677660314901,0,40000
897944,34724.0,48610.0,38736.0,37930.0,19.636223447619575,-3.7972001152369166,0,40000
897954,37164.0,48382.0,36524.0,37930.0,19.841048965742495,-2.516500732964082,0,40000
897964,34207.0,47377.0,39761.0,38655.0,19.961925582616402,-1.2335019392302644,0,40000
897974,38850.0,47456.0,35772.0,37922.0,19.9999424076576,0.047996774675125364,0,40000
897984,35486.0,48464.0,38860.0,37190.0,19.95587078978781,1.3278633292977644,0,40000
897994,39655.0,48593.0,36099.0,35653.0,19.83009309840259,2.601424169313043,0,40000
898004,36739.0,48307.0,38189.0,36765.0,19.622670552486536,3.866626486819973,0,40000
898014,39973.0,47301.0,37409.0,35317.0,19.333276392690482,5.1209788052516725,0,40000
898024,35976.0,47374.0,39830.0,36820.0,18.964710055632995,6.351359894209486,0,40000
898034,39174.0,46746.0,38682.0,35398.0,18.516537039559715,7.558958662581317,0,40000
898044,36972.0,47796.0,40012.0,35220.0,17.99144179289854,8.73544630873224,0,40000
898054,39340.0,47074.0,39160.0,34426.0,17.390993526921225,9.876909645561414,0,40000
898064,35796.0,46744.0,41694.0,35766.0,16.718139258994125,10.97742318200767,0,40000
898074,37175.0,45291.0,41951.0,35583.0,15.955334422562625,12.059324336967975,0,40000
898084,36125.0,46275.0,42633.0,34967.0,15.114019363844482,13.098336484811117,0,40000
898094,39218.0,45490.0,39714.0,35578.0,14.238830758877851,14.044774779968312,0,40000
898104,35857.0,45919.0,42315.0,35909.0,14.238830758877851,14.044774779968312,0,40000
898114,39842.0,44554.0,40164.0,35440.0,13.307062807912725,14.93057532134197,0,40000
898124,36184.0,44580.0,42560.0,36676.0,12.318987241676506,15.755714942185628,0,40000
898134,36112.0,40746.0,42260.0,40882.0,10.182637566960473,17.21377042312129,0,40000
898144,35420.0,42184.0,43332.0,39064.0,10.182637566960473,17.21377042312129,0,40000
898154,37540.0,42768.0,41364.0,38328.0,9.053297110755334,17.83361464830922,0,40000
898164,39597.0,51143.0,37765.0,31495.0,7.88801855987959,18.37876936029709,0,40000
898174,41181.0,47153.0,36835.0,34831.0,6.689311419809849,18.848159398965237,0,40000
898184,35772.0,44886.0,42564.0,36778.0,5.4624865320636875,19.239574862429336,0,40000
898194,37823.0,47975.0,38041.0,36161.0,4.212751872459941,19.55128439926864,0,40000
898204,40856.0,51448.0,35748.0,31948.0,2.9287710133732103,19.784395374921743,0,40000
898214,41886.0,48588.0,35798.0,33728.0,1.6614933520343853,19.930866510042797,0,40000
898224,37172.0,50270.0,37584.0,34974.0,0.3784691912987392,19.9964187061393,0,40000
898234,38424.0,47396.0,37342.0,36838.0,-0.9047697358662039,19.979524311781315,0,40000
898244,37307.0,48663.0,37021.0,37009.0,-2.186665793715394,19.880102935010044,0,40000
898254,39264.0,47354.0,35964.0,37418.0,-3.4581377496877517,19.698763496833614,0,40000
898264,33701.0,46077.0,40071.0,40151.0,-4.763754152393885,19.424382779783507,0,40000
898274,32618.0,42852.0,41276.0,43254.0,-6.01697966165654,19.073435866440306,0,40000
898284,30836.0,45314.0,42912.0,40938.0,-7.234058352259739,18.645868168473708,0,40000
898294,30680.0,42040.0,41760.0,45520.0,-8.438891753278341,18.132432434079295,0,40000
898304,31985.0,45583.0,40759.0,41673.0,-9.594449591926809,17.54840554090244,0,40000
898314,31907.0,42543.0,40439.0,45111.0,-10.706988285701817,16.89261382527417,0,40000
898324,32921.0,45007.0,39367.0,42705.0,-11.791442780084978,16.154314506161562,0,40000
898334,31001.0,42047.0,41221.0,45731.0,-12.841797685186178,15.33258726414909,0,40000
898344,32480.0,44024.0,38818.0,44678.0,-13.810825744085708,14.465859541226695,0,40000
898354,30544.0,41464.0,41368.0,46624.0,-14.709686307352058,13.550834983103417,0,40000
898364,30361.0,45409.0,40777.0,43453.0,-15.552246821668387,12.574880468533511,0,40000
898374,29534.0,43048.0,42104.0,45314.0,-16.32468731314649,11.554418381207858,0,40000
898384,30755.0,45061.0,40501.0,43683.0,-17.035271536205627,10.47852678995203,0,40000
898394,28093.0,41223.0,43703.0,46981.0,-17.68532020476249,9.339670725192601,0,40000
898404,29288.0,43928.0,42118.0,44666.0,-18.24938922222698,8.182896370825295,0,40000
898414,26985.0,43391.0,44807.0,44817.0,-18.24938922222698,8.182896370825295,0,40000
898424,29855.0,44581.0,42329.0,43235.0,-19.151821289296475,5.762615838562406,0,40000
898434,25669.0,43993.0,46255.0,44083.0,-19.484593663128024,4.511165013917274,0,40000
898444,29603.0,42807.0,43827.0,43763.0,-19.734555866605096,3.247661427526346,0,40000
898454,25706.0,40948.0,47080.0,46266.0,-19.734555866605096,3.247661427526346,0,40000
898464,28568.0,42554.0,45312.0,43566.0,-19.904471176989468,1.9524413344311986,0,40000
898474,27311.0,41259.0,45931.0,45499.0,-19.989478489084075,0.648652244615789,0,40000
898484,29803.0,39857.0,45385.0,44955.0,-19.989037674408003,-0.6620973124076635,0,40000
898494,31892.0,34724.0,42134.0,51250.0,-19.900804111427448,-1.9894712158240675,0,40000
898504,28093.0,39211.0,48019.0,44677.0,-19.727070319250362,-3.292825021064946,0,40000
898514,30509.0,39549.0,44681.0,45261.0,-19.474196155767437,-4.555840656420361,0,40000
898524,27939.0,38799.0,48863.0,44399.0,-19.131974996487195,-5.828167184783642,0,40000
898534,29895.0,38745.0,46177.0,45183.0,-18.707445032929087,-7.073294871552916,0,40000
898544,28680.0,38674.0,48620.0,44026.0,-18.212257093089647,-8.265209711507978,0,40000
898554,31479.0,38721.0,45995.0,43805.0,-17.6439303678298,-9.417628213896185,0,40000
898564,28558.0,39626.0,49778.0,42038.0,-17.00198666402063,-10.532447458993781,0,40000
898574,31161.0,39337.0,46927.0,42575.0,-16.289422782759758,-11.604081411490842,0,40000
898584,29080.0,39076.0,49692.0,42152.0,-15.508128310969838,-12.629250028821817,0,40000
898594,31454.0,39590.0,47392.0,41564.0,-14.661789472628886,-13.60264420839966,0,40000
898604,31027.0,40597.0,48139.0,40237.0,-13.758097359285316,-14.516017258615616,0,40000
898614,31670.0,40416.0,47188.0,40726.0,-12.770318318346817,-15.392172362863397,0,40000
898624,30498.0,41150.0,48928.0,39424.0,-11.737703039924078,-16.19340382212946,0,40000
898634,30786.0,40472.0,48396.0,40346.0,-10.667456989790818,-16.917605071964623,0,40000
898644,29938.0,41536.0,49342.0,39184.0,-9.524710962176268,-17.586354968753454,0,40000
898654,31222.0,39678.0,47320.0,41780.0,-8.367850642936776,-18.16532619078178,0,40000
898664,30723.0,43493.0,48471.0,37313.0,-7.179364352027083,-18.66699567420646,0,40000
898674,31846.0,40850.0,46944.0,40360.0,-5.960665632202523,-19.091109585906203,0,40000
898684,31104.0,42368.0,47104.0,39424.0,-4.650481633942985,-19.451812783706277,0,40000
898694,31894.0,40530.0,45764.0,41812.0,-4.650481633942985,-19.451812783706277,0,40000
898704,26630.0,37400.0,51138.0,44832.0,-3.3572596022634786,-19.716206733624237,0,40000
898714,28070.0,35918.0,49068.0,46944.0,-0.7803643856276459,-19.984769986808555,0,40000
898724,26428.0,38848.0,50860.0,43864.0,-0.7803643856276459,-19.984769986808555,0,40000
898734,25162.0,38058.0,50866.0,45914.0,0.5445857431852006,-19.992584284387036,0,40000
898744,25955.0,39349.0,50753.0,43943.0,1.8666386421705592,-19.912700976501295,0,40000
898754,23163.0,38827.0,51649.0,46361.0,3.1418983342653837,-19.751670178927665,0,40000
898764,31477.0,46775.0,44083.0,37665.0,4.411486241224289,-19.507403444423062,0,40000
898774,23158.0,40316.0,51128.0,45398.0,5.6522941522155765,-19.184670203493976,0,40000
898784,31878.0,48172.0,42846.0,37104.0,6.880593821513582,-18.77917539891859,0,40000
898794,30496.0,43302.0,43388.0,42814.0,8.068847242668953,-18.300101206672974,0,40000
898804,31689.0,46069.0,41843.0,40399.0,9.230873509781707,-17.742349738589034,0,40000
898814,31644.0,43966.0,41296.0,43094.0,10.358147873022727,-17.10873381172887,0,40000
898824,33209.0,46373.0,39579.0,40839.0,11.437179867679735,-16.407038632073167,0,40000
898834,33641.0,44253.0,39483.0,42623.0,12.468256678045655,-15.637857123351967,0,40000
898844,33510.0,45192.0,38714.0,42584.0,13.444781610503739,-14.806682526678976,0,40000
898854,33163.0,42767.0,39715.0,44355.0,14.364594944456321,-13.916120583039653,0,40000
898864,33636.0,46170.0,38262.0,41932.0,15.224105999099756,-12.970219602156892,0,40000
898874,33467.0,45045.0,39195.0,42293.0,16.027003703636716,-11.963910409377654,0,40000
898884,34524.0,47164.0,36998.0,41314.0,16.77593797402502,-10.888889066000502,0,40000
898894,32159.0,45535.0,40537.0,41769.0,17.444694322910316,-9.781750353603421,0,40000
898904,33965.0,47689.0,38425.0,39921.0,18.040889542146868,-8.632861896732496,0,40000
898914,31449.0,47549.0,41831.0,39171.0,18.55935554325353,-7.453208827015677,0,40000
898924,33653.0,48891.0,38865.0,38591.0,19.004668782455788,-6.230775591300853,0,40000
898934,31940.0,47574.0,41026.0,39460.0,19.367014079650872,-4.9918699540958436,0,40000
898944,34523.0,49425.0,39159.0,36893.0,19.647556724716974,-3.738116470768242,0,40000
898954,32878.0,47294.0,40372.0,39456.0,19.847909996452266,-2.461801936129343,0,40000
898964,33939.0,48291.0,40233.0,37537.0,19.96580886514912,-1.168963797699802,0,40000
898974,33203.0,47419.0,40723.0,38655.0,19.999444130049685,0.14911233691841336,0,40000
898984,36738.0,47134.0,38234.0,37894.0,19.948501278868292,1.4343279705109435,0,40000
898994,34349.0,47761.0,40301.0,37589.0,19.815194953231014,2.7125723889784426,0,40000
899004,38178.0,46664.0,37556.0,37602.0,19.598647654856286,3.986603830429623,0,40000
899014,36118.0,46058.0,39700.0,38124.0,19.301734010066188,5.238612813012075,0,40000
899024,38378.0,45120.0,37804.0,38698.0,19.301734010066188,5.238612813012075,0,40000
899034,35532.0,45362.0,41186.0,37920.0,18.91133740364727,6.508557259901131,0,40000
899044,39653.0,43883.0,37241.0,39223.0,17.919857208919957,8.881369129358346,0,40000
899054,38228.0,45646.0,39382.0,36744.0,17.919857208919957,8.881369129358346,0,40000
899064,38132.0,44370.0,39320.0,38178.0,17.3122680436498,10.014258593866137,0,40000
899074,33141.0,51771.0,45087.0,30001.0,16.633169744121727,11.105749153624604,0,40000
899084,36087.0,52143.0,41839.0,29931.0,15.884844874893949,12.152024658490266,0,40000
899094,34720.0,54100.0,43898.0,27282.0,15.071183287095751,13.147601846982047,0,40000
899104,37266.0,51874.0,41030.0,29830.0,14.173877868895588,14.1103219721462,0,40000
899114,36549.0,51031.0,42173.0,30247.0,13.237403991538079,14.992369244546097,0,40000
899124,36644.0,42770.0,41306.0,39280.0,12.231398082075424,15.823808042244497,0,40000
899134,37156.0,52696.0,41312.0,28836.0,11.189105593771245,16.577210742807036,0,40000
899144,37913.0,42953.0,40627.0,38507.0,10.097805266369335,17.263670780065393,0,40000
899154,36381.0,44475.0,41499.0,37645.0,8.966660165087756,17.877332169085754,0,40000
899164,38490.0,41710.0,39606.0,40194.0,7.784098005073799,18.423024134148175,0,40000
899174,36329.0,43287.0,41189.0,39195.0,6.581287921056454,18.886149668478126,0,40000
899184,38147.0,41633.0,39365.0,40855.0,5.337893338830462,19.27451412366261,0,40000
899194,37852.0,43648.0,39040.0,39460.0,4.079920897196794,19.579434248022004,0,40000
899204,37265.0,42709.0,39455.0,40571.0,2.8180887079342583,19.80046403583041,0,40000
899214,36824.0,44326.0,39480.0,39370.0,1.5342396981914932,19.941065882958547,0,40000
899224,36209.0,42837.0,39937.0,41017.0,0.24890592552077478,19.998451086027654,0,40000
899234,35391.0,46177.0,40117.0,38315.0,-1.0330596309971043,19.973301875223438,0,40000
899244,35994.0,43836.0,38524.0,41646.0,-2.315183546941362,19.865546182875818,0,40000
899254,36657.0,44119.0,37865.0,41359.0,-3.597776126464823,19.673739017884724,0,40000
899264,35778.0,44456.0,38066.0,41700.0,-4.87340714047268,19.39716223686315,0,40000
899274,33451.0,45453.0,40551.0,40545.0,-6.106402312049869,19.04499542670966,0,40000
899284,31396.0,44864.0,41292.0,42448.0,-7.327093144797054,18.609505798044935,0,40000
899294,33220.0,46612.0,39996.0,40172.0,-8.50489575986595,18.10156755957379,0,40000
899304,31012.0,46692.0,40686.0,41610.0,-9.648793302813052,17.518584069484326,0,40000
899314,31971.0,46837.0,40343.0,40849.0,-10.757248284955224,16.860652696020633,0,40000
899324,28914.0,45828.0,42312.0,42946.0,-11.816716921758504,16.135835930965158,0,40000
899334,31071.0,46813.0,40797.0,41319.0,-12.825873495896383,15.345910499780151,0,40000
899344,30150.0,43560.0,40818.0,45472.0,-13.785189854773662,14.490291255452572,0,40000
899354,31476.0,45234.0,39890.0,43400.0,-14.683655539208347,13.579037521336925,0,40000
899364,29012.0,44686.0,41380.0,44922.0,-15.523970185390695,12.609771991717407,0,40000
899374,30294.0,44252.0,40474.0,44980.0,-16.301477946195245,11.587140146287611,0,40000
899384,27912.0,43118.0,42494.0,46476.0,-17.016659351208748,10.508725161736788,0,40000
899394,29861.0,43963.0,40935.0,45241.0,-17.653345590619793,9.399967524313304,0,40000
899404,26619.0,42645.0,43877.0,46859.0,-18.21998755737318,8.248154545664534,0,40000
899414,28519.0,45293.0,42569.0,43619.0,-18.711383837945075,7.062868742167579,0,40000
899424,24813.0,43117.0,46207.0,45863.0,-18.711383837945075,7.062868742167579,0,40000
899434,26182.0,43616.0,44950.0,45252.0,-19.13699679043042,5.811656721026788,0,40000
899444,24759.0,40943.0,47257.0,47041.0,-19.472850826630758,4.561587517935591,0,40000
899454,26953.0,41439.0,45525.0,46083.0,-19.724236589580908,3.3097569334073054,0,40000
899464,23930.0,40994.0,48654.0,46422.0,-19.895715884321817,2.039727788295433,0,40000
899474,33319.0,36743.0,39915.0,50023.0,-19.985479303809424,0.7619822812934411,0,40000
899484,29740.0,35904.0,44000.0,50356.0,-19.993284044243723,-0.5182597092090281,0,40000
899494,33599.0,35001.0,40977.0,50423.0,-19.918917212910298,-1.7990934009177737,0,40000
899504,29114.0,34158.0,45888.0,50840.0,-19.762507132623387,-3.072997206801498,0,40000
899514,33787.0,33539.0,41401.0,51273.0,-19.523449921447085,-4.3399197186984715,0,40000
899524,30410.0,33864.0,45598.0,50128.0,-19.20603820500688,-5.579255906285004,0,40000
899534,30375.0,39607.0,46033.0,43985.0,-18.798550262339973,-6.827481822332285,0,40000
899544,27658.0,40274.0,49354.0,42714.0,-18.30875728607785,-8.049186706710888,0,40000
899554,30358.0,38856.0,47014.0,43772.0,-17.753813350881877,-9.208806193098452,0,40000
899564,27169.0,41621.0,50231.0,40979.0,-17.127914173267826,-10.326400925451772,0,40000
899574,31241.0,40933.0,47089.0,40737.0,-16.40604484356045,-11.438605360404894,0,40000
899584,28739.0,42215.0,49729.0,39317.0,-15.636362787136749,-12.470130664473613,0,40000
899594,29580.0,40242.0,48748.0,41430.0,-14.783841842032654,-13.469893109812139,0,40000
899604,27894.0,41552.0,50434.0,40120.0,-13.881090144812765,-14.398449096745871,0,40000
899614,30532.0,41486.0,48390.0,39592.0,-12.92521223125968,-15.26233562653158,0,40000
899624,30788.0,43432.0,48000.0,37780.0,-11.913264141340004,-16.06468603797355,0,40000
899634,31304.0,41606.0,47638.0,39452.0,-10.858714496543387,-16.795485092207326,0,40000
899644,30017.0,43067.0,47769.0,39147.0,-9.756234448540805,-17.4589773293027,0,40000
899654,32033.0,40207.0,47261.0,40499.0,-8.613939122034092,-18.049932210451388,0,40000
899664,30147.0,43301.0,47081.0,39471.0,-7.434410561632569,-18.56689364436297,0,40000
899674,32169.0,40727.0,46467.0,40637.0,-6.230946408217903,-19.004612778426097,0,40000
899684,31275.0,43089.0,46175.0,39461.0,-4.989955115817663,-19.367507530452265,0,40000
899694,32821.0,40221.0,44699.0,42259.0,-3.739176038655706,-19.647355103217915,0,40000
899704,30515.0,43833.0,46375.0,39277.0,-2.4404226814574677,-19.850550046178267,0,40000
899714,30186.0,41408.0,45914.0,42492.0,-1.1612471000952305,-19.96625916821978,0,40000
899724,30264.0,44036.0,46740.0,38960.0,0.12814044809148312,-19.999589496426243,0,40000
899734,29813.0,42959.0,45333.0,41895.0,1.4095236331434697,-19.950269249501623,0,40000
899744,30565.0,44059.0,45615.0,39761.0,2.6853498677661864,-19.81890249453002,0,40000
899754,28526.0,43778.0,45840.0,41856.0,3.982581518953499,-19.59946541222209,0,40000
899764,30337.0,45627.0,44669.0,39367.0,5.234853823474972,-19.302753830654563,0,40000
899774,29922.0,43024.0,44158.0,42896.0,6.466896831573777,-18.92562404175305,0,40000
899784,30536.0,46652.0,43268.0,39544.0,7.672708384746187,-18.469692635305158,0,40000
899794,29700.0,44556.0,43482.0,42262.0,7.672708384746187,-18.469692635305158,0,40000
899804,29992.0,46736.0,42766.0,40506.0,8.847851754448941,-17.93642994944353,0,40000
899814,30300.0,45474.0,42278.0,41948.0,9.987690135448602,-17.327609349193636,0,40000
899824,24086.0,45222.0,48226.0,42466.0,11.098422491739274,-16.638059327783868,0,40000
899834,30223.0,45295.0,41815.0,42667.0,12.14300403756409,-15.891741658600615,0,40000
899844,23461.0,47331.0,48123.0,41085.0,13.140759644785604,-15.077149463939598,0,40000
899854,23371.0,46179.0,48727.0,41723.0,14.09200748125928,-14.192086708730766,0,40000
899864,24007.0,50939.0,47165.0,37889.0,14.976653333701208,-13.255182191208707,0,40000
899874,30223.0,46593.0,41317.0,41867.0,15.799994917836667,-12.262143393238212,0,40000
899884,23614.0,51984.0,46996.0,37406.0,16.556128849502592,-11.220276178359782,0,40000
899894,30746.0,48378.0,40834.0,40042.0,17.26344387376445,-10.098193185782522,0,40000
899904,34630.0,50244.0,36490.0,38636.0,17.88106480063045,-8.95921434031214,0,40000
899914,32084.0,48696.0,39848.0,39372.0,18.41697829492833,-7.798391531856986,0,40000
899924,36108.0,50366.0,35644.0,37882.0,18.911035133201267,-6.509435474050517,0,40000
899934,32403.0,47919.0,39179.0,40499.0,19.293667480429097,-5.26824402952566,0,40000
899944,36800.0,48666.0,35544.0,38990.0,19.591889232948404,-4.019686092704308,0,40000
899954,35199.0,47591.0,37205.0,40005.0,19.80972642338628,-2.7522243786783447,0,40000
899964,37869.0,49105.0,35331.0,37695.0,19.946868461692546,-1.4568591462235454,0,40000
899974,36546.0,47212.0,37176.0,39066.0,19.99999881287734,0.0068909291842077875,0,40000
899984,37383.0,48243.0,36719.0,37655.0,19.957975513199116,1.2958446722290562,0,40000
899994,34467.0,48649.0,39505.0,37379.0,19.832585805468636,2.582351693461592,0,40000
900004,36376.0,46754.0,38538.0,38332.0,19.624920431253855,3.8551910545334773,0,40000
900014,36340.0,47830.0,38932.0,36898.0,19.33544565304317,5.112782158298359,0,40000
900024,37957.0,46935.0,38085.0,37023.0,18.968227513125694,6.3408473416651026,0,40000
900034,33477.0,47239.0,42613.0,36671.0,18.506669843368233,7.583084551062638,0,40000
900044,35133.0,48057.0,41483.0,35327.0,17.97842754959214,8.762199657852264,0,40000
900054,34874.0,47226.0,42336.0,35564.0,17.97842754959214,8.762199657852264,0,40000
900064,37364.0,48740.0,39252.0,34644.0,16.692143170057015,11.016912289308605,0,40000
900074,35850.0,47066.0,41456.0,35628.0,16.692143170057015,11.016912289308605,0,40000
900084,37527.0,43657.0,40339.0,38477.0,15.926275553316946,12.097675272539718,0,40000
900094,34565.0,45973.0,43263.0,36199.0,15.106933728987856,13.106508051650108,0,40000
900104,37532.0,50332.0,40070.0,32066.0,14.221041005931383,14.06278751555388,0,40000
900114,37576.0,53098.0,40608.0,28718.0,13.289361630473673,14.946332909931254,0,40000
900124,39058.0,51466.0,38584.0,30892.0,12.216269021101564,15.835490873480184,0,40000
900134,35466.0,43748.0,42142.0,38644.0,11.162296043959106,16.59527484035787,0,40000
900144,39008.0,42234.0,38774.0,39984.0,10.070974754691566,17.279336430846097,0,40000
900154,37841.0,43839.0,40399.0,37921.0,8.940056973315173,17.89065066770571,0,40000
900164,38302.0,43150.0,38030.0,40518.0,7.751133310547706,18.436917649165704,0,40000
900174,35825.0,45007.0,41727.0,37441.0,6.540050858169116,18.90046916805404,0,40000
900184,36382.0,43424.0,40378.0,39816.0,5.307915930660451,19.282790992826765,0,40000
900194,35586.0,45728.0,40786.0,37900.0,4.044893721247786,19.58670045678471,0,40000
900204,36101.0,43087.0,40177.0,40635.0,2.752550809102699,19.80968106869235,0,40000
900214,34525.0,45075.0,41537.0,38863.0,1.4742194356445744,19.94559292313888,0,40000
900224,35046.0,42698.0,40622.0,41634.0,0.15953830206922887,19.999363678131683,0,40000
900234,34665.0,46567.0,39641.0,39127.0,-1.1698610768084736,19.965756310767908,0,40000
900244,34710.0,42982.0,39922.0,42386.0,-2.450919388513109,19.849256765708144,0,40000
900254,34042.0,45526.0,39772.0,40660.0,-3.7184830689397312,19.651281985305907,0,40000
900264,34619.0,43783.0,38685.0,42913.0,-4.970310704117492,19.372558207540248,0,40000
900274,35961.0,44849.0,37399.0,41791.0,-6.199849452005891,19.014780218884,0,40000
900284,35616.0,45586.0,37160.0,41638.0,-7.405558766176432,18.578420260094973,0,40000
900294,34536.0,43696.0,37684.0,44084.0,-8.588540700148656,18.06203113279041,0,40000
900304,34261.0,45675.0,37673.0,42391.0,-9.736324889680677,17.47008808342375,0,40000
900314,31625.0,43093.0,39505.0,45777.0,-10.838830411190992,16.808323988947894,0,40000
900324,32138.0,46058.0,39016.0,42788.0,-11.898699713056185,16.075476513575474,0,40000
900334,36457.0,42279.0,34387.0,46877.0,-11.898699713056185,16.075476513575474,0,40000
900344,37595.0,45477.0,32589.0,44339.0,-13.866566966343008,14.412436316179331,0,40000
900354,35363.0,42821.0,34861.0,46955.0,-13.866566966343008,14.412436316179331,0,40000
900364,35497.0,46031.0,34175.0,44297.0,-15.627317264526269,12.481464461906672,0,40000
900374,34575.0,44215.0,36071.0,45139.0,-15.627317264526269,12.481464461906672,0,40000
900384,36217.0,46285.0,33477.0,44021.0,-16.397798480802766,11.450423790540787,0,40000
900394,31996.0,42410.0,38270.0,47324.0,-17.098406654336756,10.375186257746531,0,40000
900404,34627.0,43761.0,36167.0,45445.0,-17.73065077583394,9.253324973511914,0,40000
900414,31461.0,41011.0,39007.0,48521.0,-18.29345905795196,8.083894834486369,0,40000
900424,26384.0,44594.0,44036.0,44986.0,-18.781915655854558,6.873110234556511,0,40000
900434,24419.0,42613.0,46517.0,46451.0,-19.182984359252732,5.658012996862506,0,40000
900444,28364.0,43664.0,43164.0,44808.0,-19.50595512651081,4.417885761599852,0,40000
900454,24409.0,42703.0,47569.0,45319.0,-19.749566603851896,3.1550941285511347,0,40000
900464,28012.0,41892.0,44376.0,45720.0,-19.911426861532156,1.8801809322125764,0,40000
900474,24568.0,40728.0,47928.0,46776.0,-19.990936148002373,0.6020564147088141,0,40000
900484,28890.0,41156.0,44926.0,45028.0,-19.988479277734495,-0.678746022882435,0,40000
900494,25317.0,41769.0,47721.0,45193.0,-19.903247646877617,-1.9648748324156995,0,40000
900504,28556.0,41204.0,45672.0,44568.0,-19.73615893424222,-3.237905267658565,0,40000
900514,25800.0,41164.0,48768.0,44268.0,-19.48499905554306,-4.509413687552529,0,40000
900524,29005.0,40219.0,46829.0,43947.0,-19.136465642997504,-5.813405430070759,0,40000
900534,26286.0,40512.0,49654.0,43548.0,-18.719149070664617,-7.042262283544682,0,40000
900544,29201.0,40257.0,47227.0,43315.0,-18.228059614687464,-8.230300279054216,0,40000
900554,27325.0,41503.0,49161.0,42011.0,-17.664331091701683,-9.379307388221223,0,40000
900564,30009.0,39587.0,47141.0,43263.0,-17.02540620307026,-10.494548280915035,0,40000
900574,28853.0,39571.0,48695.0,42881.0,-16.31509259312548,-11.567962382275542,0,40000
900584,30780.0,39424.0,47014.0,42782.0,-15.529541158276043,-12.602910434237417,0,40000
900594,30067.0,40119.0,48061.0,41753.0,-14.675190508073817,-13.588185439996767,0,40000
900604,30611.0,41057.0,46907.0,41425.0,-13.772790194061745,-14.502077446709372,0,40000
900614,30055.0,40721.0,48385.0,40839.0,-12.809360261430909,-15.359696927116586,0,40000
900624,30656.0,40396.0,46898.0,42050.0,-11.796741861625172,-16.15044523999819,0,40000
900634,30859.0,41239.0,47703.0,40199.0,-10.738070717332675,-16.87287282206449,0,40000
900644,30991.0,40321.0,46977.0,41711.0,-9.611453421905242,-17.539098127285396,0,40000
900654,30955.0,41859.0,47059.0,40127.0,-8.438946079027579,-18.132407150603726,0,40000
900664,31844.0,40190.0,45858.0,42108.0,-7.237326289191496,-18.644599973820238,0,40000
900674,31570.0,41744.0,46904.0,39782.0,-6.027179198623763,-19.0702152821534,0,40000
900684,30448.0,39858.0,46442.0,43252.0,-4.794039648304467,-19.416930340568378,0,40000
900694,30621.0,42621.0,46639.0,40119.0,-4.794039648304467,-19.416930340568378,0,40000
900704,27619.0,35567.0,48385.0,48429.0,-3.528377250251522,-19.68630371552536,0,40000
900714,31065.0,44209.0,46035.0,38691.0,-2.2588402489505217,-19.87203162058981,0,40000
900724,26815.0,36663.0,48059.0,48463.0,-0.97824132941199,-19.976061771566243,0,40000
900734,26312.0,39258.0,49850.0,44580.0,0.3194858467888422,-19.997448057032216,0,40000
900744,24926.0,38626.0,49632.0,46816.0,1.6328587859315564,-19.93323285835005,0,40000
900754,23924.0,42024.0,50526.0,43526.0,2.9058592051813052,-19.787773555396853,0,40000
900764,24198.0,40262.0,50010.0,45530.0,4.1814372126709936,-19.55800559455105,0,40000
900774,24350.0,42910.0,49280.0,43460.0,5.429016614025951,-19.2490461738921,0,40000
900784,30120.0,45256.0,42896.0,41728.0,6.670560025420478,-18.854803869233493,0,40000
900794,31949.0,47339.0,40797.0,39915.0,7.872350037660176,-18.385486256407575,0,40000
900804,30313.0,45551.0,42093.0,42043.0,9.054552705351602,-17.83297718570878,0,40000
900814,32478.0,47660.0,39734.0,40128.0,10.179542997008513,-17.215600610262047,0,40000
900824,30100.0,46646.0,41444.0,41810.0,11.260223517669651,-16.528985641354986,0,40000
900834,32292.0,48796.0,39386.0,39526.0,12.300923240884124,-15.769822047882368,0,40000
900844,31094.0,46486.0,40506.0,41914.0,13.291578096982242,-14.944361869675866,0,40000
900854,32566.0,48754.0,38634.0,40046.0,14.227506902278177,-14.056245848220883,0,40000
900864,31331.0,46865.0,40213.0,41591.0,15.104891618235099,-13.108861476168364,0,40000
900874,32237.0,49407.0,38417.0,39939.0,15.91623011754094,-12.110888441624866,0,40000
900884,31978.0,46734.0,39870.0,41418.0,16.681672332762602,-11.03276067819577,0,40000
900894,32499.0,49481.0,38415.0,39605.0,17.35420957790454,-9.941398791224819,0,40000
900904,31348.0,47350.0,40150.0,41152.0,17.955461242296817,-8.809166338330593,0,40000
900914,32140.0,50018.0,38858.0,38984.0,18.488681162224886,-7.626838721357014,0,40000
900924,31946.0,47786.0,40194.0,40074.0,18.941493035360207,-6.420268031118387,0,40000
900934,33751.0,50781.0,37877.0,37591.0,19.313658987820165,-5.194475575281232,0,40000
900944,33481.0,47767.0,39173.0,39579.0,19.614541578344017,-3.9076538576764728,0,40000
900954,35130.0,47806.0,36688.0,40376.0,19.827008441811365,-2.6248307085107125,0,40000
900964,32250.0,48156.0,41492.0,38102.0,19.954222583515037,-1.3524056667799704,0,40000
900974,36482.0,48990.0,36448.0,38080.0,19.999889601642614,-0.06645240482936876,0,40000
900984,33588.0,46940.0,39754.0,39718.0,19.96002507699756,1.2638824809405966,0,40000
900994,34773.0,48339.0,39091.0,37797.0,19.837718121362837,2.5426245765650295,0,40000
901004,35933.0,46539.0,39215.0,38313.0,19.633299545256328,3.812289202859313,0,40000
