timestamp,stabilizer.roll,stabilizer.pitch,stateEstimateZ.rateRoll,stateEstimateZ.ratePitch,controller.pitchRate,controller.rollRate,roll,pitch,yawdot,thrust
1440402,-41.52705764770508,63.47366714477539,11.0,-19.0,-383.88897705078125,251.15545654296875,0,0,0,40000
1440412,-41.5318489074707,63.45582580566406,8.0,-13.0,-385.685791015625,252.4300994873047,0,0,0,40000
1440422,-41.540794372558594,63.414573669433594,-31.0,-104.0,-387.3414001464844,253.7300567626953,0,0,0,40000
1440432,-41.50292205810547,63.34877395629883,-26.0,-199.0,-388.84796142578125,254.74851989746094,0,0,0,40000
1440442,-41.28548049926758,63.13582992553711,-4.0,-483.0,-389.4674377441406,254.68589782714844,0,0,0,40000
1440452,-40.953277587890625,62.90190124511719,11.0,-754.0,-389.95379638671875,253.9254150390625,0,0,0,40000
1440462,-40.116764068603516,62.3441276550293,44.0,-1292.0,-388.4849853515625,250.1213836669922,0,0,0,40000
1440472,-39.26019287109375,61.783241271972656,42.0,-1870.0,-386.98016357421875,246.17042541503906,0,0,0,40000
1440482,-37.5268669128418,60.6073112487793,16.0,-2518.0,-381.75799560546875,236.91835021972656,0,0,0,40000
1440492,-36.071712493896484,59.55502700805664,80.0,-3293.0,-377.2439270019531,229.28736877441406,0,0,0,40000
1440502,-33.525848388671875,57.50861358642578,125.0,-4178.0,-366.7170104980469,215.04978942871094,0,0,0,40000
1440512,-31.62445068359375,55.77141189575195,165.0,-5057.0,-357.98822021484375,204.61306762695312,0,0,0,40000
1440522,-28.62604522705078,52.57881546020508,203.0,-6007.0,-340.4502868652344,187.51766967773438,0,0,0,40000
1440532,-26.593358993530273,50.025840759277344,326.0,-6948.0,-326.664306640625,176.1437225341797,0,0,0,40000
1440542,-23.639352798461914,45.604515075683594,466.0,-7718.0,-301.5593566894531,159.16375732421875,0,0,0,40000
1440552,-21.783899307250977,42.34006881713867,664.0,-8270.0,-283.28240966796875,148.70669555664062,0,0,0,40000
1440562,-19.216100692749023,37.09920120239258,859.0,-8572.0,-253.013916015625,133.906494140625,0,0,0,40000
1440572,-17.638212203979492,33.46522903442383,1089.0,-8646.0,-232.2576904296875,124.987060546875,0,0,0,40000
1440582,-15.437433242797852,28.016822814941406,1420.0,-8425.0,-200.47288513183594,112.27152252197266,0,0,0,40000
1440592,-14.061128616333008,24.47211265563965,1765.0,-8044.0,-179.98118591308594,104.4520263671875,0,0,0,40000
1440602,-12.042753219604492,19.447473526000977,2015.0,-7421.0,-150.47584533691406,92.72696685791016,0,0,0,40000
1440612,-10.708236694335938,16.386837005615234,2309.0,-6586.0,-132.639892578125,85.05713653564453,0,0,0,40000
1440622,-8.699687004089355,12.377023696899414,2587.0,-5552.0,-108.99836730957031,73.2911148071289,0,0,0,40000
1440632,-7.3385844230651855,10.17707347869873,2831.0,-4349.0,-96.1297836303711,65.36107635498047,0,0,0,40000
1440642,-5.243129730224609,7.7270073890686035,2959.0,-3130.0,-81.68769073486328,52.97089767456055,0,0,0,40000
1440652,-3.822267532348633,6.684055805206299,3052.0,-1773.0,-75.64228820800781,44.57745361328125,0,0,0,40000
1440662,-1.6768357753753662,5.985011577606201,3088.0,-552.0,-71.63328552246094,31.78092384338379,0,0,0,40000
1440672,-0.24537302553653717,6.014585018157959,3071.0,440.0,-71.99027252197266,23.216686248779297,0,0,0,40000
1440682,1.857513427734375,6.615251541137695,2994.0,1168.0,-75.78395080566406,10.568737030029297,0,0,0,40000
1440692,3.2171692848205566,7.294647693634033,2886.0,1704.0,-80.07072448730469,2.330547332763672,0,0,0,40000
1440702,5.172737121582031,8.58285140991211,2712.0,2032.0,-88.04130554199219,-9.534934997558594,0,0,0,40000
1440712,6.411651611328125,9.539519309997559,2517.0,2189.0,-94.05595397949219,-17.146005630493164,0,0,0,40000
1440722,8.123200416564941,11.009322166442871,2286.0,2212.0,-103.18743896484375,-27.638912200927734,0,0,0,40000
1440732,9.171382904052734,11.958104133605957,2074.0,2100.0,-109.22755432128906,-34.19062423706055,0,0,0,40000
1440742,10.580556869506836,13.246567726135254,1793.0,1885.0,-117.3408203125,-42.946678161621094,0,0,0,40000
1440752,11.397272109985352,13.960417747497559,1499.0,1549.0,-122.03436279296875,-48.17924880981445,0,0,0,40000
1440762,12.425716400146484,14.75507926940918,1214.0,1089.0,-127.23644256591797,-54.71104049682617,0,0,0,40000
1440772,12.978350639343262,15.073108673095703,971.0,548.0,-129.59326171875,-58.409637451171875,0,0,0,40000
1440782,13.555686950683594,15.178192138671875,647.0,-38.0,-130.67913818359375,-62.27415466308594,0,0,0,40000
1440792,13.80190658569336,14.958869934082031,409.0,-730.0,-129.81497192382812,-64.16276550292969,0,0,0,40000
1440802,13.938058853149414,14.147844314575195,130.0,-1497.0,-125.38456726074219,-65.39688110351562,0,0,0,40000
1440812,13.826066970825195,13.26952075958252,-173.0,-2267.0,-120.52371215820312,-65.1411361694336,0,0,0,40000
1440822,13.471412658691406,11.489931106567383,-481.0,-2954.0,-110.2137451171875,-63.422264099121094,0,0,0,40000
1440832,13.113042831420898,10.04067325592041,-731.0,-3464.0,-101.83710479736328,-61.66990280151367,0,0,0,40000
1440842,12.417242050170898,7.593323230743408,-964.0,-3768.0,-87.41075134277344,-57.87647247314453,0,0,0,40000
1440852,11.864749908447266,5.894134998321533,-1172.0,-3851.0,-77.41282653808594,-54.9241828918457,0,0,0,40000
1440862,10.901449203491211,3.370216131210327,-1390.0,-3698.0,-62.40040588378906,-49.48335266113281,0,0,0,40000
1440872,10.213048934936523,1.8077739477157593,-1542.0,-3321.0,-53.09852600097656,-45.667720794677734,0,0,0,40000
1440882,9.096034049987793,-0.2546923756599426,-1656.0,-2857.0,-40.73981857299805,-39.25210952758789,0,0,0,40000
1440892,8.310037612915039,-1.3841310739517212,-1743.0,-2243.0,-33.93486785888672,-34.794883728027344,0,0,0,40000
1440902,7.0784592628479,-2.6796820163726807,-1824.0,-1663.0,-26.095495223999023,-27.632728576660156,0,0,0,40000
1440912,6.2463154792785645,-3.2751667499542236,-1846.0,-1088.0,-22.431140899658203,-22.837251663208008,0,0,0,40000
1440922,5.001433372497559,-3.8070411682128906,-1791.0,-577.0,-19.1309814453125,-15.532907485961914,0,0,0,40000
1440932,4.188913822174072,-3.9504780769348145,-1747.0,-143.0,-18.15332794189453,-10.793146133422852,0,0,0,40000
1440942,2.9957830905914307,-3.8931782245635986,-1649.0,225.0,-18.378860473632812,-3.738260269165039,0,0,0,40000
1440952,2.2559316158294678,-3.7184507846832275,-1579.0,470.0,-19.313467025756836,0.6242923736572266,0,0,0,40000
1440962,1.2388513088226318,-3.362264394760132,-1432.0,556.0,-21.34527015686035,6.677684307098389,0,0,0,40000
1440972,0.6458479762077332,-3.1258809566497803,-1274.0,484.0,-22.667009353637695,10.209266662597656,0,0,0,40000
1440982,-0.14454452693462372,-2.8545405864715576,-1084.0,325.0,-24.20650863647461,14.946897506713867,0,0,0,40000
1440992,-0.5993342399597168,-2.761989116668701,-922.0,108.0,-24.677978515625,17.688262939453125,0,0,0,40000
1441002,-1.1521390676498413,-2.7853598594665527,-719.0,-143.0,-24.455055236816406,21.03346824645996,0,0,0,40000
1441012,-1.4202237129211426,-2.9378561973571777,-538.0,-428.0,-23.453933715820312,22.681438446044922,0,0,0,40000
1441022,-1.6963387727737427,-3.3188326358795166,-313.0,-631.0,-21.073453903198242,24.38619613647461,0,0,0,40000
1441032,-1.7842209339141846,-3.6705615520477295,-97.0,-852.0,-18.857311248779297,24.96613883972168,0,0,0,40000
1441042,-1.7865309715270996,-4.305544376373291,99.0,-976.0,-14.926139831542969,25.03407096862793,0,0,0,40000
1441052,-1.7102065086364746,-4.776078224182129,258.0,-1026.0,-11.965326309204102,24.628429412841797,0,0,0,40000
1441062,-1.4621962308883667,-5.481348037719727,417.0,-1018.0,-7.577648162841797,23.187484741210938,0,0,0,40000
1441072,-1.2162203788757324,-5.91332483291626,578.0,-904.0,-4.8135223388671875,21.751155853271484,0,0,0,40000
1441082,-0.7580524682998657,-6.493488788604736,726.0,-790.0,-1.1443519592285156,19.03074836730957,0,0,0,40000
1441092,-0.40337640047073364,-6.804370403289795,816.0,-617.0,0.9214096069335938,16.919124603271484,0,0,0,40000
1441102,0.20000673830509186,-7.165309429168701,894.0,-442.0,3.298137664794922,13.300244331359863,0,0,0,40000
1441112,0.6314827799797058,-7.3212199211120605,919.0,-270.0,4.451469421386719,10.697616577148438,0,0,0,40000
1441122,1.3061604499816895,-7.443474292755127,969.0,-119.0,5.407192230224609,6.618542671203613,0,0,0,40000
1441132,1.7687325477600098,-7.454287528991699,995.0,8.0,5.695610046386719,3.795639991760254,0,0,0,40000
1441142,2.4649498462677,-7.401766300201416,1016.0,100.0,5.6033782958984375,-0.4472084045410156,0,0,0,40000
1441152,2.9119608402252197,-7.33353853225708,952.0,158.0,5.414848327636719,-3.2113075256347656,0,0,0,40000
1441162,3.545732259750366,-7.208075046539307,876.0,176.0,4.879863739013672,-7.112939834594727,0,0,0,40000
1441172,3.9338064193725586,-7.131458759307861,803.0,132.0,4.635013580322266,-9.554765701293945,0,0,0,40000
1441182,4.478778839111328,-7.047146320343018,767.0,112.0,4.341518402099609,-12.952543258666992,0,0,0,40000
1441192,4.787692546844482,-7.021394729614258,637.0,25.0,4.397945404052734,-14.945978164672852,0,0,0,40000
1441202,5.179963111877441,-7.023409843444824,538.0,-35.0,4.6205902099609375,-17.45051383972168,0,0,0,40000
1441212,5.387354850769043,-7.061169624328613,415.0,-136.0,5.058498382568359,-18.854045867919922,0,0,0,40000
1441222,5.635012626647949,-7.182246685028076,315.0,-207.0,5.998836517333984,-20.50632095336914,0,0,0,40000
1441232,5.73789644241333,-7.2895097732543945,175.0,-269.0,6.8597869873046875,-21.294584274291992,0,0,0,40000
1441242,5.819842338562012,-7.495550155639648,70.0,-322.0,8.318302154541016,-21.96014404296875,0,0,0,40000
1441252,5.824275970458984,-7.673651695251465,-46.0,-387.0,9.614967346191406,-22.161476135253906,0,0,0,40000
1441262,5.7627763748168945,-7.949539661407471,-102.0,-400.0,11.50539779663086,-21.966238021850586,0,0,0,40000
1441272,5.668139934539795,-8.131649017333984,-244.0,-351.0,12.839851379394531,-21.569664001464844,0,0,0,40000
1441282,5.4673027992248535,-8.344441413879395,-314.0,-272.0,14.364570617675781,-20.531278610229492,0,0,0,40000
1441292,5.300328254699707,-8.445990562438965,-391.0,-165.0,15.22610855102539,-19.690500259399414,0,0,0,40000
1441302,5.0025248527526855,-8.519248962402344,-438.0,-58.0,15.920589447021484,-18.057453155517578,0,0,0,40000
1441312,4.783356666564941,-8.528253555297852,-494.0,27.0,16.230392456054688,-16.888599395751953,0,0,0,40000
1441322,4.418632507324219,-8.489891052246094,-500.0,103.0,16.255542755126953,-14.837182998657227,0,0,0,40000
1441332,4.154094696044922,-8.452165603637695,-578.0,109.0,16.283199310302734,-13.377819061279297,0,0,0,40000
1441342,3.7547690868377686,-8.361869812011719,-562.0,143.0,15.993400573730469,-11.099271774291992,0,0,0,40000
1441352,3.493385076522827,-8.306373596191406,-559.0,140.0,15.910293579101562,-9.638904571533203,0,0,0,40000
1441362,3.102708578109741,-8.208932876586914,-521.0,144.0,15.57308578491211,-7.392464637756348,0,0,0,40000
1441372,2.856290817260742,-8.141339302062988,-521.0,144.0,15.412593841552734,-6.002580642700195,0,0,0,40000
1441382,2.4957191944122314,-8.041756629943848,-490.0,154.0,15.057559967041016,-3.918285369873047,0,0,0,40000
1441392,2.280703544616699,-7.978378772735596,-458.0,164.0,14.917438507080078,-2.6991729736328125,0,0,0,40000
1441402,1.9915189743041992,-7.888390064239502,-386.0,136.0,14.615253448486328,-1.0271854400634766,0,0,0,40000
1441412,1.8187940120697021,-7.833930492401123,-347.0,140.0,14.524169921875,-0.04744911193847656,0,0,0,40000
1441422,1.6049989461898804,-7.754659652709961,-279.0,117.0,14.282154083251953,1.1847152709960938,0,0,0,40000
1441432,1.4961837530136108,-7.709847450256348,-210.0,79.0,14.24508285522461,1.7914533615112305,0,0,0,40000
1441442,1.3788461685180664,-7.646689414978027,-140.0,89.0,14.096328735351562,2.452885627746582,0,0,0,40000
1441452,1.3348197937011719,-7.602322101593018,-77.0,78.0,14.058708190917969,2.676506996154785,0,0,0,40000
1441462,1.3230775594711304,-7.540814399719238,21.0,105.0,13.916717529296875,2.7073287963867188,0,0,0,40000
1441472,1.3425697088241577,-7.495604038238525,74.0,89.0,13.870811462402344,2.550373077392578,0,0,0,40000
1441482,1.420052170753479,-7.440042495727539,132.0,81.0,13.76132583618164,2.043947219848633,0,0,0,40000
1441492,1.490928292274475,-7.403425216674805,149.0,73.0,13.76412582397461,1.574798583984375,0,0,0,40000
1441502,1.6335139274597168,-7.358450889587402,212.0,69.0,13.71563720703125,0.6720695495605469,0,0,0,40000
1441512,1.7445569038391113,-7.3237528800964355,250.0,50.0,13.727542877197266,-0.045169830322265625,0,0,0,40000
1441522,1.86658775806427,-7.287315845489502,252.0,94.0,13.684062957763672,-0.8213977813720703,0,0,0,40000
1441532,2.0517470836639404,-7.219700813293457,272.0,61.0,13.495647430419922,-1.9916667938232422,0,0,0,40000
1441542,2.180793523788452,-7.189410209655762,260.0,51.0,13.52993392944336,-2.829845428466797,0,0,0,40000
1441552,2.3656840324401855,-7.156294345855713,241.0,41.0,13.546276092529297,-4.007974624633789,0,0,0,40000
1441562,2.475005626678467,-7.141918659210205,237.0,42.0,13.674476623535156,-4.736809730529785,0,0,0,40000
1441572,2.6230247020721436,-7.100027084350586,223.0,79.0,13.63668441772461,-5.701839447021484,0,0,0,40000
1441582,2.7066287994384766,-7.060434341430664,162.0,98.0,13.61142349243164,-6.283696174621582,0,0,0,40000
1441592,2.8091399669647217,-6.984274864196777,111.0,125.0,13.364934921264648,-6.981942176818848,0,0,0,40000
1441602,2.8775742053985596,-6.914026737213135,95.0,135.0,13.151744842529297,-7.478054046630859,0,0,0,40000
1441612,2.9470553398132324,-6.806889057159424,104.0,161.0,12.714452743530273,-7.98245906829834,0,0,0,40000
1441622,2.972153663635254,-6.738572120666504,50.0,138.0,12.507499694824219,-8.221931457519531,0,0,0,40000
1441632,2.989363431930542,-6.649824142456055,12.0,140.0,12.175559997558594,-8.414748191833496,0,0,0,40000
1441642,2.992928981781006,-6.587137699127197,2.0,145.0,11.997833251953125,-8.525928497314453,0,0,0,40000
1441652,2.9768407344818115,-6.490139007568359,-68.0,121.0,11.611650466918945,-8.518993377685547,0,0,0,40000
1441662,2.9473841190338135,-6.433591842651367,-72.0,96.0,11.466049194335938,-8.43101692199707,0,0,0,40000
1441672,2.8857879638671875,-6.376423358917236,-83.0,72.0,11.314956665039062,-8.148727416992188,0,0,0,40000
1441682,2.838106870651245,-6.351777076721191,-105.0,52.0,11.357940673828125,-7.948380470275879,0,0,0,40000
1441692,2.7460579872131348,-6.319569110870361,-136.0,51.0,11.354654312133789,-7.479671478271484,0,0,0,40000
1441702,2.6744351387023926,-6.30877161026001,-154.0,6.0,11.479255676269531,-7.131038665771484,0,0,0,40000
1441712,2.5591554641723633,-6.309724807739258,-168.0,11.0,11.674308776855469,-6.517560958862305,0,0,0,40000
1441722,2.4793620109558105,-6.303718090057373,-185.0,8.0,11.827495574951172,-6.11415958404541,0,0,0,40000
1441732,2.343902826309204,-6.295350074768066,-198.0,0.0,11.966278076171875,-5.373349189758301,0,0,0,40000
1441742,2.257383346557617,-6.302404403686523,-177.0,-29.0,12.19754409790039,-4.922954559326172,0,0,0,40000
1441752,2.1339223384857178,-6.304946422576904,-159.0,40.0,12.402088165283203,-4.247688293457031,0,0,0,40000
1441762,2.0677294731140137,-6.279228687286377,-152.0,91.0,12.436485290527344,-3.9133481979370117,0,0,0,40000
1441772,1.954632043838501,-6.1982831954956055,-156.0,152.0,12.137853622436523,-3.2947998046875,0,0,0,40000
1441782,1.883121371269226,-6.127058982849121,-144.0,158.0,11.89516830444336,-2.9230947494506836,0,0,0,40000
1441792,1.7971299886703491,-6.019886493682861,-121.0,163.0,11.43400764465332,-2.462042808532715,0,0,0,40000
1441802,1.7483179569244385,-5.937016010284424,-96.0,182.0,11.11590576171875,-2.2221899032592773,0,0,0,40000
1441812,1.692639708518982,-5.814599990844727,-80.0,175.0,10.557281494140625,-1.939488410949707,0,0,0,40000
1441822,1.664627194404602,-5.736594200134277,-75.0,167.0,10.262283325195312,-1.8216800689697266,0,0,0,40000
1441832,1.6286540031433105,-5.6160407066345215,-44.0,160.0,9.708839416503906,-1.6550788879394531,0,0,0,40000
1441842,1.6121159791946411,-5.551694869995117,0.0,143.0,9.49007797241211,-1.6043634414672852,0,0,0,40000
1441852,1.6060187816619873,-5.460343837738037,10.0,142.0,9.106842041015625,-1.6159868240356445,0,0,0,40000
1441862,1.6174226999282837,-5.397017478942871,35.0,141.0,8.889572143554688,-1.7327837944030762,0,0,0,40000
1441872,1.6451510190963745,-5.305716514587402,55.0,128.0,8.502033233642578,-1.948084831237793,0,0,0,40000
1441882,1.6733627319335938,-5.253609657287598,60.0,96.0,8.347620010375977,-2.1672348976135254,0,0,0,40000
1441892,1.7139239311218262,-5.194201946258545,62.0,48.0,8.147560119628906,-2.461554527282715,0,0,0,40000
1441902,1.7433087825775146,-5.1733622550964355,75.0,52.0,8.177970886230469,-2.689795970916748,0,0,0,40000
1441912,1.7974963188171387,-5.145440101623535,72.0,26.0,8.165050506591797,-3.068169593811035,0,0,0,40000
1441922,1.8326877355575562,-5.142726898193359,94.0,-2.0,8.303081512451172,-3.3338475227355957,0,0,0,40000
1441932,1.891701340675354,-5.142274379730225,86.0,-6.0,8.454608917236328,-3.7439746856689453,0,0,0,40000
1441942,1.9273930788040161,-5.150326728820801,80.0,-20.0,8.657339096069336,-4.015516757965088,0,0,0,40000
1441952,1.9807820320129395,-5.168196201324463,67.0,-31.0,8.91933822631836,-4.394662857055664,0,0,0,40000
1441962,2.0111286640167236,-5.1780571937561035,61.0,-16.0,9.133773803710938,-4.636720180511475,0,0,0,40000
1441972,2.0480799674987793,-5.163097858428955,48.0,43.0,9.199203491210938,-4.919476509094238,0,0,0,40000
1441982,2.055601119995117,-5.13413143157959,14.0,81.0,9.179798126220703,-5.026209354400635,0,0,0,40000
1441992,2.0617802143096924,-5.071939945220947,14.0,124.0,8.959653854370117,-5.125060081481934,0,0,0,40000
1442002,2.0619285106658936,-5.007406234741211,-13.0,153.0,8.723470687866211,-5.187849521636963,0,0,0,40000
1442012,2.045908212661743,-4.877413749694824,-30.0,222.0,8.091564178466797,-5.1533050537109375,0,0,0,40000
1442022,2.024529457092285,-4.777806282043457,-52.0,222.0,7.638444900512695,-5.0860161781311035,0,0,0,40000
1442032,1.9837374687194824,-4.633417129516602,-66.0,207.0,6.912809371948242,-4.901302337646484,0,0,0,40000
1442042,1.9438083171844482,-4.534814834594727,-94.0,196.0,6.458408355712891,-4.720530033111572,0,0,0,40000
1442052,1.8709805011749268,-4.42695951461792,-122.0,111.0,5.945178985595703,-4.340656280517578,0,0,0,40000
1442062,1.819399356842041,-4.3957343101501465,-128.0,55.0,5.890018463134766,-4.0863847732543945,0,0,0,40000
1442072,1.7262768745422363,-4.378758430480957,-141.0,21.0,5.919607162475586,-3.580559730529785,0,0,0,40000
1442082,1.6677378416061401,-4.356903076171875,-153.0,15.0,5.919425964355469,-3.2800731658935547,0,0,0,40000
1442092,1.5593928098678589,-4.353824138641357,-152.0,-4.0,6.03156852722168,-2.6780529022216797,0,0,0,40000
1442102,1.4890742301940918,-4.354979991912842,-130.0,-4.0,6.169158935546875,-2.301647186279297,0,0,0,40000
1442112,1.405317783355713,-4.361362934112549,-131.0,-13.0,6.338167190551758,-1.8423118591308594,0,0,0,40000
1442122,1.3492974042892456,-4.368661403656006,-120.0,-25.0,6.512908935546875,-1.547356128692627,0,0,0,40000
1442132,1.2798066139221191,-4.3912034034729,-106.0,-18.0,6.779655456542969,-1.1695504188537598,0,0,0,40000
1442142,1.2314234972000122,-4.422511100769043,-99.0,-60.0,7.0997772216796875,-0.9167642593383789,0,0,0,40000
1442152,1.1732746362686157,-4.462800979614258,-75.0,-58.0,7.474897384643555,-0.6037139892578125,0,0,0,40000
1442162,1.1375548839569092,-4.472461700439453,-57.0,7.0,7.666919708251953,-0.4239377975463867,0,0,0,40000
1442172,1.1035383939743042,-4.438197135925293,-49.0,69.0,7.594987869262695,-0.2533693313598633,0,0,0,40000
1442182,1.082398533821106,-4.405590534210205,-38.0,89.0,7.531927108764648,-0.15924692153930664,0,0,0,40000
1442192,1.0676134824752808,-4.342545986175537,-23.0,92.0,7.284692764282227,-0.1026768684387207,0,0,0,40000
1442202,1.0681548118591309,-4.2875189781188965,-9.0,122.0,7.083854675292969,-0.13795995712280273,0,0,0,40000
1442212,1.0681897401809692,-4.207940578460693,-17.0,120.0,6.733558654785156,-0.1702594757080078,0,0,0,40000
1442222,1.074375033378601,-4.156475067138672,16.0,124.0,6.550060272216797,-0.23948955535888672,0,0,0,40000
1442232,1.0736958980560303,-4.060457229614258,-9.0,152.0,6.096992492675781,-0.2677149772644043,0,0,0,40000
1442242,1.071131706237793,-3.996741533279419,7.0,116.0,5.835334777832031,-0.28449296951293945,0,0,0,40000
1442252,1.082374095916748,-3.937981367111206,0.0,47.0,5.6015167236328125,-0.3842940330505371,0,0,0,40000
1442262,1.0857386589050293,-3.930804967880249,6.0,18.0,5.676446914672852,-0.43700265884399414,0,0,0,40000
1442272,1.096232533454895,-3.919503927230835,13.0,16.0,5.72636604309082,-0.5326848030090332,0,0,0,40000
1442282,1.0987813472747803,-3.9280104637145996,4.0,-16.0,5.895149230957031,-0.5809106826782227,0,0,0,40000
1442292,1.1119861602783203,-3.937063694000244,20.0,-17.0,6.067487716674805,-0.6932950019836426,0,0,0,40000
1442302,1.1200617551803589,-3.9504101276397705,25.0,-33.0,6.265893936157227,-0.7752509117126465,0,0,0,40000
1442312,1.131913423538208,-3.969834804534912,9.0,0.0,6.501394271850586,-0.8802547454833984,0,0,0,40000
1442322,1.1346418857574463,-3.9722728729248047,21.0,11.0,6.635169982910156,-0.9306373596191406,0,0,0,40000
1442332,1.1401009559631348,-3.9483883380889893,-4.0,45.0,6.610706329345703,-0.997560977935791,0,0,0,40000
1442342,1.1390913724899292,-3.9293463230133057,-13.0,58.0,6.614564895629883,-1.025679111480713,0,0,0,40000
1442352,1.1328428983688354,-3.902431011199951,1.0,48.0,6.570466995239258,-1.0221972465515137,0,0,0,40000
1442362,1.1268377304077148,-3.87187123298645,-36.0,61.0,6.503662109375,-1.0200467109680176,0,0,0,40000
1442372,1.1002039909362793,-3.8147761821746826,-28.0,106.0,6.276309967041016,-0.8935451507568359,0,0,0,40000
1442382,1.0852528810501099,-3.761593818664551,-20.0,115.0,6.070688247680664,-0.8365464210510254,0,0,0,40000
1442392,1.0678106546401978,-3.694727897644043,-41.0,80.0,5.781038284301758,-0.7642354965209961,0,0,0,40000
1442402,1.0479779243469238,-3.6630048751831055,-33.0,75.0,5.700977325439453,-0.6768941879272461,0,0,0,40000
1442412,1.0289345979690552,-3.6122162342071533,-32.0,65.0,5.505224227905273,-0.5937333106994629,0,0,0,40000
1442422,1.0144683122634888,-3.5825021266937256,-25.0,34.0,5.43474006652832,-0.537529468536377,0,0,0,40000
1442432,0.982904851436615,-3.588149309158325,-45.0,-34.0,5.576072692871094,-0.37807559967041016,0,0,0,40000
1442442,0.963229775428772,-3.6102664470672607,-29.0,-57.0,5.816801071166992,-0.28914642333984375,0,0,0,40000
1442452,0.9328398108482361,-3.6677613258361816,-41.0,-103.0,6.271017074584961,-0.13516664505004883,0,0,0,40000
1442462,0.9160630702972412,-3.715257406234741,-44.0,-113.0,6.666882514953613,-0.06216239929199219,0,0,0,40000
1442472,0.8873215913772583,-3.794626235961914,-37.0,-118.0,7.255969047546387,0.0833272933959961,0,0,0,40000
1442482,0.8722599744796753,-3.8477346897125244,-31.0,-89.0,7.689444541931152,0.14734888076782227,0,0,0,40000
1442492,0.8568040728569031,-3.8820548057556152,-22.0,-22.0,8.011554718017578,0.21419239044189453,0,0,0,40000
1442502,0.8458312749862671,-3.8947901725769043,-22.0,7.0,8.204689025878906,0.2545166015625,0,0,0,40000
1442512,0.8286685943603516,-3.8720529079437256,-14.0,50.0,8.184797286987305,0.33246374130249023,0,0,0,40000
1442522,0.8222977519035339,-3.819786310195923,-14.0,136.0,7.986467361450195,0.345947265625,0,0,0,40000
1442532,0.8137214183807373,-3.7124035358428955,-8.0,162.0,7.454885482788086,0.37291383743286133,0,0,0,40000
1442542,0.8108673691749573,-3.6267337799072266,-18.0,184.0,7.050684928894043,0.3656606674194336,0,0,0,40000
1442552,0.8038749694824219,-3.502711772918701,-23.0,183.0,6.413103103637695,0.3833470344543457,0,0,0,40000
1442562,0.796515166759491,-3.4186761379241943,0.0,184.0,6.012452125549316,0.4035472869873047,0,0,0,40000
1442572,0.8090863227844238,-3.293275833129883,5.0,174.0,5.360307693481445,0.3039698600769043,0,0,0,40000
1442582,0.8126310110092163,-3.227795124053955,9.0,127.0,5.065038681030273,0.2583751678466797,0,0,0,40000
1442592,0.8056476712226868,-3.1634509563446045,-13.0,77.0,4.774524688720703,0.27597713470458984,0,0,0,40000
1442602,0.8094995021820068,-3.1294820308685303,4.0,65.0,4.665004730224609,0.22864341735839844,0,0,0,40000
1442612,0.800161600112915,-3.1029152870178223,-16.0,0.0,4.59880256652832,0.26052141189575195,0,0,0,40000
1442622,0.7972830533981323,-3.1108286380767822,9.0,-25.0,4.739532470703125,0.253873348236084,0,0,0,40000
1442632,0.8009293079376221,-3.1376986503601074,5.0,-21.0,4.994595527648926,0.20796823501586914,0,0,0,40000
1442642,0.805000901222229,-3.153878927230835,0.0,-42.0,5.1861114501953125,0.15943193435668945,0,0,0,40000
1442652,0.8001837134361267,-3.1962640285491943,-16.0,-51.0,5.535797119140625,0.16422128677368164,0,0,0,40000
1442662,0.8041953444480896,-3.2158186435699463,8.0,-43.0,5.749367713928223,0.11607694625854492,0,0,0,40000
1442672,0.8189333081245422,-3.2439992427825928,33.0,-44.0,6.015433311462402,0.0033235549926757812,0,0,0,40000
1442682,0.8303587436676025,-3.2522730827331543,24.0,-3.0,6.162539482116699,-0.09000110626220703,0,0,0,40000
1442692,0.8490657806396484,-3.2241780757904053,29.0,55.0,6.091159820556641,-0.22748994827270508,0,0,0,40000
1442702,0.871820330619812,-3.183192491531372,27.0,86.0,5.941230773925781,-0.38991594314575195,0,0,0,40000
1442712,0.9037892818450928,-3.0911247730255127,56.0,146.0,5.482784271240234,-0.6084113121032715,0,0,0,40000
1442722,0.9207441806793213,-3.0102853775024414,43.0,174.0,5.089024543762207,-0.7375597953796387,0,0,0,40000
1442732,0.9522420167922974,-2.8968560695648193,57.0,149.0,4.496676445007324,-0.9546875953674316,0,0,0,40000
1442742,0.9732097387313843,-2.834019422531128,22.0,116.0,4.205410003662109,-1.1094613075256348,0,0,0,40000
1442752,1.0180407762527466,-2.7619218826293945,56.0,91.0,3.8565244674682617,-1.4084486961364746,0,0,0,40000
1442762,1.0462570190429688,-2.7202460765838623,60.0,79.0,3.688549041748047,-1.6087827682495117,0,0,0,40000
1442772,1.084957480430603,-2.6707875728607178,68.0,63.0,3.472484588623047,-1.8729963302612305,0,0,0,40000
1442782,1.1148089170455933,-2.6302764415740967,91.0,88.0,3.308839797973633,-2.0851645469665527,0,0,0,40000
1442792,1.160617470741272,-2.579148769378662,63.0,72.0,3.080057144165039,-2.394341468811035,0,0,0,40000
1442802,1.1931076049804688,-2.555171251296997,61.0,25.0,3.0131139755249023,-2.6246986389160156,0,0,0,40000
1442812,1.2263373136520386,-2.5377681255340576,46.0,-3.0,2.9849491119384766,-2.860474109649658,0,0,0,40000
1442822,1.254715919494629,-2.5330708026885986,74.0,4.0,3.032809257507324,-3.068021297454834,0,0,0,40000
1442832,1.3001105785369873,-2.545111894607544,58.0,-15.0,3.1812572479248047,-3.3788747787475586,0,0,0,40000
1442842,1.3211153745651245,-2.555316925048828,38.0,-10.0,3.3190412521362305,-3.5443148612976074,0,0,0,40000
1442852,1.3531993627548218,-2.5513124465942383,32.0,4.0,3.371614456176758,-3.777102470397949,0,0,0,40000
1442862,1.3683418035507202,-2.543203115463257,31.0,28.0,3.3993663787841797,-3.908820629119873,0,0,0,40000
1442872,1.3952677249908447,-2.4993155002593994,35.0,61.0,3.211587905883789,-4.111876487731934,0,0,0,40000
1442882,1.4020109176635742,-2.4709606170654297,17.0,57.0,3.1159210205078125,-4.1943159103393555,0,0,0,40000
1442892,1.4030287265777588,-2.4316697120666504,-10.0,59.0,2.9536123275756836,-4.242554664611816,0,0,0,40000
1442902,1.3948317766189575,-2.3998053073883057,-22.0,73.0,2.8348264694213867,-4.235334396362305,0,0,0,40000
1442912,1.3675283193588257,-2.351318359375,-54.0,80.0,2.615083694458008,-4.112878322601318,0,0,0,40000
1442922,1.3535418510437012,-2.3027560710906982,-24.0,124.0,2.3933982849121094,-4.06973123550415,0,0,0,40000
1442932,1.3097642660140991,-2.2359542846679688,-75.0,90.0,2.0604047775268555,-3.8469910621643066,0,0,0,40000
1442942,1.2724069356918335,-2.176623582839966,-63.0,122.0,1.770467758178711,-3.6614551544189453,0,0,0,40000
1442952,1.2228535413742065,-2.099297046661377,-83.0,104.0,1.3703088760375977,-3.401484489440918,0,0,0,40000
1442962,1.187579870223999,-2.061113119125366,-95.0,97.0,1.2035083770751953,-3.225902557373047,0,0,0,40000
1442972,1.1276804208755493,-2.011387586593628,-78.0,69.0,0.9659900665283203,-2.9009974002838135,0,0,0,40000
1442982,1.0841020345687866,-1.9873026609420776,-90.0,48.0,0.881403923034668,-2.672569751739502,0,0,0,40000
1442992,1.015743613243103,-1.9659569263458252,-110.0,28.0,0.8125286102294922,-2.2937240600585938,0,0,0,40000
1443002,0.9693818688392639,-1.9503846168518066,-107.0,34.0,0.7778081893920898,-2.0451979637145996,0,0,0,40000
1443012,0.9115028381347656,-1.9311929941177368,-93.0,8.0,0.7206916809082031,-1.725980281829834,0,0,0,40000
1443022,0.869941771030426,-1.9363958835601807,-75.0,-36.0,0.8099288940429688,-1.5031981468200684,0,0,0,40000
1443032,0.806789219379425,-1.9822499752044678,-81.0,-86.0,1.1437911987304688,-1.1492528915405273,0,0,0,40000
1443042,0.7644767165184021,-2.0250701904296875,-82.0,-96.0,1.4609661102294922,-0.9188218116760254,0,0,0,40000
1443052,0.7203701138496399,-2.1044681072235107,-76.0,-116.0,1.999502182006836,-0.6763553619384766,0,0,0,40000
1443062,0.7000587582588196,-2.152332305908203,-65.0,-85.0,2.3507308959960938,-0.5757317543029785,0,0,0,40000
1443072,0.6666200160980225,-2.1840827465057373,-41.0,-31.0,2.606480598449707,-0.39542675018310547,0,0,0,40000
1443082,0.6541381478309631,-2.1837971210479736,-6.0,8.0,2.6703128814697266,-0.34028148651123047,0,0,0,40000
1443092,0.6384595036506653,-2.1621460914611816,-2.0,74.0,2.605727195739746,-0.2655496597290039,0,0,0,40000
1443102,0.6298407912254333,-2.1233303546905518,-7.0,112.0,2.4370193481445312,-0.23284435272216797,0,0,0,40000
1443112,0.6301445364952087,-2.032806396484375,12.0,144.0,1.9560489654541016,-0.2535371780395508,0,0,0,40000
1443122,0.6386920809745789,-1.9678879976272583,11.0,134.0,1.6263036727905273,-0.3238668441772461,0,0,0,40000
1443132,0.6655579209327698,-1.8807213306427002,34.0,119.0,1.1607112884521484,-0.5046725273132324,0,0,0,40000
1443142,0.6801987290382385,-1.8220576047897339,51.0,105.0,0.8640680313110352,-0.6127166748046875,0,0,0,40000
1443152,0.6976154446601868,-1.7853424549102783,27.0,11.0,0.6975917816162109,-0.737940788269043,0,0,0,40000
1443162,0.7173351049423218,-1.7866687774658203,64.0,-28.0,0.7591114044189453,-0.8775200843811035,0,0,0,40000
1443172,0.7521170973777771,-1.8264654874801636,49.0,-67.0,1.0521478652954102,-1.1083903312683105,0,0,0,40000
1443182,0.7736700177192688,-1.8740923404693604,35.0,-118.0,1.393528938293457,-1.2606682777404785,0,0,0,40000
1443192,0.7977278828620911,-1.9509363174438477,47.0,-105.0,1.9122247695922852,-1.4286670684814453,0,0,0,40000
1443202,0.813338577747345,-1.996608853340149,39.0,-70.0,2.2456274032592773,-1.5465426445007324,0,0,0,40000
1443212,0.8361542224884033,-2.03910493850708,34.0,-45.0,2.5613460540771484,-1.7082562446594238,0,0,0,40000
1443222,0.8519576191902161,-2.0367114543914795,56.0,32.0,2.608160972595215,-1.8284225463867188,0,0,0,40000
1443232,0.8826032280921936,-1.9821170568466187,40.0,133.0,2.3409786224365234,-2.038440227508545,0,0,0,40000
1443242,0.9007033705711365,-1.9097366333007812,47.0,182.0,1.964864730834961,-2.1738553047180176,0,0,0,40000
1443252,0.9240630269050598,-1.772877812385559,37.0,211.0,1.1986417770385742,-2.3414294719696045,0,0,0,40000
1443262,0.9389439821243286,-1.6810555458068848,13.0,191.0,0.6992330551147461,-2.4587221145629883,0,0,0,40000
1443272,0.9422180652618408,-1.5608985424041748,27.0,158.0,0.02651214599609375,-2.5064845085144043,0,0,0,40000
1443282,0.9527322053909302,-1.4818285703659058,13.0,159.0,-0.4114217758178711,-2.5923213958740234,0,0,0,40000
1443292,0.9600815176963806,-1.429051160812378,-11.0,96.0,-0.6846246719360352,-2.665144920349121,0,0,0,40000
1443302,0.9643325805664062,-1.3814518451690674,5.0,40.0,-0.9283428192138672,-2.7194738388061523,0,0,0,40000
1443312,0.9600003361701965,-1.3738080263137817,1.0,13.0,-0.9329080581665039,-2.722315788269043,0,0,0,40000
1443322,0.9631679654121399,-1.391890048980713,17.0,-53.0,-0.7830419540405273,-2.7701122760772705,0,0,0,40000
1443332,0.9680854678153992,-1.4339110851287842,12.0,-126.0,-0.488433837890625,-2.8286232948303223,0,0,0,40000
1443342,0.9711769819259644,-1.539559245109558,-10.0,-176.0,0.19026470184326172,-2.8763608932495117,0,0,0,40000
1443352,0.9624196290969849,-1.6228173971176147,-36.0,-193.0,0.7375030517578125,-2.852787971496582,0,0,0,40000
1443362,0.9529538154602051,-1.7585124969482422,-5.0,-177.0,1.6028642654418945,-2.8246073722839355,0,0,0,40000
1443372,0.9374487400054932,-1.8315956592559814,-36.0,-134.0,2.095470428466797,-2.759909152984619,0,0,0,40000
1443382,0.9133922457695007,-1.9068118333816528,-29.0,-97.0,2.603123664855957,-2.6432723999023438,0,0,0,40000
1443392,0.9044786691665649,-1.9352200031280518,-52.0,-49.0,2.8313217163085938,-2.6170578002929688,0,0,0,40000
1443402,0.8800561428070068,-1.96864914894104,-45.0,-42.0,3.0905723571777344,-2.497175693511963,0,0,0,40000
1443412,0.8570406436920166,-1.9816683530807495,-46.0,11.0,3.2280054092407227,-2.3850724697113037,0,0,0,40000
1443422,0.8096503615379333,-1.978268027305603,-61.0,34.0,3.267014503479004,-2.1256141662597656,0,0,0,40000
1443432,0.7808125615119934,-1.951462745666504,-62.0,46.0,3.1650314331054688,-1.976367473602295,0,0,0,40000
1443442,0.7377690076828003,-1.9134736061096191,-62.0,59.0,2.994997024536133,-1.7407457828521729,0,0,0,40000
1443452,0.7106624245643616,-1.8800793886184692,-55.0,81.0,2.851430892944336,-1.5997552871704102,0,0,0,40000
1443462,0.6751376390457153,-1.835719347000122,-56.0,63.0,2.6407737731933594,-1.4073119163513184,0,0,0,40000
1443472,0.64952152967453,-1.8029309511184692,-73.0,56.0,2.4985179901123047,-1.2734014987945557,0,0,0,40000
1443482,0.6062437295913696,-1.7669904232025146,-65.0,36.0,2.3362512588500977,-1.0324244499206543,0,0,0,40000
1443492,0.580638587474823,-1.7579843997955322,-46.0,6.0,2.335052490234375,-0.8965182304382324,0,0,0,40000
1443502,0.5549992322921753,-1.7558820247650146,-55.0,3.0,2.37514591217041,-0.7596590518951416,0,0,0,40000
1443512,0.5280276536941528,-1.760040283203125,-43.0,-5.0,2.452817916870117,-0.6139929294586182,0,0,0,40000
1443522,0.5066688060760498,-1.7548532485961914,-10.0,-11.0,2.474400520324707,-0.5012028217315674,0,0,0,40000
1443532,0.4874875247478485,-1.7574418783187866,-36.0,26.0,2.542630195617676,-0.40100979804992676,0,0,0,40000
1443542,0.45714983344078064,-1.7288235425949097,-32.0,56.0,2.423222541809082,-0.2330784797668457,0,0,0,40000
1443552,0.45630666613578796,-1.6950193643569946,0.0,81.0,2.2716503143310547,-0.2416996955871582,0,0,0,40000
1443562,0.4478394389152527,-1.6351675987243652,-1.0,94.0,1.9623889923095703,-0.2044358253479004,0,0,0,40000
1443572,0.44526806473731995,-1.600847601890564,5.0,57.0,1.8048710823059082,-0.20238757133483887,0,0,0,40000
1443582,0.4434850811958313,-1.5753122568130493,-2.0,31.0,1.699152946472168,-0.20503759384155273,0,0,0,40000
1443592,0.4457869827747345,-1.5615301132202148,4.0,4.0,1.663428783416748,-0.23219561576843262,0,0,0,40000
1443602,0.45663174986839294,-1.5696865320205688,25.0,-27.0,1.7593164443969727,-0.31080198287963867,0,0,0,40000
1443612,0.4695674479007721,-1.579716444015503,12.0,-31.0,1.866781234741211,-0.40235471725463867,0,0,0,40000
1443622,0.48344552516937256,-1.6041244268417358,12.0,-36.0,2.0609970092773438,-0.4999551773071289,0,0,0,40000
1443632,0.4882701337337494,-1.616958737373352,31.0,-18.0,2.18635892868042,-0.543463945388794,0,0,0,40000
1443642,0.5059539079666138,-1.6251027584075928,43.0,21.0,2.283942699432373,-0.6644871234893799,0,0,0,40000
1443652,0.5170509219169617,-1.6169114112854004,12.0,4.0,2.2833995819091797,-0.7464826107025146,0,0,0,40000
1443662,0.5240554213523865,-1.6110748052597046,12.0,-3.0,2.296750068664551,-0.8041219711303711,0,0,0,40000
1443672,0.5292052626609802,-1.6140145063400269,7.0,-3.0,2.362760543823242,-0.850853443145752,0,0,0,40000
1443682,0.5295533537864685,-1.5972492694854736,-12.0,66.0,2.310445785522461,-0.8689002990722656,0,0,0,40000
1443692,0.5235933065414429,-1.5696513652801514,-6.0,76.0,2.1922812461853027,-0.8489110469818115,0,0,0,40000
1443702,0.5053824782371521,-1.5330805778503418,-40.0,24.0,2.0191755294799805,-0.755091667175293,0,0,0,40000
1443712,0.49478572607040405,-1.52128005027771,-47.0,35.0,1.9941768646240234,-0.7064812183380127,0,0,0,40000
1443722,0.46330735087394714,-1.5002373456954956,-51.0,45.0,1.9131784439086914,-0.5318982601165771,0,0,0,40000
1443732,0.43865546584129333,-1.4756269454956055,-53.0,73.0,1.8101019859313965,-0.3974273204803467,0,0,0,40000
1443742,0.3992176651954651,-1.445061445236206,-64.0,53.0,1.6703319549560547,-0.17327618598937988,0,0,0,40000
1443752,0.3712654709815979,-1.4275684356689453,-60.0,38.0,1.6084156036376953,-0.0170285701751709,0,0,0,40000
1443762,0.3143504559993744,-1.408117413520813,-78.0,8.0,1.5341029167175293,0.3143172264099121,0,0,0,40000
1443772,0.2751481533050537,-1.4153465032577515,-83.0,-19.0,1.6198158264160156,0.54081130027771,0,0,0,40000
1443782,0.21810902655124664,-1.4381980895996094,-91.0,-42.0,1.79972505569458,0.8757866621017456,0,0,0,40000
1443792,0.17912128567695618,-1.453009009361267,-83.0,-23.0,1.9320363998413086,1.1038703918457031,0,0,0,40000
1443802,0.111063152551651,-1.4756168127059937,-84.0,-26.0,2.111691474914551,1.508108139038086,0,0,0,40000
1443812,0.07465407997369766,-1.4869682788848877,-65.0,-7.0,2.224278450012207,1.723903775215149,0,0,0,40000
1443822,0.031599052250385284,-1.4810210466384888,-50.0,30.0,2.233186721801758,1.9807944297790527,0,0,0,40000
1443832,0.00604534987360239,-1.4682245254516602,-55.0,26.0,2.2006144523620605,2.1336231231689453,0,0,0,40000
1443842,-0.02588263899087906,-1.420030951499939,-43.0,73.0,1.9547243118286133,2.3256044387817383,0,0,0,40000
1443852,-0.04248543083667755,-1.3858416080474854,-35.0,95.0,1.791574478149414,2.4263083934783936,0,0,0,40000
1443862,-0.05754123628139496,-1.3089576959609985,-29.0,111.0,1.370532512664795,2.5182225704193115,0,0,0,40000
1443872,-0.06622474640607834,-1.2600306272506714,4.0,122.0,1.1153631210327148,2.572248697280884,0,0,0,40000
1443882,-0.07078400254249573,-1.1514174938201904,14.0,164.0,0.4996485710144043,2.601706027984619,0,0,0,40000
1443892,-0.061904288828372955,-1.078235387802124,3.0,167.0,0.0937800407409668,2.5503664016723633,0,0,0,40000
1443902,-0.04513680562376976,-0.9676032662391663,37.0,168.0,-0.5396761894226074,2.451385498046875,0,0,0,40000
1443912,-0.02918163128197193,-0.9083659648895264,27.0,135.0,-0.8671417236328125,2.356733798980713,0,0,0,40000
1443922,-0.0018285400001332164,-0.8190445303916931,67.0,108.0,-1.3774933815002441,2.193113327026367,0,0,0,40000
1443932,0.019815567880868912,-0.7767203450202942,49.0,84.0,-1.6076312065124512,2.0628550052642822,0,0,0,40000
1443942,0.05138952285051346,-0.7280662059783936,27.0,70.0,-1.8771567344665527,1.8721508979797363,0,0,0,40000
1443952,0.07399353384971619,-0.6972626447677612,37.0,65.0,-2.040672779083252,1.7345752716064453,0,0,0,40000
1443962,0.10461404919624329,-0.6516687870025635,38.0,77.0,-2.2940945625305176,1.5481154918670654,0,0,0,40000
1443972,0.12345997244119644,-0.6253678798675537,63.0,68.0,-2.432816505432129,1.431605577468872,0,0,0,40000
1443982,0.16409872472286224,-0.5810269713401794,76.0,80.0,-2.6809048652648926,1.183339238166809,0,0,0,40000
1443992,0.19208066165447235,-0.5515320897102356,67.0,46.0,-2.840996742248535,1.010000228881836,0,0,0,40000
1444002,0.26115185022354126,-0.5304036736488342,67.0,0.0,-2.9517130851745605,0.5886074304580688,0,0,0,40000
1444012,0.2955493628978729,-0.5483112931251526,74.0,-51.0,-2.828036308288574,0.373812198638916,0,0,0,40000
1444022,0.34181714057922363,-0.5905741453170776,61.0,-91.0,-2.557354688644409,0.08649635314941406,0,0,0,40000
1444032,0.3602224886417389,-0.640713632106781,40.0,-94.0,-2.237894058227539,-0.03452444076538086,0,0,0,40000
1444042,0.3889460265636444,-0.6970527172088623,30.0,-77.0,-1.87962007522583,-0.2182447910308838,0,0,0,40000
1444052,0.39078500866889954,-0.7378432154655457,-6.0,-84.0,-1.6132311820983887,-0.24100279808044434,0,0,0,40000
1444062,0.38889700174331665,-0.7977455854415894,-6.0,-94.0,-1.2306041717529297,-0.24135661125183105,0,0,0,40000
1444072,0.38206395506858826,-0.8375937342643738,-35.0,-96.0,-0.9668874740600586,-0.21191024780273438,0,0,0,40000
1444082,0.3572830855846405,-0.8963718414306641,-21.0,-64.0,-0.5879878997802734,-0.0741581916809082,0,0,0,40000
1444092,0.3402368426322937,-0.9235037565231323,-31.0,-53.0,-0.39781856536865234,0.017696619033813477,0,0,0,40000
1444102,0.32197314500808716,-0.9591809511184692,-33.0,-57.0,-0.15543270111083984,0.11739671230316162,0,0,0,40000
1444112,0.30797576904296875,-0.9738723039627075,-39.0,-18.0,-0.03823661804199219,0.19196414947509766,0,0,0,40000
1444122,0.284777969121933,-0.977012038230896,-57.0,10.0,0.009947776794433594,0.32229089736938477,0,0,0,40000
1444132,0.25522303581237793,-0.9497808814048767,-55.0,78.0,-0.12459039688110352,0.49162960052490234,0,0,0,40000
1444142,0.21751511096954346,-0.8762242794036865,-49.0,122.0,-0.5387144088745117,0.7109196186065674,0,0,0,40000
1444152,0.1906002014875412,-0.8189460039138794,-63.0,121.0,-0.8571310043334961,0.8663671016693115,0,0,0,40000
1444162,0.14827364683151245,-0.7505723237991333,-48.0,110.0,-1.2440471649169922,1.1154018640518188,0,0,0,40000
1444172,0.12135671824216843,-0.7148913741111755,-55.0,77.0,-1.4362788200378418,1.272935390472412,0,0,0,40000
1444182,0.07787548750638962,-0.661950945854187,-64.0,64.0,-1.733459234237671,1.530954360961914,0,0,0,40000
1444192,0.044547006487846375,-0.6280307769775391,-70.0,64.0,-1.9177627563476562,1.7291862964630127,0,0,0,40000
1444202,0.007050670217722654,-0.5943772792816162,-45.0,36.0,-2.1015210151672363,1.9535346031188965,0,0,0,40000
1444212,-0.0176266860216856,-0.5798067450523376,-56.0,26.0,-2.1713552474975586,2.1018333435058594,0,0,0,40000
1444222,-0.05983159691095352,-0.5646397471427917,-73.0,18.0,-2.2452774047851562,2.3563144207000732,0,0,0,40000
1444232,-0.0887395516037941,-0.5500411987304688,-49.0,24.0,-2.3161840438842773,2.532104015350342,0,0,0,40000
1444242,-0.12080007046461105,-0.5185703635215759,-43.0,45.0,-2.489067554473877,2.7277278900146484,0,0,0,40000
1444252,-0.13785605132579803,-0.49897319078445435,-28.0,24.0,-2.591458320617676,2.834010362625122,0,0,0,40000
1444262,-0.16581174731254578,-0.5043251514434814,-33.0,-15.0,-2.544368267059326,3.0063905715942383,0,0,0,40000
1444272,-0.17253482341766357,-0.5100981593132019,-16.0,-23.0,-2.4944839477539062,3.051814317703247,0,0,0,40000
1444282,-0.16786976158618927,-0.5202462673187256,13.0,-17.0,-2.4180994033813477,3.028960704803467,0,0,0,40000
1444292,-0.16918717324733734,-0.5464014410972595,22.0,-44.0,-2.245100498199463,3.041929244995117,0,0,0,40000
1444302,-0.1540408879518509,-0.6013638973236084,34.0,-87.0,-1.8980321884155273,2.9558911323547363,0,0,0,40000
1444312,-0.13596102595329285,-0.6600544452667236,43.0,-149.0,-1.526839256286621,2.8517191410064697,0,0,0,40000
1444322,-0.10462828725576401,-0.7576610445976257,49.0,-154.0,-0.9196829795837402,2.6672565937042236,0,0,0,40000
1444332,-0.07822594791650772,-0.8255670070648193,72.0,-149.0,-0.4882988929748535,2.5115246772766113,0,0,0,40000
1444342,-0.020322710275650024,-0.9194380640983582,86.0,-149.0,0.10136842727661133,2.165435314178467,0,0,0,40000
1444352,0.01738179661333561,-0.983932375907898,66.0,-135.0,0.5170860290527344,1.9391283988952637,0,0,0,40000
1444362,0.06989310681819916,-1.0462689399719238,87.0,-79.0,0.9218807220458984,1.6226269006729126,0,0,0,40000
1444372,0.10835979133844376,-1.0762438774108887,96.0,-37.0,1.1336593627929688,1.389053225517273,0,0,0,40000
1444382,0.1699875444173813,-1.0725888013839722,80.0,28.0,1.1441326141357422,1.0148793458938599,0,0,0,40000
1444392,0.2162293791770935,-1.0415191650390625,92.0,68.0,0.9893417358398438,0.7314771413803101,0,0,0,40000
1444402,0.2745859622955322,-0.9877431988716125,85.0,86.0,0.6970119476318359,0.37379908561706543,0,0,0,40000
1444412,0.31403639912605286,-0.9400580525398254,95.0,103.0,0.4396677017211914,0.12818145751953125,0,0,0,40000
1444422,0.36039453744888306,-0.8613811731338501,57.0,121.0,-0.0055370330810546875,-0.16029095649719238,0,0,0,40000
1444432,0.38568615913391113,-0.8007447123527527,48.0,135.0,-0.34459352493286133,-0.32332026958465576,0,0,0,40000
1444442,0.42190706729888916,-0.731491208076477,48.0,65.0,-0.7375736236572266,-0.5528967380523682,0,0,0,40000
1444452,0.4376511573791504,-0.7116390466690063,32.0,40.0,-0.8351068496704102,-0.6603140830993652,0,0,0,40000
1444462,0.4505358040332794,-0.7001873850822449,16.0,6.0,-0.8827085494995117,-0.7510004043579102,0,0,0,40000
1444472,0.45949414372444153,-0.7024062275886536,11.0,-6.0,-0.8483476638793945,-0.8184301853179932,0,0,0,40000
1444482,0.4686909317970276,-0.6953045129776001,2.0,8.0,-0.8699779510498047,-0.887535810470581,0,0,0,40000
1444492,0.462896466255188,-0.6846246123313904,-29.0,6.0,-0.9134006500244141,-0.8667447566986084,0,0,0,40000
1444502,0.4283740520477295,-0.6862823367118835,-47.0,0.0,-0.8828749656677246,-0.6729308366775513,0,0,0,40000
1444512,0.40123632550239563,-0.6860840320587158,-46.0,11.0,-0.8634767532348633,-0.5224645137786865,0,0,0,40000
1444522,0.3669179677963257,-0.6644086837768555,-55.0,55.0,-0.9732518196105957,-0.3280041217803955,0,0,0,40000
1444532,0.34010541439056396,-0.6356055736541748,-66.0,78.0,-1.1266331672668457,-0.17764878273010254,0,0,0,40000
1444542,0.2991544306278229,-0.5804331302642822,-44.0,82.0,-1.4395322799682617,0.05866718292236328,0,0,0,40000
1444552,0.27520865201950073,-0.5295461416244507,-59.0,115.0,-1.7283661365509033,0.19375276565551758,0,0,0,40000
1444562,0.25107046961784363,-0.46070975065231323,-50.0,89.0,-2.126743793487549,0.3307192325592041,0,0,0,40000
1444572,0.23565097153186798,-0.4184725880622864,-42.0,57.0,-2.367137908935547,0.4159979820251465,0,0,0,40000
1444582,0.20277543365955353,-0.38654300570487976,-30.0,19.0,-2.5468618869781494,0.6068296432495117,0,0,0,40000
1444592,0.18633940815925598,-0.38316792249679565,-31.0,4.0,-2.555563449859619,0.6996725797653198,0,0,0,40000
1444602,0.16248400509357452,-0.3815326392650604,-30.0,-12.0,-2.553964853286743,0.8376891613006592,0,0,0,40000
1444612,0.15471574664115906,-0.3946000039577484,-24.0,-27.0,-2.4638819694519043,0.8795408606529236,0,0,0,40000
1444622,0.14069850742816925,-0.4127846658229828,-15.0,-26.0,-2.342578411102295,0.9593296051025391,0,0,0,40000
1444632,0.14177405834197998,-0.4243306815624237,-11.0,-20.0,-2.260716676712036,0.9486340284347534,0,0,0,40000
1444642,0.13427221775054932,-0.44600334763526917,0.0,-26.0,-2.117506980895996,0.9895565509796143,0,0,0,40000
1444652,0.12779070436954498,-0.45176011323928833,7.0,-16.0,-2.069486141204834,1.0245611667633057,0,0,0,40000
1444662,0.13330626487731934,-0.46371400356292725,10.0,-25.0,-1.984027624130249,0.987539529800415,0,0,0,40000
1444672,0.13307300209999084,-0.4751753509044647,3.0,-40.0,-1.9011623859405518,0.984948456287384,0,0,0,40000
1444682,0.136818990111351,-0.498618483543396,-3.0,-36.0,-1.745840311050415,0.9583858251571655,0,0,0,40000
1444692,0.13387025892734528,-0.5200587511062622,0.0,-44.0,-1.6018497943878174,0.9720381498336792,0,0,0,40000
1444702,0.12699101865291595,-0.5547357201576233,1.0,-52.0,-1.3775558471679688,1.009436011314392,0,0,0,40000
1444712,0.12369347363710403,-0.5821818113327026,6.0,-52.0,-1.1957261562347412,1.0254981517791748,0,0,0,40000
1444722,0.11829310655593872,-0.6252909898757935,-17.0,-92.0,-0.9189608097076416,1.054209589958191,0,0,0,40000
1444732,0.11380046606063843,-0.6721811890602112,-1.0,-89.0,-0.6180224418640137,1.0776969194412231,0,0,0,40000
1444742,0.11536980420351028,-0.7413711547851562,-1.0,-100.0,-0.18145179748535156,1.0648553371429443,0,0,0,40000
1444752,0.12350162863731384,-0.77890944480896,22.0,-108.0,0.06667757034301758,1.0124661922454834,0,0,0,40000
1444762,0.13312236964702606,-0.8513710498809814,14.0,-99.0,0.5261673927307129,0.9508395195007324,0,0,0,40000
1444772,0.1391853392124176,-0.9049692153930664,1.0,-101.0,0.8742618560791016,0.9103462100028992,0,0,0,40000
1444782,0.1616557240486145,-0.9702348709106445,42.0,-93.0,1.294222354888916,0.7709988355636597,0,0,0,40000
1444792,0.18365027010440826,-1.0089471340179443,47.0,-63.0,1.5563364028930664,0.6338012218475342,0,0,0,40000
1444802,0.22055067121982574,-1.0286667346954346,68.0,3.0,1.705420970916748,0.40627872943878174,0,0,0,40000
1444812,0.25207945704460144,-1.0206645727157593,78.0,43.0,1.6881494522094727,0.2099471092224121,0,0,0,40000
1444822,0.30775222182273865,-0.970667839050293,79.0,97.0,1.41804838180542,-0.13262462615966797,0,0,0,40000
1444832,0.33746981620788574,-0.9214625954627991,60.0,123.0,1.151073932647705,-0.320717453956604,0,0,0,40000
1444842,0.3775322735309601,-0.8312784433364868,54.0,127.0,0.6359872817993164,-0.5719645023345947,0,0,0,40000
1444852,0.4005514979362488,-0.7758656740188599,54.0,120.0,0.32280635833740234,-0.7193922996520996,0,0,0,40000
1444862,0.4423518478870392,-0.6933581829071045,61.0,91.0,-0.14592552185058594,-0.985349178314209,0,0,0,40000
1444872,0.45673057436943054,-0.6579631567001343,38.0,65.0,-0.3421022891998291,-1.0824096202850342,0,0,0,40000
1444882,0.4887638986110687,-0.6298052072525024,41.0,21.0,-0.4879934787750244,-1.2916450500488281,0,0,0,40000
1444892,0.5004627704620361,-0.6283791065216064,8.0,4.0,-0.48145246505737305,-1.3737590312957764,0,0,0,40000
1444902,0.513293981552124,-0.6422123908996582,31.0,-22.0,-0.37561988830566406,-1.4689030647277832,0,0,0,40000
1444912,0.5167237520217896,-0.6664289832115173,11.0,-61.0,-0.21462249755859375,-1.5018492937088013,0,0,0,40000
1444922,0.5098273754119873,-0.7221499681472778,-9.0,-80.0,0.14465713500976562,-1.478980302810669,0,0,0,40000
1444932,0.5060938000679016,-0.7687839269638062,0.0,-96.0,0.4423675537109375,-1.4687681198120117,0,0,0,40000
1444942,0.5106801986694336,-0.8373268246650696,9.0,-96.0,0.8825287818908691,-1.5145790576934814,0,0,0,40000
1444952,0.5125938653945923,-0.8724713325500488,-6.0,-67.0,1.1139402389526367,-1.5383598804473877,0,0,0,40000
1444962,0.5158876776695251,-0.919010579586029,-14.0,-47.0,1.4254488945007324,-1.5766438245773315,0,0,0,40000
1444972,0.516093909740448,-0.9387866258621216,10.0,-36.0,1.5664353370666504,-1.5902307033538818,0,0,0,40000
1444982,0.5172217488288879,-0.9480378031730652,3.0,-14.0,1.6558961868286133,-1.6156119108200073,0,0,0,40000
1444992,0.513199508190155,-0.9497628211975098,-24.0,9.0,1.6890535354614258,-1.6038756370544434,0,0,0,40000
1445002,0.5033646821975708,-0.9427905082702637,-2.0,1.0,1.6812176704406738,-1.5630651712417603,0,0,0,40000
1445012,0.5050172805786133,-0.9397578239440918,4.0,10.0,1.6856193542480469,-1.5850622653961182,0,0,0,40000
1445022,0.5025674104690552,-0.9802947640419006,-16.0,-58.0,1.9633183479309082,-1.5885756015777588,0,0,0,40000
1445032,0.494356244802475,-0.9899616241455078,-20.0,-5.0,2.045003890991211,-1.5512659549713135,0,0,0,40000
1445042,0.4840942621231079,-0.9933230876922607,-16.0,3.0,2.100888252258301,-1.5073469877243042,0,0,0,40000
1445052,0.4817095994949341,-1.0036441087722778,-16.0,-22.0,2.1867759227752686,-1.5046478509902954,0,0,0,40000
1445062,0.467415988445282,-1.0141206979751587,-5.0,-52.0,2.2799108028411865,-1.4330461025238037,0,0,0,40000
1445072,0.45706066489219666,-1.041444182395935,-2.0,-43.0,2.4747772216796875,-1.3847278356552124,0,0,0,40000
1445082,0.4590640664100647,-1.058508276939392,-7.0,-42.0,2.608721971511841,-1.4105069637298584,0,0,0,40000
1445092,0.4562695324420929,-1.092873454093933,-28.0,-44.0,2.8472824096679688,-1.4075157642364502,0,0,0,40000
1445102,0.4500902593135834,-1.1172614097595215,-31.0,-50.0,3.0268306732177734,-1.3840224742889404,0,0,0,40000
1445112,0.4225211441516876,-1.1603007316589355,-51.0,-59.0,3.319373607635498,-1.2316428422927856,0,0,0,40000
1445122,0.39968982338905334,-1.184053659439087,-51.0,-34.0,3.4971349239349365,-1.106917381286621,0,0,0,40000
1445132,0.3629809319972992,-1.195367693901062,-34.0,16.0,3.600893020629883,-0.8979198932647705,0,0,0,40000
1445142,0.3498411178588867,-1.1611021757125854,-22.0,97.0,3.43058443069458,-0.8297252655029297,0,0,0,40000
1445152,0.3321603238582611,-1.0861506462097168,-47.0,101.0,3.014404296875,-0.7338767051696777,0,0,0,40000
1445162,0.3167746961116791,-1.0411945581436157,-57.0,92.0,2.7764134407043457,-0.651261568069458,0,0,0,40000
1445172,0.2756667137145996,-0.9925594329833984,-72.0,75.0,2.5149357318878174,-0.41340959072113037,0,0,0,40000
1445182,0.2484583705663681,-0.9533120393753052,-56.0,58.0,2.308483839035034,-0.25792360305786133,0,0,0,40000
1445192,0.20500414073467255,-0.9336119890213013,-54.0,20.0,2.2184457778930664,-0.0038604736328125,0,0,0,40000
1445202,0.18195587396621704,-0.9249171018600464,-33.0,17.0,2.194133996963501,0.1287139654159546,0,0,0,40000
1445212,0.1527749001979828,-0.9149850010871887,-57.0,19.0,2.162123203277588,0.2988395094871521,0,0,0,40000
1445222,0.1373053789138794,-0.8975697755813599,-38.0,37.0,2.0847575664520264,0.38735389709472656,0,0,0,40000
1445232,0.1087467148900032,-0.8750293850898743,-30.0,21.0,1.9760165214538574,0.5551362633705139,0,0,0,40000
1445242,0.09074084460735321,-0.8660078644752502,-23.0,10.0,1.947953701019287,0.6602455377578735,0,0,0,40000
1445252,0.0652846023440361,-0.8701851963996887,-31.0,7.0,1.9990882873535156,0.8107085824012756,0,0,0,40000
1445262,0.05119207128882408,-0.8655365109443665,-41.0,4.0,1.9972255229949951,0.8935484886169434,0,0,0,40000
1445272,0.03219786286354065,-0.8522155284881592,-25.0,41.0,1.9431266784667969,1.0063469409942627,0,0,0,40000
1445282,0.017945952713489532,-0.833376407623291,-3.0,37.0,1.8553104400634766,1.0911751985549927,0,0,0,40000
1445292,0.004909442272037268,-0.8133865594863892,-15.0,24.0,1.760023593902588,1.1690382957458496,0,0,0,40000
1445302,-0.0035051009617745876,-0.809353768825531,-11.0,-32.0,1.7601308822631836,1.2194983959197998,0,0,0,40000
1445312,-0.007833783514797688,-0.8530545830726624,-17.0,-80.0,2.0473499298095703,1.2456107139587402,0,0,0,40000
1445322,-0.009022470563650131,-0.8976230025291443,-25.0,-99.0,2.3411030769348145,1.2529935836791992,0,0,0,40000
1445332,-0.014233571477234364,-0.9630948305130005,0.0,-103.0,2.7620768547058105,1.2846930027008057,0,0,0,40000
1445342,-0.02794899418950081,-1.008989930152893,-5.0,-86.0,3.0671699047088623,1.3676695823669434,0,0,0,40000
1445352,-0.03707883507013321,-1.0669689178466797,-14.0,-65.0,3.446432113647461,1.4234102964401245,0,0,0,40000
1445362,-0.03874383494257927,-1.1023328304290771,-2.0,-71.0,3.691232442855835,1.4345468282699585,0,0,0,40000
1445372,-0.02552696317434311,-1.1324635744094849,14.0,-2.0,3.9058353900909424,1.3562088012695312,0,0,0,40000
1445382,-0.023073196411132812,-1.1320688724517822,8.0,3.0,3.9374334812164307,1.3422060012817383,0,0,0,40000
1445392,0.0014159829588606954,-1.1085209846496582,65.0,77.0,3.8298676013946533,1.1956902742385864,0,0,0,40000
1445402,0.020684178918600082,-1.0687990188598633,48.0,71.0,3.489982843399048,121.19961547851562,19.999987544750606,0.022320614252745175,0,40000
1445412,0.05409632623195648,-1.0033624172210693,69.0,127.0,3.1277403831481934,121.59796905517578,19.95753175281329,1.3026612512274003,0,40000
1445422,0.09381430596113205,-0.9326476454734802,137.0,194.0,-4.988821029663086,121.70135498046875,19.832237466030953,2.5850255493820806,0,40000
1445432,0.2070787250995636,-0.8114449977874756,210.0,162.0,-21.092838287353516,119.61469268798828,19.624851125868002,3.855543838100856,0,40000
1445442,0.3217709958553314,-0.7495918869972229,316.0,121.0,-21.556407928466797,119.507080078125,19.284896596304286,5.300260679424307,0,40000
1445452,0.5920473337173462,-0.6826958060264587,477.0,72.0,-30.75520896911621,116.4121322631836,18.90217323529496,6.535124098507911,0,40000
1445462,0.8387462496757507,-0.6752262115478516,626.0,-16.0,-38.384971618652344,113.18053436279297,18.44242840360209,7.738012314413237,0,40000
1445472,1.3345223665237427,-0.7370353937149048,809.0,-167.0,-45.435340881347656,107.96975708007812,17.906465842190798,8.908337726111089,0,40000
1445482,1.744860053062439,-0.8492696285247803,997.0,-307.0,-52.02709197998047,102.7818603515625,17.295366620696843,10.043420406200543,0,40000
1445492,2.486900806427002,-1.106310248374939,1161.0,-474.0,-57.560054779052734,95.12016296386719,16.61267834915535,11.136378139570564,0,40000
1445502,3.0617523193359375,-1.3635927438735962,1354.0,-675.0,-62.86392593383789,87.99253845214844,15.851416963205534,12.19559675696929,0,40000
1445512,4.038262844085693,-1.9039151668548584,1462.0,-887.0,-66.28666687011719,77.9367904663086,15.03202119123979,13.192359110717,0,40000
1445522,4.748316764831543,-2.353482723236084,1617.0,-1101.0,-69.89453887939453,69.08212280273438,14.152914837786025,14.131348187429824,0,40000
1445532,5.906899929046631,-3.1558706760406494,1734.0,-1249.0,-71.04771423339844,57.122798919677734,13.218685350915962,15.008875960360248,0,40000
1445542,6.718712329864502,-3.755784511566162,1796.0,-1392.0,-73.04773712158203,46.86251449584961,12.209934267291043,15.840375790631736,0,40000
1445552,7.978682041168213,-4.724417686462402,1817.0,-1458.0,-72.56019592285156,33.404422760009766,11.141330010243834,16.60935777213677,0,40000
1445562,8.837677001953125,-5.384882926940918,1825.0,-1509.0,-73.54676055908203,21.931068420410156,10.04927525217117,17.291965385869243,0,40000
1445572,10.11078929901123,-6.394481182098389,1789.0,-1528.0,-71.91571807861328,7.766565322875977,8.91590140876559,17.902700971338703,0,40000
1445582,10.932579040527344,-7.043284893035889,1692.0,-1459.0,-72.01349639892578,-4.001516342163086,7.747266477178382,18.438542841873055,0,40000
1445592,12.099455833435059,-7.959284782409668,1566.0,-1370.0,-70.05123901367188,-18.117382049560547,7.747266477178382,18.438542841873055,0,40000
1445602,12.814083099365234,-8.531778335571289,1417.0,-1274.0,-69.73377227783203,-29.91165542602539,6.52255035570981,18.906515724935407,0,40000
1445612,13.760531425476074,-9.32142162322998,1208.0,-1180.0,-67.63795471191406,-43.402164459228516,5.257491498325821,19.296600300183236,0,40000
1445622,14.30671215057373,-9.808197975158691,962.0,-1105.0,-66.83790588378906,-54.656253814697266,3.973449955963998,19.601318717051914,0,40000
1445632,14.983863830566406,-10.4952392578125,774.0,-1059.0,-64.28793334960938,-66.65921783447266,2.7063980438244952,19.81603920132333,0,40000
1445642,15.303279876708984,-10.91773796081543,507.0,-963.0,-62.824623107910156,-76.64850616455078,1.4245858063313737,19.949199364395533,0,40000
1445652,15.597705841064453,-11.527831077575684,263.0,-958.0,-59.72650909423828,-86.58547973632812,0.13452191023868587,19.9995475912748,0,40000
1445662,15.674776077270508,-11.929052352905273,-123.0,-923.0,-57.37009811401367,-95.22811889648438,-1.1499708388888699,19.966911806028122,0,40000
1445672,15.548264503479004,-12.546229362487793,-356.0,-885.0,-53.20526123046875,-102.66481018066406,-2.4308174478560978,19.851728552828803,0,40000
1445682,15.318328857421875,-12.942880630493164,-669.0,-885.0,-49.83280563354492,-109.55804443359375,-3.7191012687299936,19.651164997346363,0,40000
1445692,14.762282371520996,-13.548019409179688,-934.0,-870.0,-44.71083450317383,-114.33024597167969,-4.975621293823807,19.37119492288607,0,40000
1445702,14.257341384887695,-13.960057258605957,-1251.0,-865.0,-40.168174743652344,-119.53306579589844,-6.2492209069889935,18.99861147704357,0,40000
1445712,13.30816650390625,-14.600435256958008,-1480.0,-890.0,-33.80386734008789,-121.72675323486328,-7.46299424797506,18.55542284224995,0,40000
1445722,12.550975799560547,-15.033273696899414,-1701.0,-863.0,-31.317665100097656,-117.79322814941406,-8.63715874760428,18.03883279951014,0,40000
1445732,11.243160247802734,-15.673821449279785,-1877.0,-811.0,-24.453350067138672,-117.6038589477539,-9.788648606096917,17.440824477826638,0,40000
1445742,10.263481140136719,-16.082698822021484,-2090.0,-760.0,-18.457632064819336,-119.2481689453125,-10.911898644614247,16.760980519339128,0,40000
1445752,8.648798942565918,-16.640567779541016,-2218.0,-663.0,-11.041484832763672,-116.90624237060547,-11.982461265317724,16.013139043459294,0,40000
1445762,7.4903411865234375,-16.956350326538086,-2418.0,-533.0,-4.635185241699219,-116.97711181640625,-12.986746400021904,15.210010451722841,0,40000
1445772,5.651175498962402,-17.32544708251953,-2529.0,-363.0,2.4576311111450195,-112.54942321777344,-13.93654912276235,14.344776002044506,0,40000
1445782,4.3691840171813965,-17.496097564697266,-2587.0,-238.0,8.765514373779297,-111.12086486816406,-14.825680499054524,13.423829473736413,0,40000
