timestamp,motor.m1,motor.m2,motor.m3,motor.m4,roll,pitch,yawdot,thrust
1071296,7243.0,39991.0,65535.0,39991.0,0,0,0,40000
1071306,7328.0,39906.0,65535.0,39906.0,0,0,0,40000
1071316,7504.0,39730.0,65535.0,39730.0,0,0,0,40000
1071326,7581.0,39653.0,65535.0,39653.0,0,0,0,40000
1071336,7682.0,39552.0,65535.0,39552.0,0,0,0,40000
1071346,7871.0,39363.0,65535.0,39363.0,0,0,0,40000
1071356,7656.0,39578.0,65535.0,39578.0,0,0,0,40000
1071366,7594.0,39640.0,65535.0,39640.0,0,0,0,40000
1071376,7398.0,39836.0,65535.0,39836.0,0,0,0,40000
1071386,7238.0,39996.0,65535.0,39996.0,0,0,0,40000
1071396,7074.0,40160.0,65535.0,40160.0,0,0,0,40000
1071406,6457.0,40777.0,65535.0,40777.0,0,0,0,40000
1071416,9380.0,37854.0,65535.0,44490.0,0,0,0,40000
1071426,11560.0,35674.0,65082.0,47684.0,0,0,0,40000
1071436,25300.0,21934.0,49906.0,62860.0,0,0,0,40000
1071446,29342.0,17892.0,44028.0,65535.0,0,0,0,40000
1071456,35693.0,11541.0,35693.0,65535.0,0,0,0,40000
1071466,35166.0,12068.0,35166.0,65535.0,0,0,0,40000
1071476,40566.0,18356.0,28878.0,65535.0,0,0,0,40000
1071486,40632.0,20170.0,27064.0,65535.0,0,0,0,40000
1071496,46393.0,26229.0,21005.0,65535.0,0,0,0,40000
1071506,46088.0,26024.0,21210.0,65535.0,0,0,0,40000
1071516,54204.0,32494.0,14740.0,58562.0,0,0,0,40000
1071526,54159.0,32873.0,16309.0,56659.0,0,0,0,40000
1071536,56722.0,40440.0,13948.0,48890.0,0,0,0,40000
1071546,45135.0,51605.0,27771.0,35489.0,0,0,0,40000
1071556,43332.0,61116.0,30582.0,24970.0,0,0,0,40000
1071566,35066.0,65535.0,40438.0,15686.0,0,0,0,40000
1071576,35353.0,65535.0,39629.0,11881.0,0,0,0,40000
1071586,33497.0,65535.0,41211.0,13737.0,0,0,0,40000
1071596,37431.0,65535.0,37879.0,9803.0,0,0,0,40000
1071606,36998.0,65535.0,37840.0,10236.0,0,0,0,40000
1071616,36916.0,65535.0,36916.0,10318.0,0,0,0,40000
1071626,35158.0,65535.0,39428.0,12076.0,0,0,0,40000
1071636,36286.0,65535.0,38066.0,10948.0,0,0,0,40000
1071646,33370.0,65535.0,41426.0,13864.0,0,0,0,40000
1071656,34411.0,65535.0,40247.0,12823.0,0,0,0,40000
1071666,32892.0,65535.0,42966.0,14342.0,0,0,0,40000
1071676,32873.0,65535.0,43621.0,14361.0,0,0,0,40000
1071686,32319.0,65535.0,45221.0,14915.0,0,0,0,40000
1071696,29329.0,64259.0,48507.0,17905.0,0,0,0,40000
1071706,32935.0,56635.0,46625.0,23805.0,0,0,0,40000
1071716,39670.0,47042.0,40078.0,33210.0,0,0,0,40000
1071726,46009.0,42041.0,35193.0,36757.0,0,0,0,40000
1071736,49441.0,32771.0,31437.0,46351.0,0,0,0,40000
1071746,47459.0,30113.0,34273.0,48155.0,0,0,0,40000
1071756,47855.0,20807.0,33195.0,58143.0,0,0,0,40000
1071766,44198.0,24326.0,36180.0,55296.0,0,0,0,40000
1071776,44023.0,18791.0,35769.0,61417.0,0,0,0,40000
1071786,38678.0,26038.0,40980.0,54304.0,0,0,0,40000
1071796,34447.0,23231.0,44877.0,57445.0,0,0,0,40000
1071806,27815.0,28907.0,50137.0,53141.0,0,0,0,40000
1071816,22692.0,27736.0,55024.0,54548.0,0,0,0,40000
1071826,20300.0,34606.0,56978.0,48116.0,0,0,0,40000
1071836,16479.0,36109.0,61739.0,45673.0,0,0,0,40000
1071846,14290.0,41284.0,62652.0,41774.0,0,0,0,40000
1071856,12089.0,37831.0,65535.0,43311.0,0,0,0,40000
1071866,14454.0,39790.0,63000.0,42756.0,0,0,0,40000
1071876,13810.0,40082.0,65300.0,40808.0,0,0,0,40000
1071886,18677.0,40005.0,59321.0,41997.0,0,0,0,40000
1071896,18365.0,37515.0,60871.0,43249.0,0,0,0,40000
1071906,22472.0,37090.0,56476.0,43962.0,0,0,0,40000
1071916,27334.0,34400.0,51960.0,46306.0,0,0,0,40000
1071926,30242.0,36230.0,49282.0,44246.0,0,0,0,40000
1071936,33763.0,35483.0,45055.0,45699.0,0,0,0,40000
1071946,36874.0,35104.0,42970.0,45052.0,0,0,0,40000
1071956,37491.0,34569.0,41569.0,46371.0,0,0,0,40000
1071966,39925.0,35883.0,41173.0,43019.0,0,0,0,40000
1071976,41445.0,39025.0,39083.0,40447.0,0,0,0,40000
1071986,41179.0,40637.0,40807.0,37377.0,0,0,0,40000
1071996,40409.0,43501.0,39779.0,36311.0,0,0,0,40000
1072006,39565.0,43683.0,42261.0,34491.0,0,0,0,40000
1072016,39696.0,47330.0,41998.0,30976.0,0,0,0,40000
1072026,39808.0,47330.0,42614.0,30248.0,0,0,0,40000
1072036,38391.0,51159.0,43055.0,27395.0,0,0,0,40000
1072046,38227.0,50941.0,43959.0,26873.0,0,0,0,40000
1072056,37878.0,52346.0,43506.0,26270.0,0,0,0,40000
1072066,37175.0,50249.0,44585.0,27991.0,0,0,0,40000
1072076,37928.0,51562.0,43130.0,27380.0,0,0,0,40000
1072086,38304.0,50146.0,42978.0,28572.0,0,0,0,40000
1072096,39709.0,48557.0,41541.0,30193.0,0,0,0,40000
1072106,39607.0,46177.0,41479.0,32737.0,0,0,0,40000
1072116,40648.0,45096.0,39022.0,35234.0,0,0,0,40000
1072126,39803.0,43487.0,40523.0,36187.0,0,0,0,40000
1072136,40116.0,42492.0,39616.0,37776.0,0,0,0,40000
1072146,39203.0,41265.0,40615.0,38917.0,0,0,0,40000
1072156,38684.0,40546.0,40792.0,39978.0,0,0,0,40000
1072166,37146.0,41106.0,41778.0,39970.0,0,0,0,40000
1072176,35138.0,39698.0,43702.0,41462.0,0,0,0,40000
1072186,34021.0,40985.0,44719.0,40275.0,0,0,0,40000
1072196,32358.0,39516.0,45644.0,42482.0,0,0,0,40000
1072206,31333.0,40689.0,47545.0,40433.0,0,0,0,40000
1072216,30406.0,40618.0,47718.0,41258.0,0,0,0,40000
1072226,30669.0,40197.0,47889.0,41245.0,0,0,0,40000
1072236,29831.0,39753.0,47899.0,42517.0,0,0,0,40000
1072246,30331.0,38099.0,48083.0,43487.0,0,0,0,40000
1072256,28809.0,39223.0,49257.0,42711.0,0,0,0,40000
1072266,29970.0,38640.0,48712.0,42678.0,0,0,0,40000
1072276,30201.0,38739.0,48351.0,42709.0,0,0,0,40000
1072286,31017.0,39047.0,47859.0,42077.0,0,0,0,40000
1072296,28965.0,39673.0,48929.0,42433.0,0,0,0,40000
1072306,31675.0,39445.0,46865.0,42015.0,0,0,0,40000
1072316,30981.0,38847.0,48455.0,41717.0,0,0,0,40000
1072326,31796.0,39986.0,47762.0,40456.0,0,0,0,40000
1072336,32546.0,38774.0,46766.0,41914.0,0,0,0,40000
1072346,32663.0,39645.0,46663.0,41029.0,0,0,0,40000
1072356,33065.0,39401.0,46239.0,41295.0,0,0,0,40000
1072366,34505.0,40251.0,44989.0,40255.0,0,0,0,40000
1072376,33525.0,41631.0,45959.0,38885.0,0,0,0,40000
1072386,33714.0,41616.0,46374.0,38296.0,0,0,0,40000
1072396,35285.0,41849.0,45641.0,37225.0,0,0,0,40000
1072406,34154.0,42362.0,45798.0,37686.0,0,0,0,40000
1072416,34067.0,43995.0,45305.0,36633.0,0,0,0,40000
1072426,35320.0,43118.0,44816.0,36746.0,0,0,0,40000
1072436,34308.0,43516.0,46006.0,36170.0,0,0,0,40000
1072446,35189.0,42989.0,45409.0,36413.0,0,0,0,40000
1072456,36216.0,43980.0,43740.0,36064.0,0,0,0,40000
1072466,37461.0,42949.0,43417.0,36173.0,0,0,0,40000
1072476,35765.0,44557.0,44337.0,35341.0,0,0,0,40000
1072486,36686.0,43132.0,43524.0,36658.0,0,0,0,40000
1072496,36774.0,44360.0,42874.0,35992.0,0,0,0,40000
1072506,37245.0,43071.0,43275.0,36409.0,0,0,0,40000
1072516,37050.0,42646.0,43348.0,36956.0,0,0,0,40000
1072526,36639.0,43121.0,43575.0,36665.0,0,0,0,40000
1072536,35642.0,43840.0,43862.0,36656.0,0,0,0,40000
1072546,35943.0,42739.0,43867.0,37451.0,0,0,0,40000
1072556,35471.0,42755.0,44081.0,37693.0,0,0,0,40000
1072566,36081.0,41093.0,43839.0,38987.0,0,0,0,40000
1072576,34983.0,42339.0,44903.0,37775.0,0,0,0,40000
1072586,34934.0,41458.0,44816.0,38792.0,0,0,0,40000
1072596,34663.0,41475.0,45491.0,38371.0,0,0,0,40000
1072606,33366.0,42322.0,45266.0,39046.0,0,0,0,40000
1072616,33511.0,41279.0,46151.0,39059.0,0,0,0,40000
1072626,32457.0,41551.0,46199.0,39793.0,0,0,0,40000
1072636,32941.0,41029.0,47379.0,38651.0,0,0,0,40000
1072646,32625.0,41273.0,46251.0,39851.0,0,0,0,40000
1072656,33383.0,40827.0,46625.0,39165.0,0,0,0,40000
1072666,32197.0,40853.0,46863.0,40087.0,0,0,0,40000
1072676,32574.0,40468.0,46608.0,40350.0,0,0,0,40000
1072686,33195.0,39889.0,46167.0,40749.0,0,0,0,40000
1072696,33095.0,40831.0,46513.0,39561.0,0,0,0,40000
1072706,34404.0,41328.0,45446.0,38822.0,0,0,0,40000
1072716,33643.0,41171.0,45285.0,39901.0,0,0,0,40000
1072726,33910.0,40126.0,45674.0,40290.0,0,0,0,40000
1072736,32404.0,42264.0,46294.0,39038.0,0,0,0,40000
1072746,33007.0,41107.0,47461.0,38425.0,0,0,0,40000
1072756,33022.0,41550.0,46056.0,39372.0,0,0,0,40000
1072766,35050.0,41138.0,45134.0,38678.0,0,0,0,40000
1072776,32977.0,42423.0,46457.0,38143.0,0,0,0,40000
1072786,32361.0,41845.0,47315.0,38479.0,0,0,0,40000
1072796,32960.0,41398.0,46426.0,39216.0,0,0,0,40000
1072806,33342.0,43246.0,46198.0,37214.0,0,0,0,40000
1072816,33789.0,43157.0,46245.0,36809.0,0,0,0,40000
1072826,34522.0,42676.0,45258.0,37544.0,0,0,0,40000
1072836,34202.0,42654.0,45736.0,37408.0,0,0,0,40000
1072846,35107.0,42237.0,44377.0,38279.0,0,0,0,40000
1072856,35321.0,42091.0,44969.0,37619.0,0,0,0,40000
1072866,35649.0,42441.0,44031.0,37879.0,0,0,0,40000
1072876,35561.0,41745.0,44395.0,38299.0,0,0,0,40000
1072886,35092.0,42624.0,45106.0,37178.0,0,0,0,40000
1072896,35254.0,42446.0,44574.0,37726.0,0,0,0,40000
1072906,35741.0,42579.0,44093.0,37587.0,0,0,0,40000
1072916,35505.0,43075.0,44107.0,37313.0,0,0,0,40000
1072926,36081.0,42557.0,43811.0,37551.0,0,0,0,40000
1072936,34784.0,42474.0,45280.0,37462.0,0,0,0,40000
1072946,35015.0,42639.0,45001.0,37345.0,0,0,0,40000
1072956,35365.0,42719.0,44293.0,37623.0,0,0,0,40000
1072966,35936.0,42316.0,43612.0,38136.0,0,0,0,40000
1072976,34913.0,42183.0,44583.0,38321.0,0,0,0,40000
1072986,35684.0,41266.0,44222.0,38828.0,0,0,0,40000
1072996,34817.0,41625.0,44977.0,38581.0,0,0,0,40000
1073006,35572.0,41034.0,44384.0,39010.0,0,0,0,40000
1073016,34862.0,41350.0,44852.0,38936.0,0,0,0,40000
1073026,34724.0,40790.0,44498.0,39988.0,0,0,0,40000
1073036,35069.0,41089.0,44623.0,39219.0,0,0,0,40000
1073046,34569.0,41931.0,44567.0,38933.0,0,0,0,40000
1073056,34155.0,40873.0,45887.0,39085.0,0,0,0,40000
1073066,33143.0,42329.0,46473.0,38055.0,0,0,0,40000
1073076,33973.0,41353.0,46233.0,38441.0,0,0,0,40000
1073086,33583.0,42167.0,45495.0,38755.0,0,0,0,40000
1073096,34116.0,41568.0,45524.0,38792.0,0,0,0,40000
1073106,33155.0,43067.0,46363.0,37415.0,0,0,0,40000
1073116,34992.0,40888.0,44864.0,39256.0,0,0,0,40000
1073126,34086.0,41090.0,45912.0,38912.0,0,0,0,40000
1073136,34953.0,41683.0,44607.0,38757.0,0,0,0,40000
1073146,34776.0,41138.0,44774.0,39312.0,0,0,0,40000
1073156,34996.0,41196.0,44850.0,38958.0,0,0,0,40000
1073166,34832.0,40586.0,44948.0,39634.0,0,0,0,40000
1073176,34541.0,41049.0,44455.0,39955.0,0,0,0,40000
1073186,35335.0,41245.0,44931.0,38489.0,0,0,0,40000
1073196,34474.0,41552.0,45446.0,38528.0,0,0,0,40000
1073206,34386.0,40988.0,45008.0,39618.0,0,0,0,40000
1073216,34990.0,41516.0,44414.0,39080.0,0,0,0,40000
1073226,35344.0,40728.0,44116.0,39812.0,0,0,0,40000
1073236,34402.0,42230.0,45860.0,37508.0,0,0,0,40000
1073246,34228.0,42640.0,45082.0,38050.0,0,0,0,40000
1073256,34667.0,41925.0,45429.0,37979.0,0,0,0,40000
1073266,35341.0,41563.0,43989.0,39107.0,0,0,0,40000
1073276,35398.0,41242.0,44788.0,38572.0,0,0,0,40000
1073286,35072.0,41158.0,44410.0,39360.0,0,0,0,40000
1073296,35007.0,41263.0,44845.0,38885.0,0,0,0,40000
1073306,35554.0,41168.0,44274.0,39004.0,0,0,0,40000
1073316,36522.0,41190.0,43340.0,38948.0,0,0,0,40000
1073326,34401.0,42121.0,45021.0,38457.0,0,0,0,40000
1073336,35398.0,41146.0,43972.0,39484.0,0,0,0,40000
1073346,34314.0,42054.0,45760.0,37872.0,0,0,0,40000
1073356,34250.0,41138.0,45338.0,39274.0,0,0,0,40000
1073366,34378.0,41528.0,45950.0,38144.0,0,0,0,40000
1073376,34094.0,42356.0,45306.0,38244.0,0,0,0,40000
1073386,35165.0,43137.0,44741.0,36957.0,0,0,0,40000
1073396,33714.0,40582.0,45922.0,39782.0,0,0,0,40000
1073406,35784.0,42850.0,44076.0,37290.0,0,0,0,40000
1073416,34874.0,42824.0,44984.0,37318.0,0,0,0,40000
1073426,34132.0,43148.0,45200.0,37520.0,0,0,0,40000
1073436,34475.0,42245.0,45435.0,37845.0,0,0,0,40000
1073446,34478.0,42770.0,45122.0,37630.0,0,0,0,40000
1073456,34484.0,40644.0,45434.0,39438.0,0,0,0,40000
1073466,34875.0,41887.0,44737.0,38501.0,0,0,0,40000
1073476,35082.0,41480.0,44734.0,38704.0,0,0,0,40000
1073486,35482.0,40416.0,44620.0,39482.0,0,0,0,40000
1073496,35017.0,42289.0,44093.0,38601.0,0,0,0,40000
1073506,35719.0,40801.0,44337.0,39143.0,0,0,0,40000
1073516,34621.0,41161.0,44789.0,39429.0,0,0,0,40000
1073526,34236.0,41338.0,45734.0,38692.0,0,0,0,40000
1073536,35146.0,42284.0,44378.0,38192.0,0,0,0,40000
1073546,34966.0,42296.0,45320.0,37418.0,0,0,0,40000
1073556,32245.0,42719.0,46493.0,38543.0,0,0,0,40000
1073566,33030.0,42242.0,47282.0,37446.0,0,0,0,40000
1073576,33352.0,43206.0,45654.0,37788.0,0,0,0,40000
1073586,34332.0,41430.0,46084.0,38154.0,0,0,0,40000
1073596,34359.0,42805.0,44895.0,37941.0,0,0,0,40000
1073606,33030.0,42290.0,47270.0,37410.0,0,0,0,40000
1073616,33695.0,42875.0,45541.0,37889.0,0,0,0,40000
1073626,36126.0,41016.0,43902.0,38956.0,0,0,0,40000
1073636,34151.0,41249.0,44835.0,39765.0,0,0,0,40000
1073646,35337.0,41009.0,45083.0,38571.0,0,0,0,40000
1073656,35506.0,41218.0,43866.0,39410.0,0,0,0,40000
1073666,36488.0,39874.0,43414.0,40224.0,0,0,0,40000
1073676,35803.0,40743.0,43517.0,39937.0,0,0,0,40000
1073686,35800.0,41092.0,44594.0,38514.0,0,0,0,40000
1073696,34845.0,41433.0,44365.0,39357.0,0,0,0,40000
1073706,34769.0,41101.0,45201.0,38929.0,0,0,0,40000
1073716,34026.0,41126.0,45298.0,39550.0,0,0,0,40000
1073726,33670.0,40874.0,46518.0,38938.0,0,0,0,40000
1073736,34697.0,41363.0,44797.0,39143.0,0,0,0,40000
1073746,34875.0,41219.0,45135.0,38771.0,0,0,0,40000
1073756,34325.0,42933.0,45075.0,37667.0,0,0,0,40000
1073766,33580.0,42482.0,46300.0,37638.0,0,0,0,40000
1073776,34145.0,42501.0,45617.0,37737.0,0,0,0,40000
1073786,33517.0,41447.0,46315.0,38721.0,0,0,0,40000
1073796,33785.0,42547.0,45581.0,38087.0,0,0,0,40000
1073806,35145.0,42811.0,44971.0,37073.0,0,0,0,40000
1073816,33964.0,43212.0,45650.0,37174.0,0,0,0,40000
1073826,33756.0,42594.0,46458.0,37192.0,0,0,0,40000
1073836,32522.0,41894.0,46600.0,38984.0,0,0,0,40000
1073846,34530.0,42924.0,45642.0,36904.0,0,0,0,40000
1073856,34450.0,43554.0,44554.0,37442.0,0,0,0,40000
1073866,33701.0,42139.0,46771.0,37389.0,0,0,0,40000
1073876,34783.0,42025.0,44397.0,38795.0,0,0,0,40000
1073886,35547.0,41209.0,44893.0,38351.0,0,0,0,40000
1073896,35758.0,41420.0,43870.0,38952.0,0,0,0,40000
1073906,36690.0,41582.0,43716.0,38012.0,0,0,0,40000
1073916,36062.0,42138.0,42728.0,39072.0,0,0,0,40000
1073926,36834.0,40738.0,43280.0,39148.0,0,0,0,40000
1073936,35814.0,41142.0,43504.0,39540.0,0,0,0,40000
1073946,36692.0,40796.0,44080.0,38432.0,0,0,0,40000
1073956,33878.0,41634.0,45350.0,39138.0,0,0,0,40000
1073966,36254.0,41214.0,43962.0,38570.0,0,0,0,40000
1073976,34841.0,42271.0,44221.0,38667.0,0,0,0,40000
1073986,35756.0,42218.0,44182.0,37844.0,0,0,0,40000
1073996,34788.0,42624.0,44210.0,38378.0,0,0,0,40000
1074006,35143.0,41343.0,45525.0,37989.0,0,0,0,40000
1074016,33767.0,42817.0,45339.0,38077.0,0,0,0,40000
1074026,34471.0,42067.0,45987.0,37475.0,0,0,0,40000
1074036,33762.0,43870.0,45668.0,36700.0,0,0,0,40000
1074046,33486.0,43320.0,46214.0,36980.0,0,0,0,40000
1074056,33331.0,43857.0,46067.0,36745.0,0,0,0,40000
1074066,32450.0,43648.0,47546.0,36356.0,0,0,0,40000
1074076,33091.0,43055.0,46663.0,37191.0,0,0,0,40000
1074086,33596.0,43138.0,46502.0,36764.0,0,0,0,40000
1074096,34976.0,43160.0,44562.0,37302.0,0,0,0,40000
1074106,35058.0,42216.0,44582.0,38144.0,0,0,0,40000
1074116,35260.0,42238.0,44454.0,38048.0,0,0,0,40000
1074126,35697.0,41259.0,43859.0,39185.0,0,0,0,40000
1074136,35644.0,41508.0,44408.0,38440.0,0,0,0,40000
1074146,35814.0,41040.0,43764.0,39382.0,0,0,0,40000
1074156,35606.0,41046.0,44382.0,38966.0,0,0,0,40000
1074166,35518.0,41446.0,43780.0,39256.0,0,0,0,40000
1074176,35321.0,41481.0,44609.0,38589.0,0,0,0,40000
1074186,34674.0,41854.0,44614.0,38858.0,0,0,0,40000
1074196,35370.0,41034.0,44850.0,38746.0,0,0,0,40000
1074206,34844.0,42952.0,44738.0,37466.0,0,0,0,40000
1074216,35293.0,42657.0,44909.0,37141.0,0,0,0,40000
1074226,34454.0,43136.0,44866.0,37544.0,0,0,0,40000
1074236,34842.0,42580.0,44958.0,37620.0,0,0,0,40000
1074246,34684.0,42522.0,44896.0,37898.0,0,0,0,40000
1074256,34856.0,41966.0,45160.0,38018.0,0,0,0,40000
1074266,34734.0,42578.0,45118.0,37570.0,0,0,0,40000
1074276,34683.0,42581.0,45055.0,37681.0,0,0,0,40000
1074286,35873.0,42409.0,43633.0,38085.0,0,0,0,40000
1074296,35842.0,41670.0,43680.0,38808.0,0,0,0,40000
1074306,36437.0,41445.0,43155.0,38963.0,0,0,0,40000
1074316,35956.0,39818.0,44218.0,40008.0,0,0,0,40000
1074326,36528.0,40996.0,43440.0,39036.0,0,0,0,40000
1074336,35584.0,42274.0,44344.0,37798.0,0,0,0,40000
1074346,35586.0,41950.0,43508.0,38956.0,0,0,0,40000
1074356,35649.0,42513.0,44061.0,37777.0,0,0,0,40000
1074366,35702.0,40894.0,43932.0,39472.0,0,0,0,40000
1074376,36051.0,40505.0,44391.0,39053.0,0,0,0,40000
1074386,35970.0,42670.0,43504.0,37856.0,0,0,0,40000
1074396,34613.0,42615.0,45197.0,37575.0,0,0,0,40000
1074406,34658.0,42836.0,44748.0,37758.0,0,0,0,40000
1074416,34949.0,42271.0,44665.0,38115.0,0,0,0,40000
1074426,35829.0,42803.0,43751.0,37617.0,0,0,0,40000
1074436,35843.0,45271.0,44035.0,34851.0,0,0,0,40000
1074446,35002.0,42112.0,45084.0,37802.0,0,0,0,40000
1074456,34717.0,42851.0,44859.0,37573.0,0,0,0,40000
1074466,34929.0,42301.0,45033.0,37737.0,0,0,0,40000
1074476,35054.0,42640.0,44184.0,38122.0,0,0,0,40000
1074486,34987.0,43035.0,45057.0,36921.0,0,0,0,40000
1074496,33906.0,44024.0,45736.0,36334.0,0,0,0,40000
1074506,34549.0,42665.0,45311.0,37475.0,0,0,0,40000
1074516,34818.0,42740.0,44858.0,37584.0,0,0,0,40000
1074526,35671.0,42175.0,44337.0,37817.0,0,0,0,40000
1074536,35302.0,42664.0,44188.0,37846.0,0,0,0,40000
1074546,36153.0,42745.0,43325.0,37777.0,0,0,0,40000
1074556,36342.0,41744.0,43466.0,38448.0,0,0,0,40000
1074566,36146.0,42990.0,43896.0,36968.0,0,0,0,40000
1074576,35987.0,41337.0,43449.0,39227.0,0,0,0,40000
1074586,35320.0,42088.0,44264.0,38328.0,0,0,0,40000
1074596,33465.0,42331.0,46407.0,37797.0,0,0,0,40000
1074606,34159.0,43437.0,45825.0,36579.0,0,0,0,40000
1074616,34482.0,42892.0,45558.0,37068.0,0,0,0,40000
1074626,34092.0,42786.0,45448.0,37674.0,0,0,0,40000
1074636,34587.0,42241.0,45119.0,38053.0,0,0,0,40000
1074646,33174.0,43870.0,46518.0,36438.0,0,0,0,40000
1074656,33970.0,42816.0,45592.0,37622.0,0,0,0,40000
1074666,35430.0,42292.0,44580.0,37698.0,0,0,0,40000
1074676,35462.0,42080.0,44378.0,38080.0,0,0,0,40000
1074686,35011.0,42073.0,44867.0,38049.0,0,0,0,40000
1074696,34621.0,41217.0,44905.0,39257.0,0,0,0,40000
1074706,34880.0,40700.0,44534.0,39886.0,0,0,0,40000
1074716,36576.0,40780.0,43214.0,39430.0,0,0,0,40000
1074726,36944.0,41276.0,42722.0,39058.0,0,0,0,40000
1074736,34944.0,43178.0,45254.0,36624.0,0,0,0,40000
1074746,35229.0,41235.0,44535.0,39001.0,0,0,0,40000
1074756,34295.0,41963.0,45231.0,38511.0,0,0,0,40000
1074766,34891.0,41387.0,44499.0,39223.0,0,0,0,40000
1074776,34651.0,42465.0,44573.0,38311.0,0,0,0,40000
1074786,34320.0,44088.0,45780.0,35812.0,0,0,0,40000
1074796,34730.0,43884.0,45208.0,36178.0,0,0,0,40000
1074806,34093.0,42709.0,46285.0,36913.0,0,0,0,40000
1074816,32732.0,43344.0,46628.0,37296.0,0,0,0,40000
1074826,34966.0,42804.0,44874.0,37356.0,0,0,0,40000
1074836,34544.0,43870.0,44184.0,37402.0,0,0,0,40000
1074846,34647.0,41573.0,45545.0,38235.0,0,0,0,40000
1074856,34529.0,41657.0,44981.0,38833.0,0,0,0,40000
1074866,36080.0,40214.0,43928.0,39778.0,0,0,0,40000
1074876,34925.0,39995.0,45099.0,39981.0,0,0,0,40000
1074886,35621.0,40881.0,44449.0,39049.0,0,0,0,40000
1074896,36054.0,41672.0,43064.0,39210.0,0,0,0,40000
1074906,35956.0,42348.0,43680.0,38016.0,0,0,0,40000
1074916,35606.0,41836.0,43568.0,38990.0,0,0,0,40000
1074926,35587.0,39751.0,44733.0,39929.0,0,0,0,40000
1074936,34549.0,42229.0,44607.0,38615.0,0,0,0,40000
1074946,36203.0,41419.0,44419.0,37959.0,0,0,0,40000
1074956,34782.0,43064.0,44894.0,37260.0,0,0,0,40000
1074966,35160.0,43082.0,44654.0,37104.0,0,0,0,40000
1074976,34427.0,43333.0,44679.0,37561.0,0,0,0,40000
1074986,34076.0,42210.0,45060.0,38654.0,0,0,0,40000
1074996,33849.0,41497.0,46317.0,38337.0,0,0,0,40000
1075006,34683.0,42307.0,45363.0,37647.0,0,0,0,40000
1075016,35516.0,42022.0,44550.0,37912.0,0,0,0,40000
1075026,35203.0,41781.0,44987.0,38029.0,0,0,0,40000
1075036,35023.0,41835.0,44787.0,38355.0,0,0,0,40000
1075046,35529.0,41739.0,43539.0,39193.0,0,0,0,40000
1075056,35355.0,41721.0,44063.0,38861.0,0,0,0,40000
1075066,35342.0,41706.0,43898.0,39054.0,0,0,0,40000
1075076,36193.0,39691.0,44541.0,39575.0,0,0,0,40000
1075086,35209.0,42805.0,44855.0,37131.0,0,0,0,40000
1075096,35075.0,42731.0,44857.0,37337.0,0,0,0,40000
1075106,33736.0,43694.0,45928.0,36642.0,0,0,0,40000
1075116,33401.0,44529.0,45613.0,36457.0,0,0,0,40000
1075126,33357.0,43423.0,46029.0,37191.0,0,0,0,40000
1075136,33601.0,44441.0,46025.0,35933.0,0,0,0,40000
1075146,34576.0,42026.0,45806.0,37592.0,0,0,0,40000
1075156,33648.0,42946.0,46504.0,36902.0,0,0,0,40000
1075166,34842.0,42204.0,45328.0,37626.0,0,0,0,40000
1075176,34502.0,42514.0,44976.0,38008.0,0,0,0,40000
1075186,35246.0,41258.0,43932.0,39564.0,0,0,0,40000
1075196,35593.0,40527.0,43729.0,40151.0,0,0,0,40000
1075206,35361.0,40669.0,43901.0,40069.0,0,0,0,40000
1075216,36339.0,40413.0,44349.0,38899.0,0,0,0,40000
1075226,35843.0,41221.0,44093.0,38843.0,0,0,0,40000
1075236,36222.0,41036.0,43788.0,38954.0,0,0,0,40000
1075246,35497.0,42797.0,43895.0,37811.0,0,0,0,40000
1075256,33918.0,42154.0,45768.0,38160.0,0,0,0,40000
1075266,34145.0,41503.0,45121.0,39231.0,0,0,0,40000
1075276,33201.0,43695.0,46259.0,36845.0,0,0,0,40000
1075286,34331.0,42403.0,45823.0,37443.0,0,0,0,40000
1075296,34753.0,42329.0,45121.0,37797.0,0,0,0,40000
1075306,34684.0,41796.0,45982.0,37538.0,0,0,0,40000
1075316,34260.0,42628.0,44776.0,38336.0,0,0,0,40000
1075326,34460.0,41256.0,45554.0,38730.0,0,0,0,40000
1075336,34647.0,42795.0,44243.0,38315.0,0,0,0,40000
1075346,35585.0,42673.0,44531.0,37211.0,0,0,0,40000
1075356,34432.0,41604.0,45138.0,38826.0,0,0,0,40000
1075366,34309.0,40813.0,45459.0,39419.0,0,0,0,40000
1075376,34785.0,40447.0,45369.0,39399.0,0,0,0,40000
1075386,36206.0,40376.0,43890.0,39528.0,0,0,0,40000
1075396,34842.0,41060.0,44266.0,39832.0,0,0,0,40000
1075406,33625.0,41267.0,45595.0,39513.0,0,0,0,40000
1075416,34284.0,41834.0,45500.0,38382.0,0,0,0,40000
1075426,35312.0,41652.0,44892.0,38144.0,0,0,0,40000
1075436,35238.0,42010.0,44464.0,38288.0,0,0,0,40000
1075446,35611.0,41429.0,44489.0,38471.0,0,0,0,40000
1075456,34720.0,42836.0,44692.0,37752.0,0,0,0,40000
1075466,34932.0,41854.0,45458.0,37756.0,0,0,0,40000
1075476,34853.0,40743.0,44301.0,40103.0,0,0,0,40000
1075486,34377.0,41657.0,44667.0,39299.0,0,0,0,40000
1075496,34883.0,41001.0,45369.0,38747.0,0,0,0,40000
1075506,34837.0,41303.0,45167.0,38693.0,0,0,0,40000
1075516,34856.0,41666.0,45240.0,38238.0,0,0,0,40000
1075526,34513.0,42259.0,44707.0,38521.0,0,0,0,40000
1075536,35009.0,41079.0,44801.0,39111.0,0,0,0,40000
1075546,34523.0,42385.0,44991.0,38101.0,0,0,0,40000
1075556,34515.0,42673.0,45009.0,37803.0,0,0,0,40000
1075566,34434.0,41432.0,45176.0,38958.0,0,0,0,40000
1075576,35182.0,41764.0,45086.0,37968.0,0,0,0,40000
1075586,34166.0,42232.0,45814.0,37788.0,0,0,0,40000
1075596,33431.0,43507.0,46101.0,36961.0,0,0,0,40000
1075606,33202.0,43634.0,46142.0,37022.0,0,0,0,40000
1075616,34102.0,43286.0,45684.0,36928.0,0,0,0,40000
1075626,34109.0,42765.0,45851.0,37275.0,0,0,0,40000
1075636,33931.0,42257.0,45573.0,38239.0,0,0,0,40000
1075646,33923.0,41879.0,45799.0,38399.0,0,0,0,40000
1075656,35039.0,41279.0,44971.0,38711.0,0,0,0,40000
1075666,35801.0,40981.0,44371.0,38847.0,0,0,0,40000
1075676,35357.0,41211.0,43999.0,39433.0,0,0,0,40000
1075686,35944.0,39528.0,43588.0,40940.0,0,0,0,40000
1075696,37017.0,40819.0,42587.0,39577.0,0,0,0,40000
1075706,35548.0,41012.0,44396.0,39044.0,0,0,0,40000
1075716,35388.0,40132.0,43772.0,40708.0,0,0,0,40000
1075726,36097.0,41175.0,44153.0,38575.0,0,0,0,40000
1075736,36035.0,40133.0,43397.0,40435.0,0,0,0,40000
1075746,36221.0,40867.0,43889.0,39023.0,0,0,0,40000
1075756,34656.0,40750.0,44304.0,40290.0,0,0,0,40000
1075766,34565.0,40443.0,45345.0,39647.0,0,0,0,40000
1075776,34712.0,40994.0,45008.0,39286.0,0,0,0,40000
1075786,35400.0,40198.0,44804.0,39598.0,0,0,0,40000
1075796,36005.0,41343.0,43841.0,38811.0,0,0,0,40000
1075806,35161.0,41083.0,44699.0,39057.0,0,0,0,40000
1075816,34247.0,41031.0,44411.0,40311.0,0,0,0,40000
1075826,35884.0,40114.0,44436.0,39566.0,0,0,0,40000
1075836,35093.0,42137.0,44125.0,38645.0,0,0,0,40000
1075846,36026.0,41036.0,44474.0,38464.0,0,0,0,40000
1075856,34678.0,42628.0,44780.0,37914.0,0,0,0,40000
1075866,34742.0,41932.0,45774.0,37552.0,0,0,0,40000
1075876,34220.0,42238.0,44942.0,38600.0,0,0,0,40000
1075886,34784.0,41102.0,45160.0,38954.0,0,0,0,40000
1075896,36460.0,41870.0,43308.0,38362.0,0,0,0,40000
1075906,35533.0,42307.0,44581.0,37579.0,0,0,0,40000
1075916,36218.0,42246.0,43794.0,37742.0,0,0,0,40000
1075926,33856.0,40104.0,45152.0,40888.0,0,0,0,40000
1075936,35540.0,41530.0,44616.0,38314.0,0,0,0,40000
1075946,34623.0,42641.0,44327.0,38409.0,0,0,0,40000
1075956,35450.0,42336.0,45132.0,37082.0,0,0,0,40000
1075966,35243.0,41193.0,43875.0,39689.0,0,0,0,40000
1075976,35739.0,41327.0,44757.0,38177.0,0,0,0,40000
1075986,35181.0,41007.0,44281.0,39531.0,0,0,0,40000
1075996,35485.0,40685.0,44269.0,39561.0,0,0,0,40000
1076006,34456.0,41526.0,45082.0,38936.0,0,0,0,40000
1076016,35972.0,39208.0,44318.0,40502.0,0,0,0,40000
1076026,33270.0,41090.0,46210.0,39430.0,0,0,0,40000
1076036,34731.0,41985.0,45339.0,37945.0,0,0,0,40000
1076046,34244.0,42974.0,44946.0,37836.0,0,0,0,40000
1076056,33599.0,42409.0,46303.0,37689.0,0,0,0,40000
1076066,33969.0,42041.0,45603.0,38387.0,0,0,0,40000
1076076,34966.0,40846.0,44952.0,39236.0,0,0,0,40000
1076086,35584.0,40334.0,44506.0,39576.0,0,0,0,40000
1076096,35814.0,40954.0,43938.0,39294.0,0,0,0,40000
1076106,36172.0,40126.0,43642.0,40060.0,0,0,0,40000
1076116,35868.0,41706.0,43532.0,38894.0,0,0,0,40000
1076126,36920.0,42212.0,42716.0,38152.0,0,0,0,40000
1076136,35031.0,40485.0,45021.0,39463.0,0,0,0,40000
1076146,35087.0,41719.0,44585.0,38609.0,0,0,0,40000
1076156,36422.0,41280.0,43926.0,38372.0,0,0,0,40000
1076166,34494.0,42554.0,44362.0,38590.0,0,0,0,40000
1076176,36143.0,40879.0,44117.0,38861.0,0,0,0,40000
1076186,34202.0,41910.0,44804.0,39084.0,0,0,0,40000
1076196,35260.0,40930.0,45638.0,38172.0,0,0,0,40000
1076206,35978.0,43476.0,43192.0,37354.0,0,0,0,40000
1076216,36493.0,41129.0,43539.0,38839.0,0,0,0,40000
1076226,36395.0,42329.0,42987.0,38289.0,0,0,0,40000
1076236,35539.0,41515.0,44109.0,38837.0,0,0,0,40000
1076246,35928.0,42414.0,44366.0,37292.0,0,0,0,40000
1076256,34826.0,43764.0,44572.0,36838.0,0,0,0,40000
1076266,35707.0,42171.0,44387.0,37735.0,0,0,0,40000
1076276,35776.0,42002.0,43996.0,38226.0,0,0,0,40000
1076286,35192.0,42782.0,44250.0,37776.0,0,0,0,40000
1076296,34129.0,41343.0,45861.0,38667.0,0,0,0,40000
1076306,34806.0,41038.0,44316.0,39840.0,19.996558487442687,0.3710103209936717,0,40000
1076316,19878.0,52176.0,60590.0,27356.0,17.1716763125519,10.253464420231044,0,40000
1076326,39662.0,65535.0,39662.0,7572.0,9.85587831017209,17.4029210977663,0,40000
1076336,16444.0,45386.0,64146.0,34024.0,-0.0234890754145859,19.999986206578647,0,40000
1076346,23572.0,55412.0,55144.0,25872.0,-9.951250086986384,17.348562525646138,0,40000
1076356,38185.0,55887.0,42223.0,23705.0,-17.20097411369943,10.20423880256838,0,40000
1076366,53843.0,53305.0,25527.0,27325.0,-19.99639656067079,0.3796374433501682,0,40000
1076376,63352.0,45708.0,16614.0,34326.0,-17.605552747286023,-9.489178703266663,0,40000
1076386,65535.0,36364.0,10870.0,44110.0,-10.707038896874582,-16.89258174645944,0,40000
1076396,62921.0,30357.0,16877.0,49845.0,-1.038086253605831,-19.973041253902085,0,40000
1076406,54107.0,21929.0,25305.0,58659.0,8.943380105567488,-17.88898969442768,0,40000
1076416,41083.0,17193.0,37929.0,63795.0,16.590808890344697,-11.168932821181233,0,40000
1076426,25433.0,21801.0,53819.0,58947.0,19.938995628406072,-1.5609142610674125,0,40000
1076436,12013.0,35221.0,65535.0,45389.0,18.1126491868916,8.481269918626287,0,40000
1076446,6929.0,40305.0,65535.0,40305.0,11.575855298763354,16.309493373556776,0,40000
1076456,8340.0,41852.0,65535.0,38894.0,2.1362992400659353,19.885578330963718,0,40000
1076466,15666.0,48312.0,64454.0,31568.0,-8.168760121386233,18.25572124237358,0,40000
1076476,24736.0,57058.0,55708.0,22498.0,-16.28100501364648,11.615888934800388,0,40000
1076486,31024.0,63702.0,49064.0,16210.0,-19.893006601396593,2.065983629361945,0,40000
1076496,33590.0,65535.0,46718.0,13644.0,-18.321107069424713,-8.021037074510737,0,40000
1076506,33135.0,65277.0,46951.0,14637.0,-11.90146891078851,-16.073426447572857,0,40000
1076516,38209.0,49845.0,42347.0,29599.0,-2.398726501562962,-19.85563172429171,0,40000
1076526,33696.0,38012.0,46424.0,41868.0,7.918375478462195,-18.365710707241597,0,40000
1076536,27496.0,28488.0,53360.0,50656.0,15.980086169420256,-12.026505977128332,0,40000
1076546,19439.0,27795.0,61095.0,51671.0,15.980086169420256,-12.026505977128332,0,40000
1076556,14586.0,32648.0,65535.0,46710.0,18.31215598234554,8.04145156537341,0,40000
1076566,8747.0,41185.0,65535.0,38487.0,11.848817984921531,16.1122783106611,0,40000
1076576,32071.0,64913.0,47853.0,15163.0,11.848817984921531,16.1122783106611,0,40000
1076586,15060.0,48102.0,64664.0,32174.0,2.412527273648325,19.853959608952138,0,40000
1076596,24476.0,57366.0,55400.0,22758.0,-7.627752698654511,18.488304107412578,0,40000
1076606,65535.0,42688.0,9226.0,38008.0,-15.709839927832816,12.377436303284693,0,40000
1076616,65535.0,40378.0,6856.0,40378.0,-19.768399568695322,3.0348605392021915,0,40000
1076626,60964.0,28984.0,18250.0,51802.0,-18.586983259534883,-7.384040446108754,0,40000
1076636,65036.0,35552.0,14528.0,44884.0,-12.294992838644202,-15.774446142343248,0,40000
1076646,39709.0,7525.0,39709.0,65535.0,-2.9557088503653803,-19.78038890395919,0,40000
1076656,54632.0,22466.0,24768.0,58134.0,7.241264276740239,-18.643070875647222,0,40000
1076666,45700.0,13852.0,33382.0,65535.0,15.484964394777412,-12.657641079303673,0,40000
1076676,32873.0,14361.0,46883.0,65535.0,19.712599497235292,-3.378375506304605,0,40000
1076686,21725.0,25509.0,58065.0,54701.0,18.825707939678583,6.752238189661465,0,40000
1076696,9649.0,37585.0,65535.0,42395.0,13.07053358964261,15.13806961544385,0,40000
1076706,9670.0,42444.0,65535.0,37564.0,3.8674789472231947,19.62250255682963,0,40000
1076716,16910.0,49692.0,63074.0,30324.0,-6.288881125400227,18.985520119042953,0,40000
1076726,25255.0,58353.0,54413.0,21979.0,-14.841536356819793,13.406296974526422,0,40000
1076736,31449.0,64577.0,48189.0,15785.0,-19.511623937845062,4.392781727802047,0,40000
1076746,36289.0,65535.0,43239.0,10945.0,-19.153219200126617,-5.757967894309677,0,40000
1076756,45493.0,60833.0,34885.0,18789.0,-13.825835792421401,-14.451514268096588,0,40000
1076766,47023.0,51659.0,32927.0,28391.0,-4.963693709141534,-19.374254689195883,0,40000
1076776,43176.0,39126.0,36838.0,40860.0,5.2785614525532045,-19.290847285477625,0,40000
1076786,33253.0,31687.0,46219.0,48841.0,14.099701581278016,-14.184442721478565,0,40000
1076796,21955.0,29383.0,57941.0,50721.0,19.25828951451576,-5.396136115322929,0,40000
1076806,11043.0,36191.0,65535.0,44559.0,19.42786007309218,4.749552924260417,0,40000
1076816,7288.0,39946.0,65535.0,39946.0,14.458140284428193,13.81890659624685,0,40000
1076826,9273.0,42215.0,65535.0,37961.0,5.8286257468920235,19.131835298859002,0,40000
1076836,16528.0,49132.0,63634.0,30706.0,-4.280002193986905,19.53667272642574,0,40000
1076846,23768.0,57622.0,55144.0,23466.0,-13.317124673310168,14.921601470201297,0,40000
1076856,31496.0,64740.0,48026.0,15738.0,-18.916742117904562,6.492832020366431,0,40000
1076866,44241.0,64165.0,34217.0,17377.0,-19.670004285532116,-3.6181392188731714,0,40000
1076876,54435.0,54465.0,25263.0,25837.0,-15.352613920365458,-12.817848720132435,0,40000
1076886,61433.0,40049.0,17875.0,40643.0,-7.0628687421675895,-18.71138383794507,0,40000
1076896,59695.0,29811.0,20525.0,49969.0,3.1132533175882204,-19.756205449947263,0,40000
1076906,51790.0,19782.0,27452.0,60976.0,12.404152744137642,-15.688753765041461,0,40000
1076916,37778.0,18980.0,41486.0,61756.0,18.497796666180584,-7.604703708668634,0,40000
1076926,24247.0,22987.0,54991.0,57775.0,19.847884180421463,2.4620100650841006,0,40000
1076936,12767.0,34467.0,65535.0,45593.0,16.043423302142415,11.94188296493789,0,40000
1076946,7258.0,39976.0,65535.0,39976.0,8.074357104093497,18.297670817772815,0,40000
1076956,13327.0,45573.0,65535.0,33907.0,8.074357104093497,18.297670817772815,0,40000
1076966,20630.0,53712.0,59054.0,26604.0,-2.1875294392912017,19.880007921332282,0,40000
1076976,28419.0,61411.0,51355.0,18815.0,-11.7896519359596,16.15562153644743,0,40000
1076986,33813.0,65535.0,45297.0,13421.0,-18.20307117079572,8.285420927807216,0,40000
1076996,65535.0,39805.0,7429.0,39805.0,-19.91495130125373,-1.8424751473743872,0,40000
1077006,52019.0,19869.0,27365.0,60747.0,-16.40849482250427,-11.435090627531142,0,40000
1077016,40451.0,6783.0,40451.0,65535.0,-8.612370809780568,-18.050680569852197,0,40000
1077026,36877.0,10357.0,42475.0,65535.0,1.4743987099386036,-19.94557967180025,0,40000
1077036,13841.0,33393.0,65535.0,46501.0,11.138891524273742,-16.61099321565278,0,40000
1077046,6927.0,40307.0,65535.0,40307.0,17.870947296998395,-8.979378748438322,0,40000
1077056,18198.0,29036.0,62054.0,50712.0,19.959731072554938,1.2685170520276354,0,40000
1077066,8948.0,38286.0,65535.0,41982.0,16.761617997640563,10.910919397611362,0,40000
1077076,7617.0,39617.0,65535.0,39617.0,9.226939659216528,17.744395862501975,0,40000
1077086,9694.0,42776.0,65535.0,37540.0,-0.8329023746921134,19.982649314698794,0,40000
1077096,19135.0,51969.0,60797.0,28099.0,-10.561696245231714,16.983832677680805,0,40000
1077106,26192.0,59376.0,53390.0,21042.0,-17.53006270337407,9.627923016714114,0,40000
1077116,33861.0,62125.0,45645.0,18369.0,-19.998722859536613,-0.22601767065355632,0,40000
1077126,47527.0,52517.0,31289.0,28667.0,-17.193020052683668,-10.21763482749395,0,40000
1077136,53807.0,42081.0,26575.0,37537.0,-9.79241064405359,-17.438712503456955,0,40000
1077146,56146.0,29180.0,23066.0,51608.0,0.05608609904548312,-19.999921358582736,0,40000
1077156,48767.0,21333.0,32031.0,57869.0,9.909015138130641,-17.372720540902563,0,40000
1077166,34784.0,17208.0,43714.0,64294.0,17.299337234157218,-10.036579659371101,0,40000
1077176,23334.0,23900.0,56524.0,56242.0,19.99878703984621,-0.22026560076251683,0,40000
1077186,13197.0,34037.0,65535.0,46745.0,17.545961603498135,9.598918241581657,0,40000
1077196,7499.0,39735.0,65535.0,39735.0,10.397359153057206,17.084932620362817,0,40000
1077206,9399.0,41869.0,65535.0,37835.0,0.6743443407881213,19.988628259839317,0,40000
1077216,17294.0,50710.0,62056.0,29940.0,-9.203114237735829,17.756764579370422,0,40000
1077226,24464.0,57596.0,55170.0,22770.0,-16.75049479556086,10.927988108699997,0,40000
1077236,30971.0,64015.0,48751.0,16263.0,-19.962023454190742,1.231917048481238,0,40000
1077246,40710.0,62278.0,38736.0,18276.0,-17.994358954501237,-8.729435595533149,0,40000
1077256,49437.0,50253.0,30557.0,29753.0,-11.383316780885792,-16.444454964090596,0,40000
1077266,51824.0,37766.0,27602.0,42808.0,-1.6942143681374198,-19.928111743835558,0,40000
1077276,46325.0,27207.0,33707.0,52761.0,8.317040108712884,-18.18864601420516,0,40000
1077286,35707.0,21967.0,44089.0,58237.0,16.190308579332033,-11.741972070568368,0,40000
1077296,22147.0,25087.0,56921.0,55845.0,19.87174383596595,-2.2613705839046414,0,40000
1077306,12080.0,35154.0,65535.0,45078.0,18.396036221182964,7.847665343841084,0,40000
1077316,7263.0,39971.0,65535.0,39971.0,18.396036221182964,7.847665343841084,0,40000
1077326,9561.0,41655.0,65535.0,37673.0,12.158805394868486,15.879655266085502,0,40000
1077336,15698.0,49410.0,63356.0,31536.0,2.7832615885611607,19.80538954248666,0,40000
1077346,24626.0,58066.0,54700.0,22608.0,-7.326535590251449,18.609725313523,0,40000
1077356,31768.0,64938.0,47828.0,15466.0,-15.54757404244566,12.58065743094016,0,40000
1077366,65535.0,40340.0,6894.0,40340.0,-19.734127567376014,3.250262936214568,0,40000
1077376,64067.0,31683.0,15551.0,48699.0,-18.688005437324804,-7.124496668152674,0,40000
1077386,40508.0,8050.0,39184.0,65535.0,-12.549515876817685,-15.572721382516958,0,40000
1077396,39901.0,7333.0,39901.0,65535.0,-3.236072203798172,-19.736459578450358,0,40000
1077406,28810.0,18424.0,50780.0,61986.0,6.85479053881089,-18.788609492696068,0,40000
1077416,6829.0,40405.0,65535.0,40405.0,15.251060950494914,-12.938513820539404,0,40000
1077426,24309.0,24637.0,55577.0,55477.0,19.6636435327665,-3.65255020722375,0,40000
1077436,14740.0,32494.0,65124.0,47642.0,18.859615428655083,6.656944185077349,0,40000
1077446,7393.0,39841.0,65535.0,39841.0,13.15866106155693,15.061528443921798,0,40000
1077456,8750.0,41958.0,65535.0,38484.0,4.042047560045545,19.5872880083571,0,40000
1077466,17238.0,50372.0,62394.0,29996.0,-6.176373362192342,19.022418670894638,0,40000
1077476,24821.0,58301.0,54465.0,22413.0,-14.733089975480588,13.525385753256483,0,40000
1077486,32350.0,65244.0,47522.0,14884.0,-19.48495176787241,4.509618010839261,0,40000
1077496,41168.0,62594.0,37940.0,18298.0,-19.17229619713471,-5.694124913393972,0,40000
1077506,53617.0,49321.0,26527.0,30535.0,-13.904431398494205,-14.37590997066163,0,40000
1077516,56518.0,38816.0,23218.0,41448.0,-4.9908545156304065,-19.367275781684206,0,40000
1077526,53012.0,27436.0,26834.0,52718.0,5.189267553759336,-19.315058950350128,0,40000
1077536,39715.0,21963.0,39379.0,58943.0,14.011546913089933,-14.271529459111239,0,40000
1077546,26511.0,20723.0,53171.0,59595.0,19.24262410228272,-5.451735288717555,0,40000
1077556,17214.0,30020.0,62376.0,50390.0,19.437665421094927,4.709263528150728,0,40000
1077566,7267.0,39967.0,65535.0,39967.0,14.571750632575055,13.699054109756938,0,40000
1077576,7069.0,40165.0,65535.0,40165.0,5.971303541142044,19.087784942720422,0,40000
1077586,13507.0,45633.0,65535.0,33727.0,-4.143399953947155,19.566099172334546,0,40000
1077596,20963.0,54833.0,57933.0,26271.0,-13.203727121770878,15.02203681575212,0,40000
1077606,27917.0,60987.0,51779.0,19317.0,-18.905039825714635,6.526826885106079,0,40000
1077616,34297.0,65535.0,44883.0,14875.0,-19.65920805809965,-3.676348531947127,0,40000
1077626,45087.0,55537.0,35371.0,24005.0,-15.300875968090569,-12.879565000771901,0,40000
1077636,50958.0,43594.0,29088.0,36360.0,-15.300875968090569,-12.879565000771901,0,40000
1077646,48388.0,30314.0,31190.0,50108.0,-6.550837210776565,-18.896733364206234,0,40000
1077656,39492.0,21560.0,40014.0,58934.0,3.915675126452101,-19.612941857459433,0,40000
1077666,27742.0,19492.0,51914.0,60852.0,13.048386627551844,-15.157163534709461,0,40000
1077676,18396.0,28838.0,61076.0,51690.0,18.955002230242414,-6.3802735404922215,0,40000
1077686,8986.0,38248.0,65535.0,41786.0,19.58665804015627,4.0450991110208685,0,40000
1077696,22248.0,55384.0,57382.0,24986.0,15.046221724474139,13.17616073892401,0,40000
1077706,40339.0,65535.0,40339.0,6895.0,6.605839791858003,18.87757613265817,0,40000
1077716,39460.0,65535.0,39460.0,7774.0,-3.5358381276733617,19.684965042765285,0,40000
1077726,48999.0,63767.0,31047.0,16187.0,-12.815088675372138,15.354917852022158,0,40000
1077736,65535.0,40430.0,6804.0,40430.0,-18.708334948361106,7.070940776157758,0,40000
1077746,65535.0,37853.0,9381.0,41925.0,-19.757769964251537,-3.1033088856444566,0,40000
1077756,48139.0,16427.0,30807.0,64627.0,-15.643160202895634,-12.46160258018776,0,40000
1077766,40101.0,7133.0,40101.0,65535.0,-7.457045403945314,-18.55781436062712,0,40000
1077776,52473.0,30189.0,27217.0,50121.0,2.897855454616458,-19.788947262655224,0,40000
1077786,42934.0,21366.0,36618.0,59082.0,12.46703849083875,-15.638828321455065,0,40000
1077796,27709.0,19649.0,51341.0,61301.0,18.54339175350531,-7.492838065515048,0,40000
1077806,18513.0,28721.0,61035.0,51731.0,19.829043193622198,2.6094148818202823,0,40000
1077816,9478.0,37756.0,65535.0,41776.0,15.76397887016575,12.308410546490872,0,40000
1077826,7156.0,40078.0,65535.0,40078.0,7.656768693991336,18.476306264151237,0,40000
1077836,12192.0,45502.0,65535.0,35042.0,-2.38230683275103,19.85760847017152,0,40000
1077846,20734.0,53922.0,58844.0,26500.0,-11.839161199965229,16.11937536262612,0,40000
1077856,28554.0,61664.0,51102.0,18680.0,-18.233332774393688,8.21861155781322,0,40000
1077866,35091.0,65535.0,44491.0,14687.0,-19.91984703923003,-1.7887688318166055,0,40000
1077876,47161.0,57245.0,32295.0,23299.0,-16.364383453145635,-11.498128291092137,0,40000
1077886,54083.0,44297.0,25753.0,35867.0,-8.615399216366972,-18.049235339554507,0,40000
1077896,54655.0,31281.0,25507.0,48557.0,1.3649002511449846,-19.95337182794989,0,40000
1077906,46265.0,23649.0,32923.0,57163.0,11.224343293327387,-16.55337179047026,0,40000
1077916,33927.0,19849.0,46149.0,60075.0,17.956002259961622,-8.808063512501096,0,40000
1077926,20721.0,26513.0,58637.0,54129.0,19.952020897291913,1.3845078959785049,0,40000
1077936,10939.0,36295.0,65535.0,43211.0,16.536808460756276,11.248731747724257,0,40000
1077946,17686.0,51362.0,61404.0,29548.0,8.881583884319749,17.919750771307946,0,40000
1077956,11199.0,43679.0,65535.0,36035.0,8.881583884319749,17.919750771307946,0,40000
1077966,39818.0,65535.0,39818.0,7416.0,-1.4495382106846928,19.94740181015475,0,40000
1077976,41325.0,65535.0,38711.0,8523.0,-11.044153367261963,16.674131953430027,0,40000
1077986,65535.0,46227.0,12721.0,34513.0,-17.83052145082586,9.059387660964667,0,40000
1077996,65535.0,39853.0,7381.0,39853.0,-19.974137111420063,-1.0167825009272302,0,40000
1078006,46123.0,58105.0,32767.0,23005.0,-16.7489230607464,-10.93039689605082,0,40000
1078016,40097.0,7137.0,40097.0,65535.0,-9.1982194638036,-17.759300625185233,0,40000
1078026,51598.0,34770.0,28176.0,45456.0,0.8029668808857944,-19.983874603995105,0,40000
1078036,45459.0,25229.0,34327.0,54985.0,10.633044456379892,-16.93925516628901,0,40000
1078046,31090.0,22040.0,48510.0,58360.0,17.663783093375606,-9.380339377132268,0,40000
1078056,18818.0,28416.0,60808.0,51958.0,19.98898106663552,0.6638041259940326,0,40000
1078066,10847.0,36387.0,65535.0,43541.0,17.06708912701555,10.426623074155291,0,40000
1078076,7119.0,40115.0,65535.0,40115.0,9.506686085045184,17.596105241797353,0,40000
1078086,10888.0,43988.0,65535.0,36346.0,-0.3909005242755331,19.996179554607952,0,40000
1078096,18958.0,51802.0,60964.0,28276.0,-10.563935072229578,16.982440218935494,0,40000
1078106,27260.0,60402.0,52364.0,19974.0,-17.595079767071212,9.508583910888165,0,40000
1078116,34840.0,65535.0,44822.0,14506.0,-19.995111282420915,-0.4421818671133251,0,40000
1078126,48201.0,57301.0,31635.0,22863.0,-16.982566818289737,-10.56373155008799,0,40000
1078136,55786.0,44262.0,23738.0,36214.0,-9.12194138117617,-17.79860065955708,0,40000
1078146,54814.0,31726.0,24736.0,48724.0,0.857567819938901,-19.981605977353404,0,40000
1078156,49590.0,22366.0,30228.0,57816.0,10.621673847440999,-16.946387363641488,0,40000
1078166,35183.0,20065.0,44323.0,60429.0,17.59906657442989,-9.501202855890648,0,40000
1078176,21987.0,25247.0,57401.0,55365.0,19.988781290049282,0.6697929072300706,0,40000
1078186,11399.0,35835.0,65535.0,44157.0,17.08119338753327,10.403500971196657,0,40000
1078196,6995.0,40239.0,65535.0,40239.0,9.753514310107784,17.460497089216066,0,40000
1078206,10743.0,43477.0,65535.0,36491.0,-0.11217175702174825,19.999685434949388,0,40000
1078216,18247.0,51203.0,61563.0,28987.0,-9.918382633296245,17.3673741809039,0,40000
1078226,25960.0,59606.0,53160.0,21274.0,-17.189712990973334,10.22319750801884,0,40000
1078236,32884.0,65535.0,47224.0,14350.0,-17.189712990973334,10.22319750801884,0,40000
1078246,65535.0,40370.0,6864.0,40370.0,-17.509600454767813,-9.665086234193396,0,40000
1078256,56337.0,23607.0,23627.0,56429.0,-17.509600454767813,-9.665086234193396,0,40000
1078266,39739.0,7495.0,39739.0,65535.0,-0.7524317143108028,-19.985841151057397,0,40000
1078276,39982.0,7252.0,39982.0,65535.0,9.19076955402077,-17.763157236394797,0,40000
1078286,22200.0,25034.0,57420.0,55346.0,9.19076955402077,-17.763157236394797,0,40000
1078296,6996.0,40238.0,65535.0,40238.0,16.72806488531837,-10.9622919680411,0,40000
1078306,6712.0,40522.0,65535.0,40522.0,19.955137746142412,-1.33883439322504,0,40000
1078316,10311.0,42235.0,65535.0,36923.0,18.017311800174266,8.681962652263664,0,40000
1078326,6922.0,40312.0,65535.0,40312.0,11.38193722250535,16.445409847825236,0,40000
1078336,39997.0,65535.0,39997.0,7237.0,1.7496146781249136,19.923324232619663,0,40000
1078346,15975.0,49543.0,63223.0,31259.0,-8.296326924641203,18.198103185757397,0,40000
1078356,24866.0,57382.0,55384.0,22368.0,-16.213214779350828,11.71032307490446,0,40000
1078366,32918.0,62672.0,46392.0,18018.0,-19.922145550555616,1.7629851566241752,0,40000
1078376,47223.0,53627.0,32407.0,26743.0,-18.11925038483505,-8.467158052833014,0,40000
1078386,55083.0,44613.0,24631.0,35673.0,-11.56080021126541,-16.320168457317028,0,40000
1078396,57839.0,31131.0,22119.0,48911.0,-2.018535748366745,-19.897877108690906,0,40000
1078406,50089.0,23105.0,29541.0,57265.0,8.093430367934719,-18.28924232655339,0,40000
1078416,37235.0,17689.0,41845.0,63231.0,16.104322744415978,-11.859628533123887,0,40000
1078426,24781.0,22453.0,54983.0,57783.0,19.851112514497085,-2.435843167524792,0,40000
1078436,14290.0,32944.0,65214.0,47552.0,18.48674970776388,7.631519196234265,0,40000
1078446,7200.0,40034.0,65535.0,40034.0,12.344084646887277,15.7360596792997,0,40000
1078456,8722.0,41990.0,65535.0,38512.0,2.857295859745249,19.794844287588692,0,40000
1078466,17078.0,49436.0,63330.0,30156.0,-7.2528808531286915,18.63855464702988,0,40000
1078476,24419.0,57667.0,55099.0,22815.0,-15.547724810757249,12.580471104412723,0,40000
1078486,31194.0,64202.0,48564.0,16040.0,-19.734205465471533,3.249789938835042,0,40000
1078496,36467.0,65535.0,43315.0,13225.0,-18.772042978980018,-6.900029159020059,0,40000
1078506,47737.0,54601.0,32489.0,25173.0,-12.977402091570289,-15.217983931970329,0,40000
1078516,51738.0,41382.0,28030.0,38850.0,-3.3764855689742763,-19.712923304332833,0,40000
1078526,46351.0,31551.0,33227.0,48871.0,7.187389265647589,-18.663907295742064,0,40000
1078536,36885.0,23297.0,42759.0,57059.0,15.454277263639858,-12.69509016346651,0,40000
1078546,23822.0,23412.0,55642.0,57124.0,15.454277263639858,-12.69509016346651,0,40000
1078556,7023.0,40211.0,65535.0,40211.0,18.648965788401284,7.226069126644062,0,40000
1078566,6992.0,40242.0,65535.0,40242.0,18.648965788401284,7.226069126644062,0,40000
1078576,32780.0,64874.0,47892.0,14454.0,12.493821121111463,15.617440052507616,0,40000
1078586,39738.0,65535.0,39738.0,7496.0,3.228030045589096,19.737776521806452,0,40000
1078596,40032.0,65535.0,40032.0,7202.0,-6.873025826973875,18.781946544002036,0,40000
1078606,57872.0,54894.0,20582.0,26652.0,-15.223892269743171,12.97047046792267,0,40000
1078616,65535.0,39943.0,7291.0,39943.0,-19.633636412639113,3.8105539251257743,0,40000
1078626,45822.0,58882.0,33470.0,21826.0,-18.892804636643767,-6.562159169176852,0,40000
1078636,57308.0,47936.0,23018.0,31738.0,-13.077063422119618,-15.132429159056425,0,40000
1078646,57458.0,37660.0,21762.0,43120.0,-3.867949267080062,-19.622409853718143,0,40000
1078656,54467.0,25755.0,25615.0,54163.0,6.280462017929454,-18.98830684503875,0,40000
1078666,40042.0,21598.0,39466.0,58894.0,14.853419660813037,-13.393129745499097,0,40000
1078676,26290.0,20944.0,53398.0,59368.0,19.51446263245169,-4.380153897598424,0,40000
1078686,15683.0,31551.0,63157.0,49609.0,19.148382126435195,5.774033420410483,0,40000
1078696,7316.0,39918.0,65535.0,39918.0,13.844355771367685,14.43377335542575,0,40000
1078706,8794.0,41392.0,65535.0,38440.0,4.905857523927805,19.388980425873893,0,40000
1078716,16150.0,48386.0,64380.0,31084.0,-5.303525096320233,19.28399910684248,0,40000
1078726,23227.0,57487.0,55279.0,24007.0,-14.110746623163603,14.173455109354139,0,40000
1078736,31082.0,63688.0,49078.0,16152.0,-19.255247039817117,5.406982655383138,0,40000
1078746,36595.0,65535.0,42343.0,15027.0,-19.404636892718237,-4.843559338106465,0,40000
1078756,47289.0,55689.0,32923.0,24099.0,-14.4647629783568,-13.811974224561762,0,40000
1078766,50891.0,43895.0,28283.0,36931.0,-5.710206465569422,-19.167512674329167,0,40000
1078776,49958.0,30424.0,30508.0,49110.0,4.429251773349693,-19.50337736722229,0,40000
1078786,38940.0,25832.0,40780.0,54448.0,13.516731753209509,-14.74102990675271,0,40000
1078796,24944.0,23948.0,54118.0,56990.0,19.01826932072272,-6.189138231164087,0,40000
1078806,15735.0,31499.0,63983.0,48783.0,19.597015647788638,3.9946185925977034,0,40000
1078816,7218.0,40016.0,65535.0,40016.0,15.097898540883744,13.116915020277464,0,40000
1078826,7314.0,39920.0,65535.0,39920.0,6.675700372215165,18.852984499553546,0,40000
1078836,13332.0,45600.0,65535.0,33902.0,-3.4723603303213677,19.69626141521305,0,40000
1078846,21326.0,55114.0,57652.0,25908.0,-12.723960336230801,15.43051630250995,0,40000
1078856,29764.0,62262.0,50504.0,17470.0,-18.661063371709922,7.194769894654472,0,40000
1078866,36169.0,64613.0,42459.0,16759.0,-19.79078388400253,-2.8852856456000637,0,40000
1078876,47021.0,53369.0,33013.0,26597.0,-15.82382636520512,-12.231374377552154,0,40000
1078886,54824.0,41786.0,24752.0,38638.0,-15.82382636520512,-12.231374377552154,0,40000
1078896,55150.0,28670.0,24974.0,51206.0,-7.267174310757001,-18.632986275341736,0,40000
1078906,46219.0,22371.0,33683.0,57727.0,2.845671300335004,-19.796518755843152,0,40000
1078916,31673.0,18089.0,47423.0,62815.0,12.234787546234319,-15.82118749331129,0,40000
1078926,21376.0,25858.0,57866.0,54900.0,18.46085307341346,-7.6939524174406495,0,40000
1078936,10499.0,36735.0,65535.0,43259.0,19.855890330698365,2.396584898408403,0,40000
1078946,19855.0,52657.0,60109.0,27379.0,15.980950898222703,12.025356892358538,0,40000
1078956,39996.0,65535.0,39996.0,7238.0,8.0133516197723,18.324469864579783,0,40000
1078966,39766.0,65535.0,39766.0,7468.0,-2.0163895909198053,19.89809470822848,0,40000
1078976,45003.0,65535.0,34771.0,12463.0,-11.47536791153421,16.380351989347815,0,40000
1078986,65535.0,42178.0,8804.0,38430.0,-18.156616894297617,8.386731362915253,0,40000
1078996,65535.0,40199.0,7035.0,40199.0,-19.9272768805801,-1.7040059051241445,0,40000
1079006,53078.0,20382.0,26852.0,59688.0,-16.52439613761824,-11.26695754350159,0,40000
1079016,39805.0,7429.0,39805.0,65535.0,-8.829791120634601,-17.94532776981135,0,40000
1079026,53288.0,29698.0,26258.0,50756.0,1.0900241125720016,-19.97027409511476,0,40000
1079036,21616.0,25618.0,58352.0,54414.0,10.74587986233402,-16.8679004616545,0,40000
1079046,30601.0,19815.0,48491.0,61093.0,17.64486140113156,-9.41588371502418,0,40000
1079056,20451.0,26783.0,59029.0,53737.0,19.986297300929856,0.7402163189527269,0,40000
1079066,11263.0,35971.0,65535.0,44169.0,16.998625105364443,10.537871916438995,0,40000
1079076,7443.0,39791.0,65535.0,39791.0,9.631704308527562,17.527985398016842,0,40000
1079086,10303.0,43473.0,65535.0,36931.0,-0.26724026241995424,19.99821448635207,0,40000
1079096,18608.0,51706.0,61060.0,28626.0,-10.098296630097918,17.263383363945582,0,40000
1079106,26214.0,59574.0,53192.0,21020.0,-17.388966123987483,9.88047858855105,0,40000
1079116,33408.0,65535.0,46586.0,13866.0,-19.998284249967536,-0.261967664990112,0,40000
1079126,46268.0,57834.0,33696.0,22202.0,-17.22026506928981,-10.171650354952103,0,40000
1079136,54913.0,44023.0,24759.0,36305.0,-9.991972775884584,-17.32514011620054,0,40000
1079146,55338.0,32524.0,24564.0,47574.0,-0.18503379281436108,-19.999144044071404,0,40000
1079156,48595.0,22581.0,30905.0,57919.0,9.669702355992772,-17.507051617748427,0,40000
1079166,36211.0,19327.0,43637.0,60825.0,17.019303529729395,-10.50444226805691,0,40000
1079176,23199.0,24035.0,56075.0,56691.0,19.984850541586106,-0.778298676900807,0,40000
1079186,13469.0,33765.0,65535.0,46191.0,17.785135041727212,9.148167660658979,0,40000
1079196,7106.0,40128.0,65535.0,40128.0,10.998952114929006,16.703983128987492,0,40000
1079206,9724.0,42444.0,65535.0,37510.0,1.374943357038394,19.952682294993224,0,40000
1079216,18093.0,50969.0,61797.0,29141.0,-8.633348357268902,18.040656754731586,0,40000
1079226,26010.0,59494.0,53272.0,21224.0,-8.633348357268902,18.040656754731586,0,40000
1079236,33088.0,65535.0,46480.0,14146.0,-19.947018941836173,1.4547973515335377,0,40000
1079246,42976.0,62254.0,36382.0,18388.0,-17.96180403877601,-8.7962262176805,0,40000
1079256,51873.0,50369.0,29003.0,28755.0,-17.96180403877601,-8.7962262176805,0,40000
1079266,39729.0,7505.0,39729.0,65535.0,-11.121566393584498,-16.622597900240862,0,40000
1079276,48126.0,27436.0,31686.0,52752.0,-1.5558961901207917,-19.93938783026118,0,40000
1079286,36624.0,22382.0,42228.0,58766.0,8.50340431486025,-18.102268229645038,0,40000
1079296,7267.0,39967.0,65535.0,39967.0,16.356663183782068,-11.5091081102016,0,40000
1079306,7245.0,39989.0,65535.0,39989.0,19.912684198033975,-1.866817620810365,0,40000
1079316,11740.0,44332.0,65535.0,35494.0,18.248665916629008,8.184509286650165,0,40000
1079326,32910.0,65535.0,46700.0,14324.0,11.885860473691594,16.084971893041523,0,40000
1079336,39982.0,65535.0,39982.0,7252.0,2.2692292726203482,19.870847956448234,0,40000
1079346,39838.0,65535.0,39838.0,7396.0,-7.806198560635293,18.413670574655544,0,40000
1079356,57551.0,55215.0,21995.0,25239.0,-15.971722865315838,12.037610589878176,0,40000
1079366,32407.0,65535.0,46529.0,14827.0,-19.83704706141712,2.5478547609945275,0,40000
1079376,45245.0,61883.0,35245.0,17627.0,-18.453560522438636,-7.711426848819505,0,40000
1079386,52794.0,51914.0,26388.0,28904.0,-12.263397802927152,-15.79902130915588,0,40000
1079396,55587.0,37845.0,24727.0,41841.0,-2.8247920796053796,-19.79950882489257,0,40000
1079406,49237.0,27675.0,30139.0,52949.0,7.294855711794978,-18.622166365492824,0,40000
1079416,38478.0,24334.0,41088.0,56100.0,15.676556550783156,-12.419564191633206,0,40000
1079426,23134.0,24100.0,56136.0,56630.0,19.762838465077536,-3.070865643959676,0,40000
1079436,14339.0,32895.0,65535.0,47009.0,18.65830283985175,7.201925793590227,0,40000
1079446,7165.0,40069.0,65535.0,40069.0,12.64836004267221,15.492546215226636,0,40000
1079456,8922.0,41668.0,65535.0,38312.0,3.4215993084190166,19.70514293712752,0,40000
1079466,15953.0,48927.0,63839.0,31281.0,-6.68541483687171,18.849541863369932,0,40000
1079476,24648.0,57960.0,54806.0,22586.0,-15.101356329407228,13.112933958968613,0,40000
1079486,32223.0,65535.0,46463.0,15011.0,-19.59235878421927,4.0173968276019245,0,40000
1079496,38822.0,63332.0,40888.0,16958.0,-19.030028138791153,-6.152887861550623,0,40000
1079506,50140.0,52250.0,29810.0,27800.0,-13.53474095151499,-14.72449616711496,0,40000
1079516,54394.0,39836.0,25232.0,40538.0,-4.233397822680983,-19.546824368037893,0,40000
1079526,49532.0,29218.0,29786.0,51464.0,5.9543735244591005,-19.093072982922905,0,40000
1079536,40630.0,20940.0,38720.0,59710.0,14.532124327667988,-13.74108301864159,0,40000
1079546,26037.0,21197.0,53467.0,59299.0,19.4220969520152,-4.77306505157032,0,40000
1079556,18263.0,28971.0,60925.0,51841.0,19.245365727137834,5.442049065261027,0,40000
1079566,9052.0,38182.0,65535.0,41920.0,14.05645897869692,14.227296334167317,0,40000
1079576,25578.0,58002.0,54764.0,21656.0,4.976927119273808,19.370859465946182,0,40000
1079586,13198.0,46356.0,65535.0,34036.0,4.976927119273808,19.370859465946182,0,40000
1079596,39924.0,65535.0,39924.0,7310.0,-5.211254406882569,19.309138445480862,0,40000
1079606,54596.0,58170.0,24082.0,23152.0,-14.05458332225458,14.22914922396288,0,40000
1079616,65535.0,40089.0,7145.0,40089.0,-19.31990128020973,5.171210160392864,0,40000
1079626,50717.0,48449.0,28803.0,32031.0,-19.334265638452614,-5.117242638545731,0,40000
1079636,52360.0,47212.0,27924.0,32504.0,-14.324990730874784,-13.956885059365913,0,40000
1079646,55120.0,35000.0,23764.0,46116.0,-5.607215573883537,-19.197893986268333,0,40000
1079656,51679.0,24719.0,28121.0,55481.0,4.749552924260206,-19.427860073092234,0,40000
1079666,39330.0,17474.0,40078.0,63118.0,13.747699530892781,-14.525865124263353,0,40000
1079676,27158.0,20076.0,52424.0,60342.0,19.150180327057896,-5.7680666987444535,0,40000
1079686,15246.0,31988.0,64320.0,48446.0,19.509779678548988,4.400965450270771,0,40000
1079696,7236.0,39998.0,65535.0,39998.0,14.806622104547065,13.444848152847923,0,40000
1079706,6966.0,40268.0,65535.0,40268.0,6.320726002934317,18.97494197081588,0,40000
1079716,10933.0,43845.0,65535.0,36301.0,-4.018101222707732,19.59221433539544,0,40000
1079726,20249.0,53195.0,59571.0,26985.0,-13.41732086002456,14.831571088025362,0,40000
1079736,29229.0,62151.0,50615.0,18005.0,-19.13232419247152,5.827020764865097,0,40000
1079746,35025.0,65535.0,44865.0,12689.0,-19.52110660669167,-4.350447890755485,0,40000
1079756,44095.0,56407.0,35601.0,23897.0,-14.792434777769676,-13.46045591149981,0,40000
1079766,49833.0,43185.0,29733.0,37249.0,-6.254741971107398,-18.996794542102823,0,40000
1079776,47565.0,31271.0,31677.0,49487.0,3.877355197217185,-19.62055342426948,0,40000
1079786,39340.0,22880.0,40948.0,56832.0,13.05329040951365,-15.152940621704388,0,40000
1079796,28926.0,23782.0,50228.0,57064.0,18.828296006194726,-6.745018124743007,0,40000
1079806,17403.0,29831.0,62479.0,50287.0,19.70579865832309,3.41782083170431,0,40000
1079816,8485.0,38749.0,65535.0,41145.0,15.455950678324111,12.693052770283925,0,40000
1079826,7081.0,40153.0,65535.0,40153.0,6.878427632327712,18.77996893785585,0,40000
1079836,13005.0,45843.0,65535.0,34229.0,-3.226847330029522,19.73796991356207,0,40000
1079846,22095.0,55739.0,57027.0,25139.0,-12.514585144146249,15.60080634678586,0,40000
1079856,30212.0,62866.0,49900.0,17022.0,-18.567361359766455,7.433242370315364,0,40000
1079866,39338.0,64150.0,39878.0,16634.0,-19.798593758925495,-2.8311985393180086,0,40000
1079876,65535.0,39967.0,7267.0,39967.0,-15.864634644707127,-12.178397578908251,0,40000
1079886,59844.0,39518.0,19800.0,40838.0,-15.864634644707127,-12.178397578908251,0,40000
1079896,39786.0,7448.0,39786.0,65535.0,-7.684659404569666,-18.464723389094107,0,40000
1079906,39763.0,7471.0,39763.0,65535.0,2.9324756595637993,-19.783846605401738,0,40000
1079916,17958.0,29276.0,61442.0,51324.0,12.311621915186963,-15.76147092810465,0,40000
1079926,7315.0,39919.0,65535.0,39919.0,18.518778284461415,-7.5534661481309575,0,40000
1079936,7167.0,40067.0,65535.0,40067.0,19.838570203263277,2.535967722624731,0,40000
1079946,9639.0,37595.0,65535.0,42611.0,15.908897652811273,12.120518779011727,0,40000
1079956,8021.0,41273.0,65535.0,39213.0,7.861772617236287,18.39001172688244,0,40000
1079966,15080.0,47322.0,65444.0,32154.0,-2.2204044477895954,19.876362949197627,0,40000
1079976,22456.0,55712.0,57054.0,24778.0,-11.751477432163055,16.18341058495898,0,40000
1079986,29934.0,62636.0,50130.0,17300.0,-18.243169047462974,8.19675442511784,0,40000
1079996,34806.0,65535.0,44470.0,12428.0,-19.904374633871857,-1.9534253081391564,0,40000
1080006,46524.0,60714.0,33784.0,18978.0,-16.37168334792463,-11.487731906485605,0,40000
1080016,52075.0,49285.0,27491.0,31149.0,-8.60068754271772,-18.0562502694369,0,40000
1080026,51376.0,37506.0,28444.0,42674.0,1.4239582319353785,-19.949244169985576,0,40000
1080036,43223.0,26203.0,36753.0,53821.0,11.270125849631302,-16.522235421802712,0,40000
1080046,28814.0,24812.0,50552.0,55822.0,17.95135522000921,-8.817530593371828,0,40000
1080056,17718.0,29516.0,62410.0,50356.0,19.953027693355466,1.369921847475164,0,40000
1080066,7222.0,40012.0,65535.0,40806.0,16.5736564488073,11.194369652504257,0,40000
1080076,7248.0,39986.0,65535.0,39986.0,8.918717267142215,17.901298341427065,0,40000
1080086,12287.0,44999.0,65535.0,34947.0,-1.0483786563073818,19.97250365359834,0,40000
1080096,18889.0,52237.0,60529.0,28345.0,-10.758814217923739,16.85965351435794,0,40000
1080106,27224.0,59786.0,52980.0,20010.0,-17.71733907417774,9.278787427816992,0,40000
1080116,33099.0,65535.0,46377.0,14135.0,-19.990756692939232,-0.6079858910413188,0,40000
1080126,44578.0,58504.0,34974.0,21944.0,-17.086178540576714,-10.395311581647553,0,40000
1080136,53139.0,45747.0,26433.0,34681.0,-9.767321792280285,-17.45277699983721,0,40000
1080146,54992.0,32440.0,24700.0,47868.0,0.05464799756776304,-19.999925339769693,0,40000
1080156,46669.0,23087.0,32943.0,57301.0,9.887979826886,-17.38470175019104,0,40000
1080166,35919.0,18735.0,43655.0,61691.0,17.343193392270738,-9.960604547832258,0,40000
1080176,22892.0,24342.0,56654.0,56112.0,19.9997562113675,-0.09874961198418486,0,40000
1080186,12965.0,34269.0,65535.0,45993.0,19.9997562113675,-0.09874961198418486,0,40000
1080196,7251.0,39983.0,65535.0,39983.0,17.421316623622186,9.823325663923864,0,40000
1080206,9140.0,42916.0,65535.0,38094.0,10.297264073199333,17.145446993496503,0,40000
1080216,17667.0,49785.0,62981.0,29567.0,0.5123893886460095,19.993435350494494,0,40000
1080226,39831.0,65535.0,39831.0,7403.0,-9.493187246407665,17.603391602320357,0,40000
1080236,62986.0,49780.0,17000.0,30234.0,-19.9767946562145,0.9631590021589022,0,40000
1080246,65535.0,40352.0,6882.0,40352.0,-19.9767946562145,0.9631590021589022,0,40000
