timestamp,stabilizer.roll,stabilizer.pitch,stateEstimateZ.rateRoll,stateEstimateZ.ratePitch,controller.pitchRate,controller.rollRate,roll,pitch,yawdot,thrust
817903,-35.540462493896484,68.84331512451172,-1.0,1.0,-415.1252136230469,214.3090362548828,0,0,0,40000
817913,-35.576717376708984,68.84659576416016,-2.0,20.0,-417.21026611328125,215.5933074951172,0,0,0,40000
817923,-35.600887298583984,68.83109283447266,-9.0,-57.0,-419.1824035644531,216.80613708496094,0,0,0,40000
817933,-35.61126708984375,68.77690124511719,-14.0,-97.0,-420.9212951660156,217.9366455078125,0,0,0,40000
817943,-35.607948303222656,68.71450805664062,27.0,-215.0,-422.6091613769531,218.98509216308594,0,0,0,40000
817953,-35.39702224731445,68.48548126220703,8.0,-435.0,-423.29278564453125,218.78466796875,0,0,0,40000
817963,-35.150489807128906,68.25708770751953,-44.0,-654.0,-423.9729919433594,218.36306762695312,0,0,0,40000
817973,-34.45464324951172,67.71827697753906,-70.0,-1111.0,-422.77899169921875,215.23117065429688,0,0,0,40000
817983,-33.72529602050781,67.193115234375,-27.0,-1543.0,-421.65032958984375,211.87591552734375,0,0,0,40000
817993,-32.30050277709961,66.117431640625,-33.0,-2106.0,-417.19366455078125,204.3144989013672,0,0,0,40000
818003,-31.08833885192871,65.17424774169922,-53.0,-2708.0,-413.5013732910156,197.98890686035156,0,0,0,40000
818013,-28.95978546142578,63.36821365356445,-6.0,-3412.0,-404.5893249511719,186.11314392089844,0,0,0,40000
818023,-27.365245819091797,61.85615921020508,25.0,-4187.0,-397.39117431640625,177.38619995117188,0,0,0,40000
818033,-24.813356399536133,59.076751708984375,42.0,-4958.0,-382.52197265625,162.8500518798828,0,0,0,40000
818043,-23.057598114013672,56.847381591796875,83.0,-5829.0,-370.8784484863281,153.0282745361328,0,0,0,40000
818053,-20.477794647216797,52.9273681640625,191.0,-6704.0,-348.9951171875,138.19467163085938,0,0,0,40000
818063,-18.811595916748047,49.93089294433594,268.0,-7453.0,-332.55059814453125,128.78167724609375,0,0,0,40000
818073,-16.450660705566406,44.9571418762207,423.0,-8063.0,-304.1179504394531,115.13726806640625,0,0,0,40000
818083,-14.976451873779297,41.397377014160156,629.0,-8461.0,-284.0442810058594,106.75884246826172,0,0,0,40000
818093,-12.932770729064941,35.85012435913086,921.0,-8566.0,-251.9032440185547,94.90882873535156,0,0,0,40000
818103,-11.657675743103027,32.13821029663086,1166.0,-8415.0,-230.6404571533203,87.62319946289062,0,0,0,40000
818113,-9.831435203552246,26.696044921875,1435.0,-8038.0,-198.85293579101562,76.98236846923828,0,0,0,40000
818123,-8.648205757141113,23.27190399169922,1753.0,-7371.0,-179.0470428466797,70.15664672851562,0,0,0,40000
818133,-6.886759281158447,18.61042022705078,2052.0,-6555.0,-151.6907196044922,59.81573486328125,0,0,0,40000
818143,-5.7013092041015625,15.912246704101562,2281.0,-5462.0,-136.01084899902344,52.88835906982422,0,0,0,40000
818153,-3.8805339336395264,12.642138481140137,2474.0,-4195.0,-116.80607604980469,42.10205841064453,0,0,0,40000
818163,-2.648852825164795,11.045574188232422,2593.0,-2863.0,-107.57647705078125,34.806209564208984,0,0,0,40000
818173,-0.7868191003799438,9.536643981933594,2652.0,-1561.0,-98.82429504394531,23.679994583129883,0,0,0,40000
818183,0.4495960474014282,9.076869010925293,2662.0,-470.0,-96.34286499023438,16.262845993041992,0,0,0,40000
818193,2.2993013858795166,9.045506477355957,2593.0,354.0,-96.42472076416016,5.117666244506836,0,0,0,40000
818203,3.5005226135253906,9.343558311462402,2511.0,929.0,-98.48945617675781,-2.1802978515625,0,0,0,40000
818213,5.238840103149414,10.087655067443848,2392.0,1258.0,-103.24705505371094,-12.746713638305664,0,0,0,40000
818223,6.34467887878418,10.699945449829102,2262.0,1455.0,-107.23430633544922,-19.558897018432617,0,0,0,40000
818233,7.906861782073975,11.653206825256348,2064.0,1431.0,-113.29214477539062,-29.150859832763672,0,0,0,40000
818243,8.858118057250977,12.243424415588379,1857.0,1283.0,-117.19377136230469,-35.11286926269531,0,0,0,40000
818253,10.14526653289795,12.987693786621094,1638.0,1020.0,-122.04066467285156,-43.12513732910156,0,0,0,40000
818263,10.894146919250488,13.33792495727539,1407.0,649.0,-124.53816986083984,-47.93641662597656,0,0,0,40000
818273,11.84213638305664,13.559619903564453,1173.0,137.0,-126.2735595703125,-53.968807220458984,0,0,0,40000
818283,12.347366333007812,13.472692489624023,936.0,-428.0,-126.15751647949219,-57.36473083496094,0,0,0,40000
818293,12.909708023071289,12.942784309387207,684.0,-1078.0,-123.37409973144531,-61.11997985839844,0,0,0,40000
818303,13.142752647399902,12.286059379577637,415.0,-1774.0,-119.81057739257812,-62.909908294677734,0,0,0,40000
818313,13.297536849975586,10.848905563354492,185.0,-2473.0,-111.53184509277344,-64.2362060546875,0,0,0,40000
818323,13.27890396118164,9.629911422729492,-77.0,-2967.0,-104.52168273925781,-64.52318572998047,0,0,0,40000
818333,13.048460006713867,7.516645908355713,-319.0,-3299.0,-92.09361267089844,-63.53516387939453,0,0,0,40000
818343,12.793655395507812,6.004149436950684,-590.0,-3434.0,-83.21703338623047,-62.39333724975586,0,0,0,40000
818353,12.264718055725098,3.7277450561523438,-803.0,-3356.0,-69.69761657714844,-59.59430694580078,0,0,0,40000
818363,11.827510833740234,2.2784833908081055,-981.0,-3100.0,-61.08765411376953,-57.33122253417969,0,0,0,40000
818373,11.072986602783203,0.33326077461242676,-1174.0,-2669.0,-49.448787689208984,-53.145774841308594,0,0,0,40000
818383,10.49731159210205,-0.7656193375587463,-1345.0,-2173.0,-42.8454475402832,-50.01366424560547,0,0,0,40000
818393,9.554917335510254,-2.0603110790252686,-1435.0,-1660.0,-35.02995681762695,-44.65746307373047,0,0,0,40000
818403,8.887383460998535,-2.704817056655884,-1499.0,-1159.0,-31.089235305786133,-40.92692184448242,0,0,0,40000
818413,7.836990833282471,-3.3755626678466797,-1521.0,-730.0,-26.97054672241211,-34.872344970703125,0,0,0,40000
818423,7.1275177001953125,-3.633594036102295,-1540.0,-379.0,-25.316246032714844,-30.837886810302734,0,0,0,40000
818433,6.070981502532959,-3.819261074066162,-1517.0,-128.0,-24.08934783935547,-24.69345474243164,0,0,0,40000
818443,5.3908185958862305,-3.845210313796997,-1445.0,18.0,-23.818553924560547,-20.782318115234375,0,0,0,40000
818453,4.430351734161377,-3.819883108139038,-1346.0,95.0,-23.85545539855957,-15.163742065429688,0,0,0,40000
818463,3.833709716796875,-3.782256841659546,-1238.0,51.0,-23.967317581176758,-11.706001281738281,0,0,0,40000
818473,3.014312982559204,-3.780639886856079,-1131.0,-26.0,-23.863725662231445,-6.88960075378418,0,0,0,40000
818483,2.5245277881622314,-3.8334381580352783,-957.0,-179.0,-23.432636260986328,-4.032404899597168,0,0,0,40000
818493,1.904370665550232,-4.025817394256592,-823.0,-358.0,-22.16031265258789,-0.3757476806640625,0,0,0,40000
818503,1.5575488805770874,-4.225427627563477,-677.0,-520.0,-20.838359832763672,1.6543331146240234,0,0,0,40000
818513,1.1634461879730225,-4.643176078796387,-513.0,-674.0,-18.19792366027832,3.9796805381774902,0,0,0,40000
818523,0.9878713488578796,-4.993561744689941,-315.0,-802.0,-15.950094223022461,5.001532554626465,0,0,0,40000
818533,0.834121823310852,-5.58976936340332,-123.0,-879.0,-12.212387084960938,5.897705078125,0,0,0,40000
818543,0.8024892210960388,-6.001941680908203,27.0,-894.0,-9.564250946044922,6.063111782073975,0,0,0,40000
818553,0.8664435744285583,-6.600538730621338,110.0,-842.0,-5.7816925048828125,5.654265880584717,0,0,0,40000
818563,0.9900245070457458,-6.939466953277588,258.0,-680.0,-3.5439300537109375,4.884623050689697,0,0,0,40000
818573,1.244099736213684,-7.354597091674805,422.0,-524.0,-0.8371086120605469,3.326357841491699,0,0,0,40000
818583,1.45896315574646,-7.552495002746582,573.0,-351.0,0.5745849609375,1.9961185455322266,0,0,0,40000
818593,1.853251576423645,-7.727948188781738,594.0,-193.0,1.8573799133300781,-0.420379638671875,0,0,0,40000
818603,2.149977445602417,-7.773984432220459,607.0,-41.0,2.3663368225097656,-2.261730194091797,0,0,0,40000
818613,2.608013868331909,-7.7856035232543945,625.0,1.0,2.6695556640625,-5.082798004150391,0,0,0,40000
818623,2.9240047931671143,-7.776642322540283,706.0,33.0,2.849224090576172,-7.062620162963867,0,0,0,40000
818633,3.405287027359009,-7.745936870574951,683.0,44.0,2.897716522216797,-10.046714782714844,0,0,0,40000
818643,3.7214274406433105,-7.731837272644043,665.0,21.0,3.0452346801757812,-12.05141830444336,0,0,0,40000
818653,4.1784210205078125,-7.747968673706055,629.0,-49.0,3.3741455078125,-14.91334342956543,0,0,0,40000
818663,4.46074914932251,-7.789973735809326,585.0,-155.0,3.8592987060546875,-16.73779296875,0,0,0,40000
818673,4.845754146575928,-7.925033092498779,503.0,-207.0,4.905696868896484,-19.188743591308594,0,0,0,40000
818683,5.060606002807617,-8.033101081848145,431.0,-235.0,5.793800354003906,-20.627126693725586,0,0,0,40000
818693,5.329406261444092,-8.210127830505371,353.0,-272.0,7.100028991699219,-22.396732330322266,0,0,0,40000
818703,5.467017650604248,-8.339251518249512,259.0,-287.0,8.123390197753906,-23.384830474853516,0,0,0,40000
818713,5.618588924407959,-8.530346870422363,186.0,-259.0,9.523693084716797,-24.461162567138672,0,0,0,40000
818723,5.671513080596924,-8.64497184753418,67.0,-238.0,10.469440460205078,-24.948266983032227,0,0,0,40000
818733,5.693045139312744,-8.786819458007812,3.0,-187.0,11.582523345947266,-25.248157501220703,0,0,0,40000
818743,5.662722110748291,-8.8503999710083,-101.0,-101.0,12.22882080078125,-25.236526489257812,0,0,0,40000
818753,5.567834854125977,-8.9091215133667,-152.0,-67.0,12.847785949707031,-24.835487365722656,0,0,0,40000
818763,5.46812105178833,-8.938464164733887,-235.0,-45.0,13.291656494140625,-24.402488708496094,0,0,0,40000
818773,5.273032188415527,-8.980897903442383,-294.0,-47.0,13.815143585205078,-23.392602920532227,0,0,0,40000
818783,5.11271333694458,-9.01207447052002,-356.0,-42.0,14.272193908691406,-22.586027145385742,0,0,0,40000
818793,4.826830863952637,-9.045784950256348,-433.0,-26.0,14.745468139648438,-21.019180297851562,0,0,0,40000
818803,4.614092826843262,-9.062145233154297,-462.0,-21.0,15.115299224853516,-19.883750915527344,0,0,0,40000
818813,4.275855541229248,-9.061405181884766,-486.0,15.0,15.382743835449219,-17.986774444580078,0,0,0,40000
818823,4.040725231170654,-9.052420616149902,-503.0,26.0,15.600517272949219,-16.700031280517578,0,0,0,40000
818833,3.6814887523651123,-9.028112411499023,-493.0,47.0,15.725822448730469,-14.659309387207031,0,0,0,40000
818843,3.447960138320923,-9.008332252502441,-490.0,77.0,15.877655029296875,-13.36436939239502,0,0,0,40000
818853,3.1134047508239746,-8.956235885620117,-470.0,97.0,15.834430694580078,-11.454374313354492,0,0,0,40000
818863,2.895268440246582,-8.910927772521973,-469.0,111.0,15.8304443359375,-10.235050201416016,0,0,0,40000
818873,2.5839269161224365,-8.838338851928711,-436.0,113.0,15.660911560058594,-8.448209762573242,0,0,0,40000
818883,2.3888626098632812,-8.780614852905273,-383.0,149.0,15.578704833984375,-7.3517889976501465,0,0,0,40000
818893,2.1225526332855225,-8.674230575561523,-366.0,174.0,15.201957702636719,-5.820755958557129,0,0,0,40000
818903,1.962026834487915,-8.583759307861328,-303.0,220.0,14.91775131225586,-4.918366432189941,0,0,0,40000
818913,1.7632949352264404,-8.43570613861084,-265.0,234.0,14.284282684326172,-3.781130313873291,0,0,0,40000
818923,1.6599708795547485,-8.334436416625977,-220.0,254.0,13.92794418334961,-3.2122244834899902,0,0,0,40000
818933,1.5397530794143677,-8.178500175476074,-151.0,228.0,13.239486694335938,-2.5384092330932617,0,0,0,40000
818943,1.484709620475769,-8.087021827697754,-94.0,192.0,12.934326171875,-2.253322124481201,0,0,0,40000
818953,1.4330589771270752,-7.972705364227295,-45.0,163.0,12.488895416259766,-1.9869098663330078,0,0,0,40000
818963,1.4296971559524536,-7.906858921051025,13.0,133.0,12.331809997558594,-2.0096492767333984,0,0,0,40000
818973,1.4618418216705322,-7.81422758102417,74.0,123.0,12.011451721191406,-2.2458009719848633,0,0,0,40000
818983,1.5085402727127075,-7.768591403961182,118.0,113.0,11.971214294433594,-2.5706543922424316,0,0,0,40000
818993,1.610645055770874,-7.696700096130371,140.0,95.0,11.771537780761719,-3.2303638458251953,0,0,0,40000
819003,1.6898151636123657,-7.649792671203613,161.0,97.0,11.720138549804688,-3.755107879638672,0,0,0,40000
819013,1.81562340259552,-7.593790531158447,208.0,66.0,11.612510681152344,-4.562798500061035,0,0,0,40000
819023,1.9034101963043213,-7.566287994384766,213.0,69.0,11.67483901977539,-5.145537376403809,0,0,0,40000
819033,2.032749891281128,-7.493971824645996,190.0,127.0,11.466743469238281,-5.9810967445373535,0,0,0,40000
819043,2.122741937637329,-7.435486793518066,180.0,143.0,11.339607238769531,-6.583683490753174,0,0,0,40000
819053,2.251600742340088,-7.328075885772705,162.0,152.0,10.91622543334961,-7.422882556915283,0,0,0,40000
819063,2.333613395690918,-7.253547191619873,157.0,219.0,10.687602996826172,-7.983999252319336,0,0,0,40000
819073,2.443706750869751,-7.117414951324463,155.0,205.0,10.0859375,-8.716527938842773,0,0,0,40000
819083,2.5083963871002197,-7.034789085388184,112.0,185.0,9.802215576171875,-9.179177284240723,0,0,0,40000
819093,2.575153112411499,-6.907087802886963,89.0,178.0,9.244720458984375,-9.656232833862305,0,0,0,40000
819103,2.6118335723876953,-6.830008506774902,75.0,151.0,8.988044738769531,-9.954235076904297,0,0,0,40000
819113,2.6477551460266113,-6.753986358642578,42.0,95.0,8.735343933105469,-10.248851776123047,0,0,0,40000
819123,2.6628637313842773,-6.720829486846924,6.0,47.0,8.738426208496094,-10.419222831726074,0,0,0,40000
819133,2.6628482341766357,-6.722384452819824,-7.0,-2.0,8.949329376220703,-10.499066352844238,0,0,0,40000
819143,2.6508536338806152,-6.730081081390381,-33.0,-27.0,9.197303771972656,-10.506792068481445,0,0,0,40000
819153,2.6170706748962402,-6.7705817222595215,-65.0,-70.0,9.642837524414062,-10.383066177368164,0,0,0,40000
819163,2.57787823677063,-6.811425685882568,-75.0,-74.0,10.09176254272461,-10.225709915161133,0,0,0,40000
819173,2.5037753582000732,-6.854904651641846,-131.0,-47.0,10.557819366455078,-9.857223510742188,0,0,0,40000
819183,2.452998399734497,-6.851391315460205,-99.0,29.0,10.742366790771484,-9.626720428466797,0,0,0,40000
819193,2.352109432220459,-6.814422607421875,-168.0,73.0,10.72549819946289,-9.093267440795898,0,0,0,40000
819203,2.2687487602233887,-6.762458324432373,-176.0,129.0,10.61723518371582,-8.662175178527832,0,0,0,40000
819213,2.1394121646881104,-6.668002128601074,-194.0,162.0,10.251724243164062,-7.951911926269531,0,0,0,40000
819223,2.0427803993225098,-6.5981621742248535,-186.0,181.0,10.031482696533203,-7.434563636779785,0,0,0,40000
819233,1.898104190826416,-6.470470428466797,-232.0,195.0,9.461008071899414,-6.625309467315674,0,0,0,40000
819243,1.7938703298568726,-6.372920036315918,-231.0,205.0,9.06806755065918,-6.054978370666504,0,0,0,40000
819253,1.628078579902649,-6.253875732421875,-239.0,154.0,8.54269790649414,-5.111055374145508,0,0,0,40000
819263,1.518107295036316,-6.1913018226623535,-221.0,127.0,8.353738784790039,-4.498083114624023,0,0,0,40000
819273,1.3651041984558105,-6.130013465881348,-227.0,85.0,8.17054557800293,-3.6228628158569336,0,0,0,40000
819283,1.2605674266815186,-6.095400810241699,-207.0,89.0,8.146154403686523,-3.034682273864746,0,0,0,40000
819293,1.1083365678787231,-6.0660505294799805,-210.0,41.0,8.152313232421875,-2.156303882598877,0,0,0,40000
819303,1.022384762763977,-6.0441789627075195,-163.0,41.0,8.20269775390625,-1.672262191772461,0,0,0,40000
819313,0.9003954529762268,-6.031576633453369,-173.0,16.0,8.308113098144531,-0.968787670135498,0,0,0,40000
819323,0.8354913592338562,-6.018352508544922,-129.0,50.0,8.409496307373047,-0.6051778793334961,0,0,0,40000
819333,0.7630096673965454,-5.97815465927124,-78.0,79.0,8.348182678222656,-0.1938943862915039,0,0,0,40000
819343,0.7216420769691467,-5.929046630859375,-61.0,119.0,8.232015609741211,0.03217649459838867,0,0,0,40000
819353,0.6933724880218506,-5.838846683502197,-34.0,146.0,7.8671112060546875,0.18072509765625,0,0,0,40000
819363,0.6946598291397095,-5.758166313171387,-5.0,165.0,7.556766510009766,0.15218067169189453,0,0,0,40000
819373,0.6966251730918884,-5.675485610961914,18.0,127.0,7.231916427612305,0.11959409713745117,0,0,0,40000
819383,0.709493100643158,-5.620558738708496,55.0,130.0,7.071617126464844,0.021291255950927734,0,0,0,40000
819393,0.7348637580871582,-5.577420234680176,64.0,85.0,6.946897506713867,-0.14841318130493164,0,0,0,40000
819403,0.7826743721961975,-5.517975330352783,94.0,70.0,6.756429672241211,-0.4581313133239746,0,0,0,40000
819413,0.8272835612297058,-5.495184898376465,96.0,52.0,6.784828186035156,-0.7500672340393066,0,0,0,40000
819423,0.9043508768081665,-5.48289680480957,125.0,13.0,6.908546447753906,-1.2440357208251953,0,0,0,40000
819433,0.960483729839325,-5.4795637130737305,103.0,25.0,7.020101547241211,-1.6035380363464355,0,0,0,40000
819443,1.0464396476745605,-5.433461666107178,144.0,97.0,6.907199859619141,-2.1495604515075684,0,0,0,40000
819453,1.1088812351226807,-5.384990692138672,158.0,143.0,6.778524398803711,-2.5567264556884766,0,0,0,40000
819463,1.2132161855697632,-5.278757572174072,151.0,175.0,6.300868988037109,-3.2179484367370605,0,0,0,40000
819473,1.2795733213424683,-5.19042444229126,134.0,205.0,5.927654266357422,-3.653682231903076,0,0,0,40000
819483,1.3703409433364868,-5.043545246124268,112.0,202.0,5.199436187744141,-4.238378524780273,0,0,0,40000
819493,1.4234980344772339,-4.949065685272217,110.0,230.0,4.782155990600586,-4.599377155303955,0,0,0,40000
819503,1.4911185503005981,-4.8045220375061035,82.0,204.0,4.060710906982422,-5.049093246459961,0,0,0,40000
819513,1.520542860031128,-4.715710163116455,45.0,199.0,3.6703758239746094,-5.270941734313965,0,0,0,40000
819523,1.5483967065811157,-4.584371089935303,28.0,178.0,3.021442413330078,-5.4842209815979,0,0,0,40000
819533,1.5589370727539062,-4.51327657699585,4.0,145.0,2.731088638305664,-5.5941243171691895,0,0,0,40000
819543,1.5586966276168823,-4.433434963226318,-7.0,86.0,2.3858890533447266,-5.639488220214844,0,0,0,40000
819553,1.540793776512146,-4.410630226135254,-45.0,27.0,2.3816070556640625,-5.5785322189331055,0,0,0,40000
819563,1.5006579160690308,-4.4162516593933105,-58.0,-42.0,2.5476436614990234,-5.383244514465332,0,0,0,40000
819573,1.4653282165527344,-4.444009780883789,-91.0,-79.0,2.847156524658203,-5.215649604797363,0,0,0,40000
819583,1.395821213722229,-4.516224384307861,-117.0,-107.0,3.415019989013672,-4.841404438018799,0,0,0,40000
819593,1.3376132249832153,-4.571963787078857,-141.0,-124.0,3.885946273803711,-4.532993316650391,0,0,0,40000
819603,1.2319508790969849,-4.646874904632568,-145.0,-99.0,4.4740447998046875,-3.937241315841675,0,0,0,40000
819613,1.1597782373428345,-4.690706253051758,-152.0,-66.0,4.8772430419921875,-3.539872646331787,0,0,0,40000
819623,1.044945478439331,-4.732640266418457,-168.0,-35.0,5.270406723022461,-2.883650064468384,0,0,0,40000
819633,0.9630497694015503,-4.741969585418701,-171.0,2.0,5.468559265136719,-2.4221649169921875,0,0,0,40000
819643,0.853302538394928,-4.716535568237305,-142.0,47.0,5.457889556884766,-1.7905349731445312,0,0,0,40000
819653,0.7816738486289978,-4.6807074546813965,-146.0,92.0,5.3838043212890625,-1.385073184967041,0,0,0,40000
819663,0.6899617910385132,-4.61994743347168,-124.0,83.0,5.158592224121094,-0.8566012382507324,0,0,0,40000
819673,0.6302264928817749,-4.589842796325684,-122.0,62.0,5.11601448059082,-0.5178234577178955,0,0,0,40000
819683,0.5531173348426819,-4.5539655685424805,-105.0,45.0,5.03779411315918,-0.072662353515625,0,0,0,40000
819693,0.5181849002838135,-4.533577919006348,-73.0,66.0,5.051694869995117,0.12099075317382812,0,0,0,40000
819703,0.47802865505218506,-4.494261264801025,-61.0,40.0,4.951030731201172,0.3471195697784424,0,0,0,40000
819713,0.4615241289138794,-4.47029972076416,-9.0,72.0,4.941667556762695,0.4321558475494385,0,0,0,40000
819723,0.45339781045913696,-4.430593013763428,0.0,74.0,4.836774826049805,0.4671952724456787,0,0,0,40000
819733,0.4536150097846985,-4.379428386688232,-2.0,127.0,4.661796569824219,0.45226335525512695,0,0,0,40000
819743,0.4646187424659729,-4.2939958572387695,26.0,175.0,4.279197692871094,0.3724961280822754,0,0,0,40000
819753,0.4844343066215515,-4.21707820892334,60.0,165.0,3.945100784301758,0.23930740356445312,0,0,0,40000
819763,0.5214521884918213,-4.115135192871094,55.0,140.0,3.4580421447753906,0.002027750015258789,0,0,0,40000
819773,0.5502111315727234,-4.063365459442139,68.0,74.0,3.2699012756347656,-0.18667364120483398,0,0,0,40000
819783,0.602931797504425,-4.041546821594238,88.0,7.0,3.260303497314453,-0.520418643951416,0,0,0,40000
819793,0.6448065638542175,-4.05215311050415,91.0,-47.0,3.445323944091797,-0.7905025482177734,0,0,0,40000
819803,0.7090510129928589,-4.110911846160889,106.0,-96.0,3.920381546020508,-1.19642972946167,0,0,0,40000
819813,0.7581111192703247,-4.160190582275391,115.0,-109.0,4.340282440185547,-1.5129480361938477,0,0,0,40000
819823,0.8178399205207825,-4.248960494995117,83.0,-134.0,4.999227523803711,-1.8952357769012451,0,0,0,40000
819833,0.8599938750267029,-4.309032917022705,77.0,-133.0,5.488252639770508,-2.1734724044799805,0,0,0,40000
819843,0.9167986512184143,-4.3864898681640625,63.0,-80.0,6.083793640136719,-2.5411062240600586,0,0,0,40000
819853,0.9501113891601562,-4.425231456756592,67.0,-84.0,6.448598861694336,-2.7690436840057373,0,0,0,40000
819863,0.9934850335121155,-4.4942755699157715,62.0,-71.0,6.9968719482421875,-3.058523178100586,0,0,0,40000
819873,1.0231658220291138,-4.519248962402344,53.0,-51.0,7.282007217407227,-3.2669856548309326,0,0,0,40000
819883,1.048895001411438,-4.524343490600586,22.0,9.0,7.44830322265625,-3.4526214599609375,0,0,0,40000
819893,1.0592414140701294,-4.508228302001953,11.0,75.0,7.487096786499023,-3.546380043029785,0,0,0,40000
819903,1.0694937705993652,-4.431788921356201,-1.0,158.0,7.162452697753906,-3.6398468017578125,0,0,0,40000
819913,1.067800760269165,-4.337910175323486,-9.0,235.0,6.730499267578125,-3.6617391109466553,0,0,0,40000
819923,1.0698808431625366,-4.1613616943359375,-12.0,262.0,5.798145294189453,-3.7062997817993164,0,0,0,40000
819933,1.0497651100158691,-4.031728267669678,-63.0,306.0,5.142913818359375,-3.6173746585845947,0,0,0,40000
819943,1.0072503089904785,-3.8255550861358643,-35.0,301.0,4.023035049438477,-3.392974853515625,0,0,0,40000
819953,0.98131263256073,-3.709944725036621,-58.0,277.0,3.4420413970947266,-3.2670979499816895,0,0,0,40000
819963,0.9366258382797241,-3.5506958961486816,-60.0,210.0,2.594789505004883,-3.0276410579681396,0,0,0,40000
819973,0.915544331073761,-3.4853193759918213,-75.0,121.0,2.3078346252441406,-2.928863525390625,0,0,0,40000
819983,0.8685216903686523,-3.4281647205352783,-64.0,26.0,2.068216323852539,-2.67331600189209,0,0,0,40000
819993,0.8346452713012695,-3.423816204071045,-58.0,-3.0,2.1448745727539062,-2.4954841136932373,0,0,0,40000
820003,0.79398512840271,-3.4448485374450684,-39.0,-55.0,2.374002456665039,-2.2758402824401855,0,0,0,40000
820013,0.769302248954773,-3.484487771987915,-62.0,-107.0,2.7158756256103516,-2.151136636734009,0,0,0,40000
820023,0.7248125672340393,-3.559157133102417,-66.0,-112.0,3.2697372436523438,-1.9064931869506836,0,0,0,40000
820033,0.6976519823074341,-3.612274646759033,-61.0,-93.0,3.696187973022461,-1.7647855281829834,0,0,0,40000
820043,0.6599903106689453,-3.649296522140503,-65.0,1.0,4.027587890625,-1.5590753555297852,0,0,0,40000
820053,0.6283471584320068,-3.642880916595459,-52.0,65.0,4.098514556884766,-1.3884363174438477,0,0,0,40000
820063,0.5874331593513489,-3.5770509243011475,-57.0,129.0,3.8117942810058594,-1.161086082458496,0,0,0,40000
820073,0.5676529407501221,-3.509145975112915,-25.0,144.0,3.510438919067383,-1.0596504211425781,0,0,0,40000
820083,0.5400305390357971,-3.4086272716522217,-55.0,184.0,3.0108909606933594,-0.9105350971221924,0,0,0,40000
820093,0.5325590372085571,-3.3170039653778076,-22.0,197.0,2.5618209838867188,-0.8817746639251709,0,0,0,40000
820103,0.5152931809425354,-3.1990814208984375,-31.0,135.0,1.9514961242675781,-0.793837308883667,0,0,0,40000
820113,0.5019561052322388,-3.1441845893859863,-1.0,102.0,1.7170944213867188,-0.7290005683898926,0,0,0,40000
820123,0.5018535256385803,-3.0932958126068115,4.0,53.0,1.5050849914550781,-0.7434172630310059,0,0,0,40000
820133,0.4984532594680786,-3.0857293605804443,-1.0,-22.0,1.5523147583007812,-0.7380282878875732,0,0,0,40000
820143,0.491375207901001,-3.1137683391571045,-14.0,-40.0,1.8135566711425781,-0.7104451656341553,0,0,0,40000
820153,0.49174559116363525,-3.136176586151123,-14.0,-53.0,2.041820526123047,-0.727424144744873,0,0,0,40000
820163,0.48968005180358887,-3.190896987915039,-9.0,-83.0,2.4651336669921875,-0.7297449111938477,0,0,0,40000
820173,0.4887303411960602,-3.240415334701538,6.0,-88.0,2.8588523864746094,-0.7386918067932129,0,0,0,40000
820183,0.48208537697792053,-3.315587043762207,1.0,-123.0,3.408323287963867,-0.7133793830871582,0,0,0,40000
820193,0.48448750376701355,-3.362196445465088,19.0,-85.0,3.7883377075195312,-0.742304801940918,0,0,0,40000
820203,0.49335020780563354,-3.4242031574249268,2.0,-81.0,4.2623291015625,-0.8102245330810547,0,0,0,40000
820213,0.49956056475639343,-3.449896812438965,0.0,-50.0,4.51970100402832,-0.8624320030212402,0,0,0,40000
820223,0.5160236954689026,-3.4661693572998047,34.0,-17.0,4.721105575561523,-0.9763956069946289,0,0,0,40000
820233,0.5258909463882446,-3.466771125793457,24.0,27.0,4.828734397888184,-1.0512382984161377,0,0,0,40000
820243,0.5340755581855774,-3.4249205589294434,16.0,91.0,4.680999755859375,-1.116217851638794,0,0,0,40000
820253,0.5326710343360901,-3.359769105911255,-2.0,150.0,4.391700744628906,-1.1238114833831787,0,0,0,40000
820263,0.5262573957443237,-3.23616361618042,-10.0,179.0,3.748615264892578,-1.1012108325958252,0,0,0,40000
820273,0.5188512206077576,-3.145556926727295,4.0,206.0,3.3004608154296875,-1.0724036693572998,0,0,0,40000
820283,0.5061113238334656,-3.009700298309326,-24.0,182.0,2.577136993408203,-1.0113494396209717,0,0,0,40000
820293,0.49212920665740967,-2.9307472705841064,-25.0,156.0,2.192275047302246,-0.9423997402191162,0,0,0,40000
820303,0.471790075302124,-2.840104341506958,-36.0,119.0,1.7345943450927734,-0.8347499370574951,0,0,0,40000
820313,0.4547811448574066,-2.8181662559509277,-54.0,18.0,1.687739372253418,-0.7465510368347168,0,0,0,40000
820323,0.41358381509780884,-2.8440964221954346,-71.0,-73.0,1.9281177520751953,-0.5123004913330078,0,0,0,40000
820333,0.3901650309562683,-2.8939523696899414,-44.0,-127.0,2.3134403228759766,-0.3837311267852783,0,0,0,40000
820343,0.3571215867996216,-2.9961419105529785,-59.0,-153.0,3.0151233673095703,-0.19662272930145264,0,0,0,40000
820353,0.33297285437583923,-3.0787668228149414,-43.0,-168.0,3.6022253036499023,-0.06200766563415527,0,0,0,40000
820363,0.29024019837379456,-3.200385570526123,-81.0,-164.0,4.426464080810547,0.1850346326828003,0,0,0,40000
820373,0.2670227587223053,-3.2669310569763184,-40.0,-159.0,4.922961235046387,0.31607508659362793,0,0,0,40000
820383,0.23837338387966156,-3.3659520149230957,-18.0,-110.0,5.617027282714844,0.4805964231491089,0,0,0,40000
820393,0.22528523206710815,-3.3999626636505127,-26.0,-61.0,5.922691345214844,0.5521818399429321,0,0,0,40000
820403,0.20195811986923218,-3.418854236602783,-34.0,2.0,6.138528823852539,0.6858072280883789,0,0,0,40000
820413,0.18956905603408813,-3.408672332763672,-24.0,46.0,6.179832458496094,0.7542880773544312,0,0,0,40000
820423,0.17772957682609558,-3.3445613384246826,-17.0,130.0,5.896474838256836,0.8198869228363037,0,0,0,40000
820433,0.17452950775623322,-3.266284942626953,-6.0,184.0,5.525785446166992,0.8338141441345215,0,0,0,40000
820443,0.16535893082618713,-3.130418300628662,-2.0,229.0,4.806242942810059,0.8837948441505432,0,0,0,40000
820453,0.1739915907382965,-3.0109670162200928,24.0,281.0,4.181323051452637,0.8269023895263672,0,0,0,40000
820463,0.20334689319133759,-2.822871685028076,30.0,270.0,3.139634132385254,0.6449333429336548,0,0,0,40000
820473,0.21924464404582977,-2.7106471061706543,40.0,215.0,2.5488929748535156,0.543161153793335,0,0,0,40000
820483,0.24179184436798096,-2.5662639141082764,35.0,195.0,1.7612895965576172,0.40090835094451904,0,0,0,40000
820493,0.26364532113075256,-2.49655818939209,55.0,111.0,1.418701171875,0.262134313583374,0,0,0,40000
820503,0.29396018385887146,-2.4630253314971924,31.0,22.0,1.291646957397461,0.07174277305603027,0,0,0,40000
820513,0.31704995036125183,-2.4838993549346924,37.0,-72.0,1.4911069869995117,-0.07603335380554199,0,0,0,40000
820523,0.336160808801651,-2.5572712421417236,33.0,-106.0,2.0071325302124023,-0.20053625106811523,0,0,0,40000
820533,0.34859034419059753,-2.6189279556274414,38.0,-125.0,2.454897880554199,-0.285412073135376,0,0,0,40000
820543,0.3714301586151123,-2.706171989440918,18.0,-101.0,3.058572769165039,-0.4334167242050171,0,0,0,40000
820553,0.3822956085205078,-2.738407850265503,32.0,-57.0,3.3337650299072266,-0.5099611282348633,0,0,0,40000
820563,0.40255579352378845,-2.7492127418518066,3.0,13.0,3.4810943603515625,-0.6433632373809814,0,0,0,40000
820573,0.4141576886177063,-2.738361120223999,38.0,36.0,3.4982595443725586,-0.7251849174499512,0,0,0,40000
820583,0.4125881493091583,-2.6711831092834473,-22.0,138.0,3.1763486862182617,-0.7282774448394775,0,0,0,40000
820593,0.39648836851119995,-2.590599298477173,-31.0,186.0,2.7715835571289062,-0.6437785625457764,0,0,0,40000
820603,0.38444823026657104,-2.4710607528686523,-25.0,168.0,2.129817008972168,-0.583214521408081,0,0,0,40000
820613,0.3691920042037964,-2.413567066192627,-23.0,91.0,1.857919692993164,-0.5029153823852539,0,0,0,40000
820623,0.3416621685028076,-2.3849823474884033,-42.0,36.0,1.7581901550292969,-0.34834980964660645,0,0,0,40000
820633,0.326272577047348,-2.3682143688201904,-46.0,13.0,1.7288169860839844,-0.2659928798675537,0,0,0,40000
820643,0.3045831322669983,-2.3723931312561035,-51.0,-39.0,1.8248357772827148,-0.1453005075454712,0,0,0,40000
820653,0.28227218985557556,-2.4006083011627197,-57.0,-62.0,2.0658206939697266,-0.020170211791992188,0,0,0,40000
820663,0.2511369287967682,-2.4473085403442383,-32.0,-90.0,2.418804168701172,0.15880942344665527,0,0,0,40000
820673,0.23268133401870728,-2.4777278900146484,-35.0,-56.0,2.675302505493164,0.26231157779693604,0,0,0,40000
820683,0.2060154229402542,-2.5078799724578857,-39.0,-11.0,2.931203842163086,0.41581201553344727,0,0,0,40000
820693,0.1978609710931778,-2.5072832107543945,-23.0,24.0,3.002866744995117,0.45870721340179443,0,0,0,40000
820703,0.181537464261055,-2.489574432373047,-25.0,45.0,2.9715576171875,0.5509960651397705,0,0,0,40000
820713,0.16884475946426392,-2.471722364425659,-10.0,74.0,2.9388551712036133,0.6219478845596313,0,0,0,40000
820723,0.1619066298007965,-2.4135894775390625,-13.0,101.0,2.663201332092285,0.6585847735404968,0,0,0,40000
820733,0.1649605929851532,-2.3649344444274902,-9.0,124.0,2.4428043365478516,0.6353380084037781,0,0,0,40000
820743,0.16721028089523315,-2.2717981338500977,22.0,148.0,1.9533138275146484,0.6169459819793701,0,0,0,40000
820753,0.17062745988368988,-2.218296527862549,27.0,123.0,1.699493408203125,0.5913861989974976,0,0,0,40000
820763,0.19602741301059723,-2.1443631649017334,59.0,104.0,1.3210945129394531,0.4334958791732788,0,0,0,40000
820773,0.22046902775764465,-2.097832202911377,68.0,110.0,1.1054105758666992,0.28052425384521484,0,0,0,40000
820783,0.26231420040130615,-2.019911289215088,57.0,119.0,0.6994905471801758,0.022028207778930664,0,0,0,40000
820793,0.2891084551811218,-1.9595870971679688,70.0,120.0,0.3970489501953125,-0.1470552682876587,0,0,0,40000
820803,0.33585596084594727,-1.8783079385757446,66.0,107.0,-0.03334617614746094,-0.43707168102264404,0,0,0,40000
820813,0.36117786169052124,-1.8583205938339233,65.0,54.0,-0.0972900390625,-0.5995206832885742,0,0,0,40000
820823,0.405551552772522,-1.8402866125106812,54.0,5.0,-0.15016555786132812,-0.8774497509002686,0,0,0,40000
820833,0.4341489374637604,-1.852524995803833,43.0,-19.0,-0.02132701873779297,-1.0617427825927734,0,0,0,40000
820843,0.47616833448410034,-1.866142988204956,73.0,-30.0,0.11615180969238281,-1.3275761604309082,0,0,0,40000
820853,0.5024493336677551,-1.9047578573226929,51.0,-102.0,0.40448570251464844,-1.5000202655792236,0,0,0,40000
820863,0.5372517108917236,-1.9933995008468628,54.0,-131.0,0.9950199127197266,-1.7245466709136963,0,0,0,40000
820873,0.5590527057647705,-2.0449907779693604,45.0,-72.0,1.365377426147461,-1.871837854385376,0,0,0,40000
820883,0.5845164656639099,-2.082582473754883,37.0,-39.0,1.6530208587646484,-2.0418472290039062,0,0,0,40000
820893,0.5968162417411804,-2.0893354415893555,28.0,36.0,1.7561759948730469,-2.1334152221679688,0,0,0,40000
820903,0.6229902505874634,-2.0595862865448,14.0,54.0,1.6398124694824219,-2.308932304382324,0,0,0,40000
820913,0.6271553039550781,-2.0330653190612793,10.0,66.0,1.5420198440551758,-2.3527045249938965,0,0,0,40000
820923,0.6275560855865479,-1.9849027395248413,-26.0,133.0,1.3010101318359375,-2.3701796531677246,0,0,0,40000
820933,0.6206132173538208,-1.8857662677764893,-9.0,168.0,0.7754058837890625,-2.35087251663208,0,0,0,40000
820943,0.6120217442512512,-1.8124232292175293,-3.0,167.0,0.3792543411254883,-2.3140578269958496,0,0,0,40000
820953,0.6017640829086304,-1.6942973136901855,-20.0,155.0,-0.26708126068115234,-2.2743656635284424,0,0,0,40000
820963,0.5881351232528687,-1.6312799453735352,-33.0,112.0,-0.6057071685791016,-2.206806182861328,0,0,0,40000
820973,0.5667302012443542,-1.5752850770950317,-19.0,81.0,-0.8843259811401367,-2.0990395545959473,0,0,0,40000
820983,0.5578913688659668,-1.5658414363861084,-39.0,8.0,-0.9033908843994141,-2.0594756603240967,0,0,0,40000
820993,0.5279824733734131,-1.5791397094726562,-42.0,-62.0,-0.7670249938964844,-1.8994163274765015,0,0,0,40000
821003,0.5085107684135437,-1.621774435043335,-42.0,-126.0,-0.4725933074951172,-1.7948869466781616,0,0,0,40000
821013,0.4788859486579895,-1.7235088348388672,-47.0,-171.0,0.1985015869140625,-1.6347630023956299,0,0,0,40000
821023,0.4611157774925232,-1.8047504425048828,-48.0,-176.0,0.7287559509277344,-1.5393140316009521,0,0,0,40000
821033,0.43726104497909546,-1.904772162437439,-41.0,-81.0,1.3964242935180664,-1.4121606349945068,0,0,0,40000
821043,0.4150562286376953,-1.9417644739151,-64.0,-56.0,1.6647624969482422,-1.2890667915344238,0,0,0,40000
821053,0.3772653639316559,-1.949942946434021,-50.0,30.0,1.784149169921875,-1.0763401985168457,0,0,0,40000
821063,0.3557645380496979,-1.939084768295288,-50.0,25.0,1.7655982971191406,-0.9560092687606812,0,0,0,40000
821073,0.3178580701351166,-1.9053698778152466,-56.0,65.0,1.6323776245117188,-0.7405061721801758,0,0,0,40000
821083,0.2900477647781372,-1.8617832660675049,-67.0,96.0,1.4158496856689453,-0.5807723999023438,0,0,0,40000
821093,0.25787949562072754,-1.7936820983886719,-47.0,101.0,1.0726118087768555,-0.3974064588546753,0,0,0,40000
821103,0.23987136781215668,-1.7548762559890747,-31.0,52.0,0.8821172714233398,-0.2952216863632202,0,0,0,40000
821113,0.21747632324695587,-1.7233705520629883,-31.0,31.0,0.755467414855957,-0.1689291000366211,0,0,0,40000
821123,0.202091783285141,-1.7147343158721924,-17.0,19.0,0.7448520660400391,-0.08155369758605957,0,0,0,40000
821133,0.197763592004776,-1.706010103225708,10.0,16.0,0.7437887191772461,-0.06149113178253174,0,0,0,40000
821143,0.20267893373966217,-1.702871561050415,2.0,-6.0,0.7760772705078125,-0.09701335430145264,0,0,0,40000
821153,0.21481391787528992,-1.7125996351242065,23.0,-24.0,0.8856363296508789,-0.1760845184326172,0,0,0,40000
821163,0.22763857245445251,-1.7178837060928345,26.0,3.0,0.9688396453857422,-0.2596994638442993,0,0,0,40000
821173,0.24191169440746307,-1.6804858446121216,32.0,68.0,0.7954549789428711,-0.3524031639099121,0,0,0,40000
821183,0.2389792948961258,-1.660107970237732,28.0,65.0,0.7232208251953125,-0.34202075004577637,0,0,0,40000
821193,0.24482221901416779,-1.5986663103103638,23.0,116.0,0.40338611602783203,-0.3844122886657715,0,0,0,40000
821203,0.25558409094810486,-1.5496594905853271,27.0,127.0,0.15644168853759766,-0.4565389156341553,0,0,0,40000
821213,0.2768647372722626,-1.4625415802001953,30.0,110.0,-0.3213977813720703,-0.5922368764877319,0,0,0,40000
821223,0.2898862659931183,-1.4189001321792603,8.0,91.0,-0.5401725769042969,-0.6789035797119141,0,0,0,40000
821233,0.3047645390033722,-1.367508888244629,31.0,59.0,-0.8069639205932617,-0.7770980596542358,0,0,0,40000
821243,0.30929574370384216,-1.351893424987793,6.0,17.0,-0.8599071502685547,-0.8135273456573486,0,0,0,40000
821253,0.30881601572036743,-1.3614193201065063,-9.0,-49.0,-0.762176513671875,-0.8199347257614136,0,0,0,40000
821263,0.30584442615509033,-1.3952467441558838,-2.0,-105.0,-0.5178060531616211,-0.8113076686859131,0,0,0,40000
821273,0.30504921078681946,-1.485855221748352,10.0,-157.0,0.06922054290771484,-0.815615177154541,0,0,0,40000
821283,0.30707240104675293,-1.5630220174789429,4.0,-182.0,0.5781764984130859,-0.8369355201721191,0,0,0,40000
821293,0.3044969141483307,-1.6887238025665283,-8.0,-212.0,1.3814640045166016,-0.830659806728363,0,0,0,40000
821303,0.3054332733154297,-1.7771408557891846,-17.0,-209.0,1.9642114639282227,-0.8454165458679199,0,0,0,40000
821313,0.3092198967933655,-1.9047068357467651,3.0,-150.0,2.7853517532348633,-0.8773329257965088,0,0,0,40000
821323,0.30189815163612366,-1.9567404985427856,4.0,-49.0,3.1556806564331055,-0.8425321578979492,0,0,0,40000
821333,0.2994358539581299,-1.9638679027557373,7.0,39.0,3.2574424743652344,-0.8367871046066284,0,0,0,40000
821343,0.29786452651023865,-1.9353959560394287,-11.0,106.0,3.1450729370117188,-0.8363418579101562,0,0,0,40000
821353,0.29701581597328186,-1.8350749015808105,-28.0,178.0,2.599604606628418,-0.8401714563369751,0,0,0,40000
821363,0.29133114218711853,-1.7472604513168335,-14.0,201.0,2.126230239868164,-0.8148648738861084,0,0,0,40000
821373,0.28017377853393555,-1.6129978895187378,-14.0,190.0,1.370650291442871,-0.7564469575881958,0,0,0,40000
821383,0.2701510787010193,-1.5415432453155518,-19.0,143.0,0.9889869689941406,-0.7045474648475647,0,0,0,40000
821393,0.24784652888774872,-1.4435018301010132,-44.0,115.0,0.4451637268066406,-0.5785002708435059,0,0,0,40000
821403,0.22984491288661957,-1.4095507860183716,-58.0,58.0,0.2841215133666992,-0.47760725021362305,0,0,0,40000
821413,0.2048586755990982,-1.378933310508728,-30.0,31.0,0.14209365844726562,-0.3340545892715454,0,0,0,40000
821423,0.18957805633544922,-1.3641198873519897,-40.0,29.0,0.09434890747070312,-0.2482200264930725,0,0,0,40000
821433,0.1513848900794983,-1.3496549129486084,-45.0,21.0,0.04822731018066406,-0.024057507514953613,0,0,0,40000
821443,0.12751975655555725,-1.349927306175232,-72.0,-18.0,0.09032726287841797,0.11497628688812256,0,0,0,40000
821453,0.08848217874765396,-1.3681488037109375,-80.0,-35.0,0.24045944213867188,0.3460651636123657,0,0,0,40000
821463,0.05918271839618683,-1.3857519626617432,-60.0,-16.0,0.3874502182006836,0.519775390625,0,0,0,40000
821473,0.0048124780878424644,-1.393723487854004,-61.0,5.0,0.47704601287841797,0.8452074527740479,0,0,0,40000
821483,-0.029004773125052452,-1.3950066566467285,-60.0,35.0,0.5265955924987793,1.0485907793045044,0,0,0,40000
821493,-0.07917488366365433,-1.373355507850647,-80.0,30.0,0.43814563751220703,1.3513236045837402,0,0,0,40000
821503,-0.10942921042442322,-1.365437626838684,-62.0,23.0,0.4316720962524414,1.5358006954193115,0,0,0,40000
821513,-0.14868228137493134,-1.3508447408676147,-64.0,11.0,0.38484811782836914,1.7753243446350098,0,0,0,40000
821523,-0.18011124432086945,-1.359634280204773,-42.0,-23.0,0.47824764251708984,1.9689505100250244,0,0,0,40000
821533,-0.21920117735862732,-1.3753029108047485,-29.0,-32.0,0.6132850646972656,2.209618091583252,0,0,0,40000
821543,-0.24168644845485687,-1.4050194025039673,-43.0,-69.0,0.833341121673584,2.3514907360076904,0,0,0,40000
821553,-0.25775963068008423,-1.4562208652496338,-26.0,-71.0,1.1835970878601074,2.4554920196533203,0,0,0,40000
821563,-0.26421692967414856,-1.5030436515808105,-12.0,-89.0,1.5090436935424805,2.5021140575408936,0,0,0,40000
821573,-0.26588737964630127,-1.5505640506744385,3.0,-68.0,1.840169906616211,2.520127296447754,0,0,0,40000
821583,-0.2705099880695343,-1.5790883302688599,2.0,-35.0,2.058345317840576,2.5559070110321045,0,0,0,40000
821593,-0.27617397904396057,-1.5988197326660156,-12.0,7.0,2.2245984077453613,2.5980701446533203,0,0,0,40000
821603,-0.28193745017051697,-1.5878727436065674,-8.0,47.0,2.2067174911499023,2.6410584449768066,0,0,0,40000
821613,-0.2783757746219635,-1.530910849571228,-9.0,107.0,1.9117259979248047,2.6280903816223145,0,0,0,40000
821623,-0.281427800655365,-1.4584954977035522,2.0,204.0,1.5219216346740723,2.6548714637756348,0,0,0,40000
821633,-0.2717992961406708,-1.3294391632080078,30.0,194.0,0.7890243530273438,2.605412483215332,0,0,0,40000
821643,-0.2643144726753235,-1.2472741603851318,12.0,186.0,0.33442068099975586,2.568474054336548,0,0,0,40000
821653,-0.25283151865005493,-1.114388346672058,20.0,173.0,-0.42786407470703125,2.5073108673095703,0,0,0,40000
821663,-0.24527476727962494,-1.038959264755249,5.0,162.0,-0.8483948707580566,2.4694151878356934,0,0,0,40000
821673,-0.24667392671108246,-0.9705932140350342,22.0,71.0,-1.2288336753845215,2.4852261543273926,0,0,0,40000
821683,-0.2418978363275528,-0.9522461295127869,-5.0,43.0,-1.310168743133545,2.4638571739196777,0,0,0,40000
821693,-0.2392982393503189,-0.9494556188583374,8.0,-21.0,-1.298569679260254,2.455505847930908,0,0,0,40000
821703,-0.23361946642398834,-0.9701763391494751,8.0,-55.0,-1.1454296112060547,2.4285097122192383,0,0,0,40000
821713,-0.2249223291873932,-1.0245811939239502,1.0,-103.0,-0.7889904975891113,2.383147716522217,0,0,0,40000
821723,-0.22304856777191162,-1.0787975788116455,-3.0,-121.0,-0.43203020095825195,2.3786232471466064,0,0,0,40000
821733,-0.22673876583576202,-1.1709259748458862,10.0,-109.0,0.1548304557800293,2.4075634479522705,0,0,0,40000
821743,-0.22147946059703827,-1.2272157669067383,11.0,-138.0,0.5286927223205566,2.3827154636383057,0,0,0,40000
821753,-0.21013155579566956,-1.3073431253433228,6.0,-128.0,1.0477371215820312,2.3210651874542236,0,0,0,40000
821763,-0.20861157774925232,-1.3715806007385254,23.0,-105.0,1.4735469818115234,2.3182663917541504,0,0,0,40000
821773,-0.1944321095943451,-1.4430102109909058,22.0,-61.0,1.9446258544921875,2.2391977310180664,0,0,0,40000
821783,-0.17928741872310638,-1.4609739780426025,27.0,-14.0,2.096024513244629,2.1539011001586914,0,0,0,40000
821793,-0.16949878633022308,-1.4563580751419067,25.0,20.0,2.1121816635131836,2.100397825241089,0,0,0,40000
821803,-0.1625659018754959,-1.4334752559661865,33.0,80.0,2.018205165863037,2.0637660026550293,0,0,0,40000
821813,-0.14612352848052979,-1.3831149339675903,21.0,112.0,1.7581982612609863,1.9696362018585205,0,0,0,40000
821823,-0.13260024785995483,-1.3302363157272339,41.0,121.0,1.4814538955688477,1.8926646709442139,0,0,0,40000
821833,-0.10164803266525269,-1.2326195240020752,42.0,153.0,0.9339938163757324,1.7103990316390991,0,0,0,40000
821843,-0.09043582528829575,-1.1706515550613403,29.0,149.0,0.5980520248413086,1.6459693908691406,0,0,0,40000
821853,-0.06880892813205719,-1.103803277015686,51.0,84.0,0.23074626922607422,1.518617033958435,0,0,0,40000
821863,-0.05587047338485718,-1.084393858909607,49.0,26.0,0.14699268341064453,1.4428156614303589,0,0,0,40000
821873,-0.026166951283812523,-1.0972437858581543,46.0,-67.0,0.2566709518432617,1.2657580375671387,0,0,0,40000
821883,-0.004238836467266083,-1.1451762914657593,48.0,-148.0,0.5779943466186523,1.1345808506011963,0,0,0,40000
821893,0.0313517190515995,-1.2685281038284302,56.0,-191.0,1.3545770645141602,0.920541524887085,0,0,0,40000
821903,0.05160468816757202,-1.3602588176727295,21.0,-163.0,1.9446654319763184,0.7977036237716675,0,0,0,40000
821913,0.07258438318967819,-1.481978416442871,50.0,-154.0,2.7179946899414062,0.6699692606925964,0,0,0,40000
821923,0.08542298525571823,-1.549149513244629,26.0,-135.0,3.166696071624756,0.5905119776725769,0,0,0,40000
821933,0.10548654943704605,-1.6222364902496338,32.0,-51.0,3.6532435417175293,0.4672267436981201,0,0,0,40000
821943,0.11935357004404068,-1.6377241611480713,27.0,4.0,3.7951574325561523,0.3805849552154541,0,0,0,40000
821953,0.13693751394748688,-1.6277389526367188,21.0,23.0,3.784245491027832,0.2711973190307617,0,0,0,40000
821963,0.14306671917438507,-1.606534719467163,50.0,67.0,3.7054667472839355,0.2302546501159668,0,0,0,40000
821973,0.16182570159435272,-1.5460901260375977,43.0,101.0,3.390064239501953,0.11305832862854004,0,0,0,40000
821983,0.18075314164161682,-1.5017167329788208,14.0,125.0,3.1693873405456543,-0.005745410919189453,0,0,0,40000
821993,0.19374656677246094,-1.4338569641113281,27.0,92.0,2.805983066558838,-0.08932924270629883,0,0,0,40000
822003,0.19928434491157532,-1.4016014337539673,3.0,90.0,2.654867649078369,-0.1284933090209961,0,0,0,40000
822013,0.21593421697616577,-1.346819519996643,24.0,69.0,2.3671751022338867,-0.23467552661895752,0,0,0,40000
822023,0.21617631614208221,-1.3314164876937866,25.0,26.0,2.31484317779541,-0.2425827980041504,0,0,0,40000
822033,0.232883483171463,-1.3277963399887085,18.0,-21.0,2.332930088043213,-0.3496241569519043,0,0,0,40000
822043,0.24736948311328888,-1.3529789447784424,30.0,-63.0,2.524275779724121,-0.44376277923583984,0,0,0,40000
822053,0.26381126046180725,-1.4178682565689087,19.0,-99.0,2.955315113067627,-0.5501624345779419,0,0,0,40000
822063,0.2708645164966583,-1.4772053956985474,13.0,-138.0,3.3548927307128906,-0.6005328893661499,0,0,0,40000
822073,0.28740307688713074,-1.5637767314910889,45.0,-103.0,3.9203052520751953,-0.7081066370010376,0,0,0,40000
822083,0.2890245020389557,-1.611184000968933,6.0,-75.0,4.252548694610596,-0.7264972925186157,0,0,0,40000
822093,0.2995791733264923,-1.633825659751892,19.0,-13.0,4.437269687652588,-0.7986186742782593,0,0,0,40000
822103,0.3070724308490753,-1.6188257932662964,15.0,67.0,4.396057605743408,-0.8527191877365112,0,0,0,40000
822113,0.3111378252506256,-1.5488382577896118,2.0,128.0,4.023618698120117,-0.8864306211471558,0,0,0,40000
822123,0.31051385402679443,-1.4645463228225708,-3.0,192.0,3.562863349914551,-0.8920261859893799,0,0,0,40000
822133,0.30479395389556885,-1.3442410230636597,-13.0,196.0,2.8828487396240234,-0.8669816851615906,0,0,0,40000
822143,0.29092395305633545,-1.257045030593872,-22.0,192.0,2.398423671722412,-0.7926390767097473,0,0,0,40000
822153,0.2738552987575531,-1.1501579284667969,-15.0,156.0,1.7928352355957031,-0.6985884308815002,0,0,0,40000
822163,0.2567630410194397,-1.08992600440979,-34.0,126.0,1.4648027420043945,-0.6039705276489258,0,0,0,40000
822173,0.23460157215595245,-1.0257054567337036,-40.0,72.0,1.1108713150024414,-0.47837138175964355,0,0,0,40000
822183,0.2188226878643036,-1.0080784559249878,-43.0,0.0,1.0354900360107422,-0.39046037197113037,0,0,0,40000
822193,0.1924278289079666,-1.0160136222839355,-38.0,-24.0,1.113433837890625,-0.23812216520309448,0,0,0,40000
822203,0.17577092349529266,-1.034219741821289,-35.0,-42.0,1.2534732818603516,-0.14364540576934814,0,0,0,40000
822213,0.1486925631761551,-1.06511652469635,-41.0,-44.0,1.4703855514526367,0.014017939567565918,0,0,0,40000
822223,0.12886595726013184,-1.0789859294891357,-29.0,-36.0,1.5858359336853027,0.1288740634918213,0,0,0,40000
822233,0.1012989953160286,-1.0998117923736572,-59.0,-49.0,1.7434778213500977,0.2908034324645996,0,0,0,40000
822243,0.0805772915482521,-1.115899920463562,-50.0,-19.0,1.8733057975769043,0.4124736189842224,0,0,0,40000
822253,0.06021959334611893,-1.124237060546875,-34.0,6.0,1.9570531845092773,0.5326048731803894,0,0,0,40000
822263,0.04933285713195801,-1.1158636808395386,9.0,38.0,1.9404025077819824,0.5963644981384277,0,0,0,40000
822273,0.03188053146004677,-1.0805637836456299,-12.0,71.0,1.761500358581543,0.6998919248580933,0,0,0,40000
822283,0.020972294732928276,-1.0508742332458496,-18.0,88.0,1.6152558326721191,0.7645652294158936,0,0,0,40000
822293,0.011888188309967518,-0.9918521046638489,-14.0,90.0,1.2915658950805664,0.8186113834381104,0,0,0,40000
822303,0.010890569537878036,-0.9494358897209167,-25.0,88.0,1.0660476684570312,0.8242392539978027,0,0,0,40000
822313,0.0006929695955477655,-0.9029791355133057,-3.0,71.0,0.8149251937866211,0.8853700757026672,0,0,0,40000
822323,-0.0049358089454472065,-0.8637666702270508,4.0,120.0,0.6060729026794434,0.9192469120025635,0,0,0,40000
822333,-0.00797959603369236,-0.7889746427536011,1.0,113.0,0.18188858032226562,0.9376665949821472,0,0,0,40000
822343,-0.01220186147838831,-0.7407987117767334,-15.0,113.0,-0.08435630798339844,0.9632983207702637,0,0,0,40000
822353,-0.013319810852408409,-0.6655293107032776,-7.0,123.0,-0.5150547027587891,0.9704292416572571,0,0,0,40000
822363,-0.0115128755569458,-0.6310912370681763,-5.0,55.0,-0.7023980617523193,0.9599506258964539,0,0,0,40000
822373,-0.005097370594739914,-0.6115618348121643,21.0,21.0,-0.80108642578125,0.9217751622200012,0,0,0,40000
822383,-0.001711951452307403,-0.6213675141334534,-3.0,-49.0,-0.7237472534179688,0.9015354514122009,0,0,0,40000
822393,0.0022114955354481936,-0.6806154251098633,-6.0,-87.0,-0.34859657287597656,0.8779336214065552,0,0,0,40000
822403,0.011640327982604504,-0.725476086139679,7.0,-92.0,-0.05822610855102539,0.8211150765419006,0,0,0,40000
822413,0.02825874648988247,-0.7743687033653259,32.0,-61.0,0.25786256790161133,0.7208187580108643,0,0,0,40000
822423,0.02744126133620739,-0.8060801029205322,28.0,-50.0,0.47194957733154297,0.7249120473861694,0,0,0,40000
822433,0.03737935796380043,-0.8290311098098755,25.0,-12.0,0.6343469619750977,0.6643073558807373,0,0,0,40000
822443,0.048680178821086884,-0.8291710019111633,34.0,28.0,0.6600661277770996,0.5951663255691528,0,0,0,40000
822453,0.06663312762975693,-0.8025799989700317,14.0,55.0,0.5249943733215332,0.4856231212615967,0,0,0,40000
822463,0.08330687880516052,-0.7733550071716309,50.0,91.0,0.3732423782348633,0.38331109285354614,0,0,0,40000
822473,0.10228844732046127,-0.6980238556861877,38.0,139.0,-0.056792259216308594,0.2665308117866516,0,0,0,40000
822483,0.12161292880773544,-0.6305112242698669,57.0,164.0,-0.4421238899230957,0.14720004796981812,0,0,0,40000
822493,0.15078184008598328,-0.522139310836792,19.0,157.0,-1.0754504203796387,-0.032102763652801514,0,0,0,40000
822503,0.17022733390331268,-0.4528293013572693,43.0,134.0,-1.4768800735473633,-0.15364360809326172,0,0,0,40000
822513,0.20510636270046234,-0.39398279786109924,38.0,55.0,-1.817655086517334,-0.3686981201171875,0,0,0,40000
822523,0.2229030877351761,-0.3871769309043884,44.0,11.0,-1.8468403816223145,-0.48195695877075195,0,0,0,40000
822533,0.23995018005371094,-0.39938151836395264,28.0,-30.0,-1.761869192123413,-0.5912739038467407,0,0,0,40000
822543,0.2465314269065857,-0.43324047327041626,23.0,-100.0,-1.5461668968200684,-0.6381216645240784,0,0,0,40000
822553,0.265204519033432,-0.5115549564361572,27.0,-107.0,-1.0618910789489746,-0.7579562664031982,0,0,0,40000
822563,0.2786482870578766,-0.5758925080299377,24.0,-151.0,-0.6593985557556152,-0.8468095660209656,0,0,0,40000
822573,0.29049965739250183,-0.6782164573669434,20.0,-147.0,-0.026340484619140625,-0.9264922142028809,0,0,0,40000
822583,0.28872382640838623,-0.7403506636619568,2.0,-135.0,0.36794328689575195,-0.9245125651359558,0,0,0,40000
822593,0.2932531535625458,-0.8292697072029114,21.0,-104.0,0.9253382682800293,-0.9603891968727112,0,0,0,40000
822603,0.29064661264419556,-0.8710368275642395,-8.0,-59.0,1.2016067504882812,-0.9535555243492126,0,0,0,40000
822613,0.2913717031478882,-0.929427981376648,-16.0,-82.0,1.5791099071502686,-0.9667199850082397,0,0,0,40000
822623,0.29555442929267883,-0.9265224933624268,16.0,12.0,1.589536190032959,-1.0006134510040283,0,0,0,40000
822633,0.2997298538684845,-0.8935246467590332,10.0,77.0,1.4189071655273438,-1.0345770120620728,0,0,0,40000
822643,0.29990869760513306,-0.8394550681114197,-11.0,148.0,1.1203842163085938,-1.0446535348892212,0,0,0,40000
822653,0.2893768548965454,-0.7289915084838867,-16.0,164.0,0.48079681396484375,-0.9902744293212891,0,0,0,40000
822663,0.2756614685058594,-0.6579577326774597,-21.0,172.0,0.07518196105957031,-0.916420578956604,0,0,0,40000
822673,0.2679547965526581,-0.5597127079963684,-3.0,126.0,-0.49648237228393555,-0.8783398866653442,0,0,0,40000
822683,0.2541377544403076,-0.5148809552192688,-18.0,73.0,-0.7495083808898926,-0.8032509088516235,0,0,0,40000
822693,0.24081066250801086,-0.49290063977241516,-41.0,25.0,-0.8664271831512451,-0.730745792388916,0,0,0,40000
822703,0.22487570345401764,-0.5008593797683716,-46.0,-44.0,-0.8037984371185303,-0.6420836448669434,0,0,0,40000
822713,0.2084788829088211,-0.5401151776313782,-22.0,-70.0,-0.5526399612426758,-0.5500949025154114,0,0,0,40000
822723,0.2026498168706894,-0.5681877732276917,-3.0,-77.0,-0.36748456954956055,-0.5212340354919434,0,0,0,40000
822733,0.17568759620189667,-0.6564927101135254,-45.0,-149.0,0.18076610565185547,-0.3651329278945923,0,0,0,40000
822743,0.16317534446716309,-0.7409955263137817,-25.0,-187.0,0.708981990814209,-0.29510462284088135,0,0,0,40000
822753,0.1411709189414978,-0.8949548602104187,-41.0,-220.0,1.6576833724975586,-0.16765254735946655,0,0,0,40000
822763,0.13011090457439423,-0.9894791841506958,-31.0,-215.0,2.253370761871338,-0.10533368587493896,0,0,0,40000
822773,0.11258711665868759,-1.119263768196106,-21.0,-146.0,3.064267635345459,-0.0037901997566223145,0,0,0,40000
822783,0.10328103601932526,-1.1649476289749146,-19.0,-79.0,3.3728089332580566,0.048836708068847656,0,0,0,40000
822793,0.09203038364648819,-1.2085939645767212,-21.0,-34.0,3.670571804046631,0.1134418249130249,0,0,0,40000
822803,0.08006105571985245,-1.2054831981658936,-22.0,15.0,3.6881251335144043,0.18269836902618408,0,0,0,40000
822813,0.06030526012182236,-1.1789242029190063,-40.0,52.0,3.564523696899414,0.29912495613098145,0,0,0,40000
822823,0.052331265062093735,-1.1369903087615967,-11.0,104.0,3.347550868988037,0.34530940651893616,0,0,0,40000
822833,0.03091548942029476,-1.0689115524291992,-42.0,105.0,2.9719655513763428,0.472542941570282,0,0,0,40000
822843,0.016750283539295197,-1.0062813758850098,-31.0,111.0,2.6271095275878906,0.5568563938140869,0,0,0,40000
822853,-0.0013761852169409394,-0.9124954342842102,-32.0,155.0,2.0930275917053223,0.6654675602912903,0,0,0,40000
822863,0.0037462080363184214,-0.8365821242332458,0.0,148.0,1.6635351181030273,0.6346986293792725,0,0,0,40000
822873,0.0012970237294211984,-0.7729860544204712,6.0,157.0,1.3008670806884766,0.6493517756462097,0,0,0,40000
822883,0.01107915211468935,-0.6575802564620972,39.0,194.0,0.6296498775482178,0.5905043482780457,0,0,0,40000
822893,0.02268141694366932,-0.5789974927902222,23.0,163.0,0.17641091346740723,0.520328164100647,0,0,0,40000
822903,0.03566138818860054,-0.4939933121204376,21.0,98.0,-0.31489014625549316,0.44132012128829956,19.999999988639303,0.0006741126507986673,0,40000
822913,0.04973681643605232,-0.4592497944831848,27.0,56.0,-0.5161998271942139,120.59578704833984,19.997413361142552,0.32165021933367743,0,40000
822923,0.08271361887454987,-0.44618773460388184,57.0,2.0,-2.5108752250671387,120.9803695678711,19.98967169109442,0.6426707417164776,0,40000
822933,0.11857137084007263,-0.4702985882759094,115.0,-73.0,-4.292041778564453,121.31551361083984,19.98967169109442,0.6426707417164776,0,40000
822943,0.22109322249889374,-0.526888370513916,201.0,-80.0,-6.1102166175842285,121.20626831054688,19.97492234899804,1.0012378096629617,0,40000
822953,0.33971136808395386,-0.5755788683891296,341.0,-103.0,-7.761241436004639,120.97281646728516,19.931815266733388,1.6500727780355358,0,40000
822963,0.6354859471321106,-0.6437183022499084,524.0,-99.0,-7.373604774475098,119.78170776367188,19.931815266733388,1.6500727780355358,0,40000
822973,0.9228730797767639,-0.689189612865448,725.0,-98.0,-11.024932861328125,118.30929565429688,19.90260639272258,1.9713596263387347,0,40000
822983,1.5011423826217651,-0.7569423317909241,965.0,-86.0,-10.655635833740234,115.39923858642578,19.86793550990719,2.2945889771740764,0,40000
822993,1.9857532978057861,-0.8092336654663086,1193.0,-109.0,-12.326456069946289,112.82598114013672,19.828523884863046,2.613358097815099,0,40000
823003,2.876225709915161,-0.8820087909698486,1433.0,-99.0,-13.855213165283203,107.76641845703125,19.783819148716006,2.932660889175202,0,40000
823013,3.568540334701538,-0.9339063763618469,1607.0,-112.0,-15.52022933959961,103.83909606933594,19.733870666791088,3.2518223362235354,0,40000
823023,4.75687313079834,-1.0234782695770264,1791.0,-147.0,-16.965784072875977,96.87334442138672,19.679091810796457,3.5683813560554034,0,40000
823033,5.635620594024658,-1.1047581434249878,1991.0,-196.0,-18.45237922668457,91.70413970947266,19.61815371873595,3.8894787141783955,0,40000
823043,7.062114715576172,-1.2364726066589355,2138.0,-184.0,-19.66985321044922,83.17367553710938,19.55259452543625,4.206667008913403,0,40000
823053,8.074613571166992,-1.3335697650909424,2245.0,-199.0,-21.0777530670166,77.06189727783203,19.482247749388776,4.521285506516487,0,40000
823063,9.640546798706055,-1.4414209127426147,2334.0,-141.0,-22.410064697265625,67.55889892578125,19.406898579052267,4.83448937762605,0,40000
823073,10.714753150939941,-1.4953689575195312,2350.0,-135.0,-24.064552307128906,60.9356689453125,19.325542829537234,5.150086828755606,0,40000
823083,12.341411590576172,-1.5680508613586426,2348.0,-130.0,-25.628509521484375,50.91706848144531,19.239736467437037,5.461917306548435,0,40000
823093,13.414172172546387,-1.6168972253799438,2287.0,-105.0,-27.32046127319336,44.1537971496582,19.14922094172261,5.771250932431565,0,40000
823103,14.969239234924316,-1.6947163343429565,2219.0,-183.0,-28.8311767578125,34.42477035522461,19.053331612844513,6.080341639330794,0,40000
823113,15.95329475402832,-1.7843809127807617,2109.0,-265.0,-30.27587127685547,28.050472259521484,18.951065582385922,6.391956921953378,0,40000
823123,17.348508834838867,-1.9765199422836304,1963.0,-369.0,-31.124019622802734,19.131324768066406,18.845504916089123,6.696786129007004,0,40000
823133,18.202777862548828,-2.1336076259613037,1783.0,-435.0,-32.1456184387207,13.403009414672852,18.73091716080754,7.010901676315653,0,40000
823143,19.365947723388672,-2.420379877090454,1566.0,-511.0,-32.4472541809082,5.732210159301758,18.6157691327625,7.311165406122802,0,40000
823153,20.047815322875977,-2.638152599334717,1364.0,-560.0,-33.08142852783203,0.9165925979614258,18.49577962134929,7.609608150127073,0,40000
823163,20.917551040649414,-3.0097780227661133,1137.0,-600.0,-32.78132247924805,-5.082939147949219,18.371017763222664,7.906055043026031,0,40000
823173,21.386808395385742,-3.252883195877075,937.0,-564.0,-33.238494873046875,-8.729743957519531,18.2415079425338,8.200450474362755,0,40000
823183,21.946542739868164,-3.6138205528259277,677.0,-584.0,-32.976043701171875,-12.967948913574219,18.107306245744248,8.492670988730897,0,40000
823193,22.207908630371094,-3.853606700897217,443.0,-598.0,-33.427406311035156,-15.45898151397705,17.96846643705129,8.78260860454121,0,40000
823203,22.444164276123047,-4.2150115966796875,190.0,-559.0,-33.1346549987793,-17.839054107666016,17.824947095110232,9.070350657858894,0,40000
823213,22.499202728271484,-4.456006050109863,0.0,-577.0,-33.551307678222656,-19.167442321777344,17.824947095110232,9.070350657858894,0,40000
823223,22.440492630004883,-4.828973293304443,-199.0,-588.0,-33.200469970703125,-19.86615753173828,17.673206574685736,9.362572796431806,0,40000
823233,22.31598663330078,-5.0827460289001465,-375.0,-628.0,-33.52560806274414,-20.18716049194336,17.359966337411148,9.931342747280036,0,40000
823243,22.009862899780273,-5.513703346252441,-530.0,-664.0,-32.77056884765625,-19.44425392150879,17.359966337411148,9.931342747280036,0,40000
823253,21.74879264831543,-5.790360450744629,-646.0,-617.0,-31.238130569458008,-18.01272964477539,17.197908447432322,10.209404734544322,0,40000
823263,21.284814834594727,-6.217897891998291,-741.0,-608.0,-32.118736267089844,-17.328704833984375,17.031554169928057,10.484567828804682,0,40000
823273,20.927963256835938,-6.503721237182617,-853.0,-597.0,-32.15800857543945,-16.33121109008789,16.861329478382892,10.75618743893096,0,40000
823283,20.33281898498535,-6.912752151489258,-906.0,-561.0,-31.450092315673828,-13.927619934082031,16.685522197385346,11.026937426165116,0,40000
823293,19.912269592285156,-7.1693525314331055,-931.0,-561.0,-31.63694190979004,-12.587352752685547,16.50550735237968,11.294610530715092,0,40000
823303,19.260103225708008,-7.575100421905518,-959.0,-554.0,-30.89864158630371,-9.86456298828125,16.322402226654877,11.557646194242665,0,40000
823313,18.82773780822754,-7.835918426513672,-935.0,-548.0,-31.022035598754883,-8.48405647277832,16.133698177764863,11.819635489675084,0,40000
