timestamp,motor.m1,motor.m2,motor.m3,motor.m4,roll,pitch,yawdot,thrust
1440404,7391.0,39843.0,65535.0,39843.0,0,0,0,40000
1440414,7504.0,39730.0,65535.0,39730.0,0,0,0,40000
1440424,7595.0,39639.0,65535.0,39639.0,0,0,0,40000
1440434,7737.0,39497.0,65535.0,39497.0,0,0,0,40000
1440444,7969.0,39265.0,65535.0,39265.0,0,0,0,40000
1440454,7854.0,39380.0,65535.0,39380.0,0,0,0,40000
1440464,7658.0,39576.0,65535.0,39576.0,0,0,0,40000
1440474,7496.0,39738.0,65535.0,39738.0,0,0,0,40000
1440484,7113.0,40121.0,65535.0,40121.0,0,0,0,40000
1440494,6902.0,40332.0,65535.0,40332.0,0,0,0,40000
1440504,6417.0,40817.0,65535.0,40817.0,0,0,0,40000
1440514,16585.0,30649.0,61109.0,51657.0,0,0,0,40000
1440524,21934.0,25300.0,54134.0,58632.0,0,0,0,40000
1440534,35105.0,12129.0,39441.0,65535.0,0,0,0,40000
1440544,34097.0,13137.0,39237.0,65535.0,0,0,0,40000
1440554,36629.0,11979.0,35255.0,65535.0,0,0,0,40000
1440564,35075.0,12159.0,35075.0,65535.0,0,0,0,40000
1440574,39556.0,18784.0,28450.0,65535.0,0,0,0,40000
1440584,38400.0,18038.0,29196.0,65535.0,0,0,0,40000
1440594,47640.0,26980.0,20254.0,65126.0,0,0,0,40000
1440604,48340.0,27888.0,19346.0,64426.0,0,0,0,40000
1440614,52701.0,31241.0,15993.0,60065.0,0,0,0,40000
1440624,51188.0,33864.0,18784.0,56164.0,0,0,0,40000
1440634,55382.0,42550.0,16752.0,45316.0,0,0,0,40000
1440644,42745.0,53117.0,29667.0,34471.0,0,0,0,40000
1440654,42541.0,63295.0,31599.0,22565.0,0,0,0,40000
1440664,32350.0,65535.0,42684.0,14884.0,0,0,0,40000
1440674,36539.0,65535.0,39465.0,10695.0,0,0,0,40000
1440684,34625.0,65535.0,41059.0,12609.0,0,0,0,40000
1440694,37903.0,65535.0,37903.0,9331.0,0,0,0,40000
1440704,35427.0,65535.0,39979.0,11807.0,0,0,0,40000
1440714,37351.0,65535.0,37813.0,9883.0,0,0,0,40000
1440724,34139.0,65535.0,40529.0,13095.0,0,0,0,40000
1440734,34578.0,65535.0,39644.0,12656.0,0,0,0,40000
1440744,32981.0,65535.0,41317.0,14253.0,0,0,0,40000
1440754,33680.0,65535.0,40566.0,13554.0,0,0,0,40000
1440764,30756.0,65535.0,44072.0,16478.0,0,0,0,40000
1440774,30489.0,65535.0,45487.0,16745.0,0,0,0,40000
1440784,31938.0,65535.0,44892.0,15296.0,0,0,0,40000
1440794,33644.0,57924.0,44056.0,24376.0,0,0,0,40000
1440804,33657.0,49441.0,45207.0,31695.0,0,0,0,40000
1440814,42227.0,41441.0,37795.0,38537.0,0,0,0,40000
1440824,45541.0,36169.0,34763.0,43527.0,0,0,0,40000
1440834,50642.0,25996.0,30372.0,52990.0,0,0,0,40000
1440844,47664.0,25768.0,33474.0,53094.0,0,0,0,40000
1440854,47962.0,18288.0,33480.0,60270.0,0,0,0,40000
1440864,43699.0,25395.0,36733.0,54173.0,0,0,0,40000
1440874,40965.0,18587.0,39265.0,61183.0,0,0,0,40000
1440884,33147.0,25927.0,46159.0,54767.0,0,0,0,40000
1440894,29918.0,23398.0,49576.0,57108.0,0,0,0,40000
1440904,25111.0,30773.0,52547.0,51569.0,0,0,0,40000
1440914,21039.0,30601.0,57315.0,51045.0,0,0,0,40000
1440924,16702.0,35416.0,60454.0,47428.0,0,0,0,40000
1440934,12511.0,34723.0,65259.0,47507.0,0,0,0,40000
1440944,13662.0,40378.0,63572.0,42388.0,0,0,0,40000
1440954,12269.0,39603.0,65535.0,42375.0,0,0,0,40000
1440964,13700.0,40830.0,63814.0,41656.0,0,0,0,40000
1440974,13723.0,37573.0,65151.0,43553.0,0,0,0,40000
1440984,17291.0,37691.0,61647.0,43371.0,0,0,0,40000
1440994,18597.0,35965.0,60859.0,44579.0,0,0,0,40000
1441004,24445.0,35941.0,54651.0,44963.0,0,0,0,40000
1441014,27115.0,32539.0,53085.0,47261.0,0,0,0,40000
1441024,28296.0,33512.0,50854.0,47338.0,0,0,0,40000
1441034,30640.0,32204.0,49388.0,47768.0,0,0,0,40000
1441044,34459.0,33981.0,44435.0,47125.0,0,0,0,40000
1441054,38125.0,34559.0,42563.0,44753.0,0,0,0,40000
1441064,36445.0,38259.0,42733.0,42563.0,0,0,0,40000
1441074,39660.0,36660.0,41070.0,42610.0,0,0,0,40000
1441084,36185.0,40079.0,43711.0,40025.0,0,0,0,40000
1441094,40330.0,40414.0,41146.0,38110.0,0,0,0,40000
1441104,38055.0,43643.0,43063.0,35239.0,0,0,0,40000
1441114,39667.0,45235.0,42157.0,32941.0,0,0,0,40000
1441124,37637.0,45771.0,44039.0,32553.0,0,0,0,40000
1441134,38762.0,47314.0,43394.0,30530.0,0,0,0,40000
1441144,37061.0,47723.0,44643.0,30573.0,0,0,0,40000
1441154,39247.0,48889.0,42599.0,29265.0,0,0,0,40000
1441164,38242.0,47242.0,42846.0,31670.0,0,0,0,40000
1441174,39505.0,47785.0,42055.0,30655.0,0,0,0,40000
1441184,37837.0,45991.0,42533.0,33639.0,0,0,0,40000
1441194,38865.0,45565.0,42321.0,33249.0,0,0,0,40000
1441204,38182.0,45016.0,41952.0,34850.0,0,0,0,40000
1441214,40109.0,43615.0,40969.0,35307.0,0,0,0,40000
1441224,37657.0,42643.0,42429.0,37271.0,0,0,0,40000
1441234,39248.0,41520.0,40670.0,38562.0,0,0,0,40000
1441244,38604.0,40154.0,41018.0,40224.0,0,0,0,40000
1441254,37948.0,38534.0,42174.0,41344.0,0,0,0,40000
1441264,36859.0,38455.0,41977.0,42709.0,0,0,0,40000
1441274,36404.0,38350.0,43244.0,42002.0,0,0,0,40000
1441284,34957.0,39355.0,43537.0,42151.0,0,0,0,40000
1441294,33128.0,38608.0,46220.0,42044.0,0,0,0,40000
1441304,31989.0,39591.0,46447.0,41973.0,0,0,0,40000
1441314,30598.0,38046.0,48220.0,43136.0,0,0,0,40000
1441324,31163.0,38725.0,47263.0,42849.0,0,0,0,40000
1441334,29307.0,39305.0,49373.0,42015.0,0,0,0,40000
1441344,30462.0,38290.0,48198.0,43050.0,0,0,0,40000
1441354,28550.0,37398.0,50122.0,43930.0,0,0,0,40000
1441364,30068.0,37938.0,48302.0,43692.0,0,0,0,40000
1441374,28869.0,37383.0,49917.0,43831.0,0,0,0,40000
1441384,30153.0,38093.0,48231.0,43523.0,0,0,0,40000
1441394,31328.0,36876.0,48010.0,43786.0,0,0,0,40000
1441404,30305.0,38977.0,47535.0,43183.0,0,0,0,40000
1441414,31867.0,37453.0,48249.0,42431.0,0,0,0,40000
1441424,31545.0,38769.0,46963.0,42723.0,0,0,0,40000
1441434,31363.0,38255.0,48893.0,41489.0,0,0,0,40000
1441444,31943.0,40371.0,46405.0,41281.0,0,0,0,40000
1441454,33048.0,38830.0,47780.0,40342.0,0,0,0,40000
1441464,32975.0,40711.0,46325.0,39989.0,0,0,0,40000
1441474,34044.0,39812.0,46448.0,39696.0,0,0,0,40000
1441484,35657.0,40737.0,44469.0,39137.0,0,0,0,40000
1441494,34305.0,39845.0,45949.0,39901.0,0,0,0,40000
1441504,35434.0,40658.0,44562.0,39346.0,0,0,0,40000
1441514,36139.0,40751.0,43803.0,39307.0,0,0,0,40000
1441524,34647.0,42157.0,45775.0,37421.0,0,0,0,40000
1441534,36311.0,41745.0,43891.0,38053.0,0,0,0,40000
1441544,36979.0,42077.0,42781.0,38163.0,0,0,0,40000
1441554,35845.0,40385.0,44281.0,39489.0,0,0,0,40000
1441564,35597.0,41313.0,44899.0,38191.0,0,0,0,40000
1441574,35633.0,41401.0,44533.0,38433.0,0,0,0,40000
1441584,36052.0,42540.0,43806.0,37602.0,0,0,0,40000
1441594,34984.0,42686.0,45226.0,37104.0,0,0,0,40000
1441604,34118.0,40844.0,45754.0,39284.0,0,0,0,40000
1441614,34127.0,41509.0,45757.0,38607.0,0,0,0,40000
1441624,34615.0,41501.0,45021.0,38863.0,0,0,0,40000
1441634,35229.0,41331.0,44999.0,38441.0,0,0,0,40000
1441644,33674.0,42360.0,45338.0,38628.0,0,0,0,40000
1441654,34002.0,39512.0,46480.0,40006.0,0,0,0,40000
1441664,33608.0,40060.0,45438.0,40894.0,0,0,0,40000
1441674,34927.0,39601.0,44933.0,40539.0,0,0,0,40000
1441684,33804.0,40212.0,45226.0,40758.0,0,0,0,40000
1441694,34973.0,39147.0,44891.0,40989.0,0,0,0,40000
1441704,34659.0,38355.0,45067.0,41919.0,0,0,0,40000
1441714,34478.0,39658.0,44790.0,41074.0,0,0,0,40000
1441724,33655.0,38147.0,45871.0,42327.0,0,0,0,40000
1441734,33440.0,38972.0,45536.0,42052.0,0,0,0,40000
1441744,34113.0,37857.0,45691.0,42339.0,0,0,0,40000
1441754,33070.0,39918.0,45920.0,41092.0,0,0,0,40000
1441764,32285.0,40125.0,46879.0,40711.0,0,0,0,40000
1441774,33538.0,40072.0,46342.0,40048.0,0,0,0,40000
1441784,32701.0,40643.0,46871.0,39785.0,0,0,0,40000
1441794,32293.0,40357.0,47621.0,39729.0,0,0,0,40000
1441804,33020.0,40722.0,46210.0,40048.0,0,0,0,40000
1441814,33585.0,39483.0,46763.0,40169.0,0,0,0,40000
1441824,32285.0,41235.0,46943.0,39537.0,0,0,0,40000
1441834,33552.0,39096.0,46448.0,40904.0,0,0,0,40000
1441844,33183.0,40577.0,46097.0,40143.0,0,0,0,40000
1441854,33747.0,40825.0,46371.0,39057.0,0,0,0,40000
1441864,34132.0,40532.0,45122.0,40214.0,0,0,0,40000
1441874,35112.0,40206.0,45274.0,39408.0,0,0,0,40000
1441884,33964.0,41780.0,45430.0,38826.0,0,0,0,40000
1441894,35089.0,40471.0,44961.0,39479.0,0,0,0,40000
1441904,35101.0,41145.0,44437.0,39317.0,0,0,0,40000
1441914,35309.0,39391.0,45199.0,40101.0,0,0,0,40000
1441924,35430.0,40886.0,44114.0,39570.0,0,0,0,40000
1441934,36216.0,39556.0,43868.0,40360.0,0,0,0,40000
1441944,35960.0,40814.0,43884.0,39342.0,0,0,0,40000
1441954,36423.0,40143.0,43729.0,39705.0,0,0,0,40000
1441964,34904.0,41070.0,44342.0,39684.0,0,0,0,40000
1441974,35396.0,40804.0,44272.0,39528.0,0,0,0,40000
1441984,34955.0,40819.0,44917.0,39309.0,0,0,0,40000
1441994,34635.0,41763.0,45331.0,38271.0,0,0,0,40000
1442004,33448.0,42344.0,45964.0,38244.0,0,0,0,40000
1442014,33202.0,41294.0,46774.0,38730.0,0,0,0,40000
1442024,32953.0,41705.0,46897.0,38445.0,0,0,0,40000
1442034,32501.0,41317.0,47381.0,38801.0,0,0,0,40000
1442044,32466.0,41518.0,46528.0,39488.0,0,0,0,40000
1442054,34791.0,39799.0,45361.0,40049.0,0,0,0,40000
1442064,32735.0,39685.0,46481.0,41099.0,0,0,0,40000
1442074,32559.0,40487.0,47379.0,39575.0,0,0,0,40000
1442084,32908.0,38822.0,46056.0,42214.0,0,0,0,40000
1442094,34668.0,38368.0,45288.0,41676.0,0,0,0,40000
1442104,33881.0,39799.0,45491.0,40829.0,0,0,0,40000
1442114,33770.0,39136.0,46184.0,40910.0,0,0,0,40000
1442124,34406.0,39152.0,44462.0,41980.0,0,0,0,40000
1442134,34305.0,38013.0,45609.0,42073.0,0,0,0,40000
1442144,33879.0,38915.0,45621.0,41585.0,0,0,0,40000
1442154,33686.0,38902.0,45802.0,41610.0,0,0,0,40000
1442164,33636.0,40740.0,45876.0,39748.0,0,0,0,40000
1442174,33632.0,39630.0,46134.0,40604.0,0,0,0,40000
1442184,33550.0,40276.0,46052.0,40122.0,0,0,0,40000
1442194,34317.0,39895.0,45565.0,40223.0,0,0,0,40000
1442204,34284.0,40108.0,45488.0,40120.0,0,0,0,40000
1442214,32596.0,41160.0,46842.0,39402.0,0,0,0,40000
1442224,33415.0,40159.0,46791.0,39635.0,0,0,0,40000
1442234,33419.0,41063.0,45815.0,39703.0,0,0,0,40000
1442244,34492.0,40034.0,45632.0,39842.0,0,0,0,40000
1442254,34348.0,38778.0,45206.0,41668.0,0,0,0,40000
1442264,34303.0,39461.0,45655.0,40581.0,0,0,0,40000
1442274,34823.0,39463.0,44465.0,41249.0,0,0,0,40000
1442284,34598.0,39520.0,45488.0,40394.0,0,0,0,40000
1442294,34995.0,39265.0,44587.0,41153.0,0,0,0,40000
1442304,35703.0,39841.0,44033.0,40423.0,0,0,0,40000
1442314,34733.0,40539.0,44927.0,39801.0,0,0,0,40000
1442324,34207.0,40063.0,45723.0,40007.0,0,0,0,40000
1442334,34563.0,39205.0,45169.0,41063.0,0,0,0,40000
1442344,34353.0,39005.0,45235.0,41407.0,0,0,0,40000
1442354,33812.0,39842.0,45780.0,40566.0,0,0,0,40000
1442364,33672.0,39280.0,46432.0,40616.0,0,0,0,40000
1442374,32828.0,40574.0,46696.0,39902.0,0,0,0,40000
1442384,34040.0,40270.0,45854.0,39836.0,0,0,0,40000
1442394,33658.0,39414.0,46204.0,40724.0,0,0,0,40000
1442404,34102.0,39542.0,45836.0,40520.0,0,0,0,40000
1442414,34122.0,39422.0,44748.0,41708.0,0,0,0,40000
1442424,34774.0,38608.0,45238.0,41380.0,0,0,0,40000
1442434,34889.0,38521.0,44897.0,41693.0,0,0,0,40000
1442444,35190.0,38172.0,44576.0,42062.0,0,0,0,40000
1442454,35474.0,37990.0,43866.0,42670.0,0,0,0,40000
1442464,35547.0,37877.0,44435.0,42141.0,0,0,0,40000
1442474,35298.0,38042.0,44648.0,42012.0,0,0,0,40000
1442484,35217.0,39217.0,44317.0,41249.0,0,0,0,40000
1442494,35343.0,38267.0,44595.0,41795.0,0,0,0,40000
1442504,34359.0,38835.0,45279.0,41527.0,0,0,0,40000
1442514,33226.0,39678.0,46782.0,40314.0,0,0,0,40000
1442524,33391.0,40289.0,45899.0,40421.0,0,0,0,40000
1442534,33742.0,40576.0,46000.0,39682.0,0,0,0,40000
1442544,33959.0,40599.0,46185.0,39257.0,0,0,0,40000
1442554,32915.0,40467.0,46821.0,39797.0,0,0,0,40000
1442564,33547.0,41145.0,45843.0,39465.0,0,0,0,40000
1442574,34574.0,39192.0,45718.0,40516.0,0,0,0,40000
1442584,33763.0,39951.0,45763.0,40523.0,0,0,0,40000
1442594,34101.0,40065.0,45969.0,39865.0,0,0,0,40000
1442604,33351.0,40025.0,45809.0,40815.0,0,0,0,40000
1442614,35309.0,38357.0,44719.0,41615.0,0,0,0,40000
1442624,35907.0,38239.0,43677.0,42177.0,0,0,0,40000
1442634,35403.0,39023.0,44537.0,41037.0,0,0,0,40000
1442644,35412.0,38466.0,43802.0,42320.0,0,0,0,40000
1442654,35406.0,38830.0,44602.0,41162.0,0,0,0,40000
1442664,35754.0,38500.0,44120.0,41626.0,0,0,0,40000
1442674,34673.0,39513.0,45121.0,40693.0,0,0,0,40000
1442684,34547.0,40553.0,45419.0,39481.0,0,0,0,40000
1442694,35216.0,40682.0,44378.0,39724.0,0,0,0,40000
1442704,34150.0,40792.0,46126.0,38932.0,0,0,0,40000
1442714,33366.0,40634.0,45994.0,40006.0,0,0,0,40000
1442724,33637.0,41085.0,46313.0,38965.0,0,0,0,40000
1442734,34802.0,40716.0,44522.0,39960.0,0,0,0,40000
1442744,35655.0,40367.0,44699.0,39279.0,0,0,0,40000
1442754,34654.0,40704.0,44544.0,40098.0,0,0,0,40000
1442764,33618.0,40690.0,45926.0,39766.0,0,0,0,40000
1442774,35068.0,40516.0,45128.0,39288.0,0,0,0,40000
1442784,35365.0,40539.0,44715.0,39381.0,0,0,0,40000
1442794,35757.0,40807.0,44313.0,39123.0,0,0,0,40000
1442804,34604.0,40330.0,44824.0,40242.0,0,0,0,40000
1442814,34808.0,40428.0,45006.0,39758.0,0,0,0,40000
1442824,36660.0,39722.0,43336.0,40282.0,0,0,0,40000
1442834,36048.0,40134.0,43318.0,40500.0,0,0,0,40000
1442844,35934.0,41602.0,43420.0,39044.0,0,0,0,40000
1442854,35000.0,40902.0,44414.0,39684.0,0,0,0,40000
1442864,34574.0,41226.0,45614.0,38586.0,0,0,0,40000
1442874,34746.0,40454.0,45038.0,39762.0,0,0,0,40000
1442884,35125.0,40371.0,44711.0,39793.0,0,0,0,40000
1442894,34840.0,40166.0,44934.0,40060.0,0,0,0,40000
1442904,34175.0,39433.0,45675.0,40717.0,0,0,0,40000
1442914,34226.0,40586.0,45630.0,39558.0,0,0,0,40000
1442924,34238.0,40538.0,45122.0,40102.0,0,0,0,40000
1442934,33530.0,40790.0,46530.0,39150.0,0,0,0,40000
1442944,33505.0,41277.0,45443.0,39775.0,0,0,0,40000
1442954,34149.0,40069.0,46217.0,39565.0,0,0,0,40000
1442964,33563.0,40191.0,45551.0,40695.0,0,0,0,40000
1442974,34100.0,39462.0,45884.0,40554.0,0,0,0,40000
1442984,33699.0,39753.0,45529.0,41019.0,0,0,0,40000
1442994,34263.0,39411.0,46225.0,40101.0,0,0,0,40000
1443004,33730.0,40976.0,45312.0,39982.0,0,0,0,40000
1443014,34078.0,39158.0,46226.0,40538.0,0,0,0,40000
1443024,33939.0,39387.0,45441.0,41233.0,0,0,0,40000
1443034,35353.0,38239.0,45107.0,41301.0,0,0,0,40000
1443044,36309.0,38599.0,43227.0,41865.0,0,0,0,40000
1443054,35712.0,38806.0,44146.0,41336.0,0,0,0,40000
1443064,34248.0,39062.0,45340.0,41350.0,0,0,0,40000
1443074,34263.0,39789.0,45113.0,40835.0,0,0,0,40000
1443084,34898.0,38988.0,44928.0,41186.0,0,0,0,40000
1443094,33459.0,40815.0,45851.0,39875.0,0,0,0,40000
1443104,33881.0,41097.0,46161.0,38861.0,0,0,0,40000
1443114,33471.0,41737.0,45955.0,38837.0,0,0,0,40000
1443124,33751.0,41623.0,46553.0,38073.0,0,0,0,40000
1443134,32429.0,41593.0,46823.0,39155.0,0,0,0,40000
1443144,34219.0,39581.0,45817.0,40383.0,0,0,0,40000
1443154,35816.0,39524.0,44106.0,40554.0,0,0,0,40000
1443164,35939.0,39895.0,43779.0,40387.0,0,0,0,40000
1443174,35778.0,39816.0,43968.0,40438.0,0,0,0,40000
1443184,35730.0,39406.0,44018.0,40846.0,0,0,0,40000
1443194,36336.0,39522.0,43578.0,40564.0,0,0,0,40000
1443204,36071.0,39661.0,43705.0,40563.0,0,0,0,40000
1443214,34712.0,40406.0,44640.0,40242.0,0,0,0,40000
1443224,34929.0,40931.0,45105.0,39035.0,0,0,0,40000
1443234,33896.0,42458.0,45916.0,37730.0,0,0,0,40000
1443244,33589.0,41573.0,46389.0,38449.0,0,0,0,40000
1443254,33581.0,42359.0,45837.0,38223.0,0,0,0,40000
1443264,32965.0,40621.0,47427.0,38987.0,0,0,0,40000
1443274,32768.0,42460.0,46322.0,38450.0,0,0,0,40000
1443284,34194.0,41334.0,46048.0,38424.0,0,0,0,40000
1443294,33123.0,41871.0,46103.0,38903.0,0,0,0,40000
1443304,34816.0,39960.0,44850.0,40374.0,0,0,0,40000
1443314,34721.0,40343.0,44945.0,39991.0,0,0,0,40000
1443324,35824.0,39960.0,44326.0,39890.0,0,0,0,40000
1443334,36584.0,39792.0,42930.0,40694.0,0,0,0,40000
1443344,36474.0,38694.0,43284.0,41548.0,0,0,0,40000
1443354,36994.0,37956.0,42646.0,42404.0,0,0,0,40000
1443364,35820.0,39020.0,44408.0,40752.0,0,0,0,40000
1443374,35362.0,39858.0,43822.0,40958.0,0,0,0,40000
1443384,36150.0,39940.0,43822.0,40088.0,0,0,0,40000
1443394,35597.0,39231.0,43973.0,41199.0,0,0,0,40000
1443404,35265.0,38767.0,44611.0,41357.0,0,0,0,40000
1443414,33762.0,40420.0,45722.0,40096.0,0,0,0,40000
1443424,33791.0,41007.0,46033.0,39169.0,0,0,0,40000
1443434,34130.0,40520.0,45480.0,39870.0,0,0,0,40000
1443444,35006.0,39526.0,45280.0,40188.0,0,0,0,40000
1443454,33932.0,41374.0,45352.0,39342.0,0,0,0,40000
1443464,33888.0,40104.0,46412.0,39596.0,0,0,0,40000
1443474,33446.0,40128.0,45902.0,40524.0,0,0,0,40000
1443484,34550.0,39652.0,45396.0,40402.0,0,0,0,40000
1443494,35688.0,39372.0,44182.0,40758.0,0,0,0,40000
1443504,34008.0,39196.0,45360.0,41436.0,0,0,0,40000
1443514,33959.0,40067.0,45879.0,40095.0,0,0,0,40000
1443524,34526.0,40312.0,44450.0,40712.0,0,0,0,40000
1443534,34914.0,39890.0,45814.0,39382.0,0,0,0,40000
1443544,34597.0,41409.0,44557.0,39437.0,0,0,0,40000
1443554,34101.0,39823.0,46359.0,39717.0,0,0,0,40000
1443564,34136.0,40612.0,45134.0,40118.0,0,0,0,40000
1443574,34784.0,40466.0,45520.0,39230.0,0,0,0,40000
1443584,34882.0,40870.0,44790.0,39458.0,0,0,0,40000
1443594,34541.0,40145.0,44871.0,40443.0,0,0,0,40000
1443604,35900.0,39748.0,44120.0,40232.0,0,0,0,40000
1443614,34783.0,39939.0,44535.0,40743.0,0,0,0,40000
1443624,35153.0,39125.0,45087.0,40635.0,0,0,0,40000
1443634,34670.0,40452.0,44456.0,40422.0,0,0,0,40000
1443644,35133.0,40779.0,45309.0,38779.0,0,0,0,40000
1443654,34423.0,40321.0,44891.0,40365.0,0,0,0,40000
1443664,35163.0,40297.0,44655.0,39885.0,0,0,0,40000
1443674,35342.0,40338.0,44236.0,40084.0,0,0,0,40000
1443684,34102.0,40522.0,45570.0,39806.0,0,0,0,40000
1443694,34097.0,40485.0,45473.0,39945.0,0,0,0,40000
1443704,34929.0,39385.0,44941.0,40745.0,0,0,0,40000
1443714,34226.0,39682.0,45170.0,40922.0,0,0,0,40000
1443724,34165.0,39305.0,46255.0,40275.0,0,0,0,40000
1443734,33626.0,39880.0,45804.0,40690.0,0,0,0,40000
1443744,34047.0,40011.0,46383.0,39559.0,0,0,0,40000
1443754,33472.0,39510.0,45942.0,41076.0,0,0,0,40000
1443764,34512.0,39146.0,45452.0,40890.0,0,0,0,40000
1443774,34320.0,39240.0,45208.0,41232.0,0,0,0,40000
1443784,33947.0,38721.0,45557.0,41775.0,0,0,0,40000
1443794,33741.0,38159.0,45857.0,42243.0,0,0,0,40000
1443804,34039.0,39125.0,45251.0,41585.0,0,0,0,40000
1443814,34374.0,39040.0,45446.0,41140.0,0,0,0,40000
1443824,33621.0,40159.0,45653.0,40567.0,0,0,0,40000
1443834,33485.0,39603.0,46823.0,40089.0,0,0,0,40000
1443844,33618.0,39776.0,46096.0,40510.0,0,0,0,40000
1443854,34110.0,39478.0,46118.0,40294.0,0,0,0,40000
1443864,32457.0,39609.0,46543.0,41391.0,0,0,0,40000
1443874,32594.0,40384.0,48070.0,38952.0,0,0,0,40000
1443884,33954.0,41510.0,45304.0,39232.0,0,0,0,40000
1443894,33560.0,40848.0,46308.0,39284.0,0,0,0,40000
1443904,32595.0,41697.0,46563.0,39145.0,0,0,0,40000
1443914,32661.0,40813.0,47393.0,39133.0,0,0,0,40000
1443924,34680.0,40932.0,44942.0,39446.0,0,0,0,40000
1443934,34211.0,41435.0,45189.0,39165.0,0,0,0,40000
1443944,34116.0,40918.0,45822.0,39144.0,0,0,0,40000
1443954,34102.0,40264.0,45694.0,39940.0,0,0,0,40000
1443964,34124.0,39352.0,46252.0,40272.0,0,0,0,40000
1443974,33753.0,41281.0,46039.0,38927.0,0,0,0,40000
1443984,33768.0,41912.0,45790.0,38530.0,0,0,0,40000
1443994,35173.0,42397.0,44275.0,38155.0,0,0,0,40000
1444004,34866.0,39334.0,45256.0,40544.0,0,0,0,40000
1444014,33845.0,40123.0,45207.0,40825.0,0,0,0,40000
1444024,34910.0,39026.0,44882.0,41182.0,0,0,0,40000
1444034,35623.0,40269.0,44083.0,40025.0,0,0,0,40000
1444044,34806.0,39116.0,45200.0,40878.0,0,0,0,40000
1444054,35104.0,39442.0,44674.0,40780.0,0,0,0,40000
1444064,34783.0,39097.0,45263.0,40857.0,0,0,0,40000
1444074,33687.0,38741.0,45739.0,41833.0,0,0,0,40000
1444084,33990.0,39820.0,46012.0,40178.0,0,0,0,40000
1444094,34126.0,39982.0,45366.0,40526.0,0,0,0,40000
1444104,33762.0,40038.0,45952.0,40248.0,0,0,0,40000
1444114,34651.0,40223.0,44931.0,40195.0,0,0,0,40000
1444124,32836.0,39340.0,47080.0,40744.0,0,0,0,40000
1444134,32564.0,40768.0,47116.0,39552.0,0,0,0,40000
1444144,32582.0,40120.0,47526.0,39772.0,0,0,0,40000
1444154,33055.0,40019.0,46469.0,40457.0,0,0,0,40000
1444164,32883.0,40721.0,47483.0,38913.0,0,0,0,40000
1444174,32562.0,40430.0,47044.0,39964.0,0,0,0,40000
1444184,32017.0,40323.0,47217.0,40443.0,0,0,0,40000
1444194,33170.0,40430.0,46482.0,39918.0,0,0,0,40000
1444204,33348.0,38832.0,46704.0,41116.0,0,0,0,40000
1444214,32755.0,39833.0,46529.0,40883.0,0,0,0,40000
1444224,33344.0,39378.0,46454.0,40824.0,0,0,0,40000
1444234,31929.0,40543.0,47341.0,40187.0,0,0,0,40000
1444244,32782.0,39566.0,47664.0,39988.0,0,0,0,40000
1444254,33691.0,38971.0,45861.0,41477.0,0,0,0,40000
1444264,34711.0,39627.0,45343.0,40319.0,0,0,0,40000
1444274,33865.0,40429.0,45881.0,39825.0,0,0,0,40000
1444284,34491.0,38727.0,45147.0,41635.0,0,0,0,40000
1444294,34460.0,39450.0,45060.0,41030.0,0,0,0,40000
1444304,34472.0,39488.0,45382.0,40658.0,0,0,0,40000
1444314,34683.0,39403.0,45111.0,40803.0,0,0,0,40000
1444324,35284.0,38762.0,44228.0,41726.0,0,0,0,40000
1444334,35390.0,39732.0,44572.0,40306.0,0,0,0,40000
1444344,34983.0,39167.0,44549.0,41301.0,0,0,0,40000
1444354,35490.0,39494.0,44948.0,40068.0,0,0,0,40000
1444364,35016.0,40044.0,44200.0,40740.0,0,0,0,40000
1444374,35030.0,40862.0,45172.0,38936.0,0,0,0,40000
1444384,33791.0,42139.0,45561.0,38509.0,0,0,0,40000
1444394,34616.0,40610.0,45758.0,39016.0,0,0,0,40000
1444404,33208.0,41200.0,45892.0,39700.0,0,0,0,40000
1444414,33799.0,40749.0,46145.0,39307.0,0,0,0,40000
1444424,33542.0,41484.0,46280.0,38694.0,0,0,0,40000
1444434,33265.0,42273.0,46449.0,38013.0,0,0,0,40000
1444444,34460.0,40672.0,44980.0,39888.0,0,0,0,40000
1444454,34550.0,40092.0,45732.0,39626.0,0,0,0,40000
1444464,34628.0,39958.0,45264.0,40150.0,0,0,0,40000
1444474,33452.0,40806.0,46072.0,39670.0,0,0,0,40000
1444484,33658.0,40480.0,45572.0,40290.0,0,0,0,40000
1444494,34121.0,39703.0,46027.0,40149.0,0,0,0,40000
1444504,33310.0,40348.0,46396.0,39946.0,0,0,0,40000
1444514,33088.0,40662.0,46570.0,39680.0,0,0,0,40000
1444524,33348.0,40036.0,45890.0,40726.0,0,0,0,40000
1444534,32991.0,39857.0,47463.0,39689.0,0,0,0,40000
1444544,32508.0,41302.0,47276.0,38914.0,0,0,0,40000
1444554,33948.0,41398.0,45886.0,38768.0,0,0,0,40000
1444564,32780.0,40598.0,46656.0,39966.0,0,0,0,40000
1444574,32010.0,40366.0,48200.0,39424.0,0,0,0,40000
1444584,32960.0,40256.0,46570.0,40214.0,0,0,0,40000
1444594,33081.0,39511.0,46777.0,40631.0,0,0,0,40000
1444604,33811.0,40523.0,45145.0,40521.0,0,0,0,40000
1444614,33849.0,39301.0,46449.0,40401.0,0,0,0,40000
1444624,33196.0,40236.0,45996.0,40572.0,0,0,0,40000
1444634,34751.0,38447.0,45591.0,41211.0,0,0,0,40000
1444644,31977.0,40705.0,47233.0,40085.0,0,0,0,40000
1444654,34076.0,39914.0,46230.0,39780.0,0,0,0,40000
1444664,33457.0,40463.0,45665.0,40415.0,0,0,0,40000
1444674,34052.0,40298.0,46388.0,39262.0,0,0,0,40000
1444684,33360.0,39910.0,45866.0,40864.0,0,0,0,40000
1444694,34154.0,39082.0,46022.0,40742.0,0,0,0,40000
1444704,34223.0,39005.0,44865.0,41907.0,0,0,0,40000
1444714,33643.0,39915.0,46667.0,39775.0,0,0,0,40000
1444724,34132.0,39622.0,45122.0,41124.0,0,0,0,40000
1444734,35042.0,39340.0,44766.0,40852.0,0,0,0,40000
1444744,34074.0,39506.0,45502.0,40918.0,0,0,0,40000
1444754,35019.0,38665.0,45007.0,41309.0,0,0,0,40000
1444764,35371.0,39027.0,44335.0,41267.0,0,0,0,40000
1444774,35565.0,39781.0,44165.0,40489.0,0,0,0,40000
1444784,35301.0,39475.0,44637.0,40587.0,0,0,0,40000
1444794,34534.0,39806.0,45226.0,40434.0,0,0,0,40000
1444804,33568.0,40558.0,45538.0,40336.0,0,0,0,40000
1444814,34434.0,40712.0,45252.0,39602.0,0,0,0,40000
1444824,33485.0,40943.0,46339.0,39233.0,0,0,0,40000
1444834,33673.0,41683.0,46173.0,38471.0,0,0,0,40000
1444844,33363.0,40447.0,46201.0,39989.0,0,0,0,40000
1444854,33423.0,41891.0,46145.0,38541.0,0,0,0,40000
1444864,33781.0,40275.0,46183.0,39761.0,0,0,0,40000
1444874,34347.0,41507.0,45501.0,38645.0,0,0,0,40000
1444884,35099.0,40231.0,44841.0,39829.0,0,0,0,40000
1444894,34869.0,40129.0,44787.0,40215.0,0,0,0,40000
1444904,34833.0,39855.0,45117.0,40195.0,0,0,0,40000
1444914,34314.0,39834.0,45362.0,40490.0,0,0,0,40000
1444924,35635.0,39265.0,44075.0,41025.0,0,0,0,40000
1444934,35179.0,39203.0,44175.0,41443.0,0,0,0,40000
1444944,35360.0,39880.0,44658.0,40102.0,0,0,0,40000
1444954,34621.0,40167.0,44343.0,40869.0,0,0,0,40000
1444964,34746.0,39058.0,45556.0,40640.0,0,0,0,40000
1444974,33825.0,40659.0,45399.0,40117.0,0,0,0,40000
1444984,35660.0,39760.0,45122.0,39458.0,0,0,0,40000
1444994,33608.0,41016.0,45644.0,39732.0,0,0,0,40000
1445004,34172.0,40082.0,45984.0,39762.0,0,0,0,40000
1445014,35917.0,38309.0,43525.0,42249.0,0,0,0,40000
1445024,34779.0,39333.0,45251.0,40637.0,0,0,0,40000
1445034,34842.0,40040.0,44686.0,40432.0,0,0,0,40000
1445044,35526.0,39700.0,44640.0,40134.0,0,0,0,40000
1445054,33532.0,39100.0,46104.0,41264.0,0,0,0,40000
1445064,34442.0,39458.0,45138.0,40962.0,0,0,0,40000
1445074,35811.0,39339.0,43923.0,40927.0,0,0,0,40000
1445084,35682.0,39676.0,44118.0,40524.0,0,0,0,40000
1445094,34334.0,39962.0,44890.0,40814.0,0,0,0,40000
1445104,34546.0,38262.0,45526.0,41666.0,0,0,0,40000
1445114,34794.0,39176.0,44894.0,41136.0,0,0,0,40000
1445124,34497.0,38935.0,45623.0,40945.0,0,0,0,40000
1445134,34236.0,40514.0,45184.0,40066.0,0,0,0,40000
1445144,33713.0,40275.0,46693.0,39319.0,0,0,0,40000
1445154,33524.0,40118.0,45752.0,40606.0,0,0,0,40000
1445164,33569.0,39691.0,46169.0,40571.0,0,0,0,40000
1445174,33359.0,39997.0,46489.0,40155.0,0,0,0,40000
1445184,33326.0,39570.0,46204.0,40900.0,0,0,0,40000
1445194,34233.0,39269.0,45529.0,40969.0,0,0,0,40000
1445204,33886.0,39680.0,45424.0,41010.0,0,0,0,40000
1445214,34006.0,40382.0,45920.0,39692.0,0,0,0,40000
1445224,33199.0,39563.0,46575.0,40663.0,0,0,0,40000
1445234,34020.0,39648.0,45696.0,40636.0,0,0,0,40000
1445244,34097.0,39075.0,45731.0,41097.0,0,0,0,40000
1445254,34743.0,39495.0,45163.0,40599.0,0,0,0,40000
1445264,33720.0,39086.0,45986.0,41208.0,0,0,0,40000
1445274,33035.0,39863.0,46375.0,40727.0,0,0,0,40000
1445284,34466.0,39624.0,45512.0,40398.0,0,0,0,40000
1445294,34808.0,40220.0,44444.0,40528.0,0,0,0,40000
1445304,35960.0,38544.0,44238.0,41258.0,0,0,0,40000
1445314,34760.0,39328.0,44566.0,41346.0,0,0,0,40000
1445324,34925.0,38139.0,45169.0,41767.0,0,0,0,40000
1445334,35065.0,37469.0,44679.0,42787.0,0,0,0,40000
1445344,35303.0,38365.0,45011.0,41321.0,0,0,0,40000
1445354,34831.0,39317.0,44657.0,41195.0,0,0,0,40000
1445364,35673.0,38791.0,44439.0,41097.0,0,0,0,40000
1445374,34096.0,39346.0,45074.0,41484.0,0,0,0,40000
1445384,34179.0,39507.0,45701.0,40613.0,0,0,0,40000
1445394,33093.0,41269.0,46295.0,39343.0,19.999987544750606,0.022320614252745175,0,40000
1445404,20835.0,26399.0,58973.0,53793.0,19.95753175281329,1.3026612512274003,0,40000
1445414,14256.0,32978.0,65535.0,47180.0,19.95753175281329,1.3026612512274003,0,40000
1445424,12057.0,35177.0,65535.0,45367.0,19.624851125868002,3.855543838100856,0,40000
1445434,17035.0,30199.0,62551.0,50215.0,19.284896596304286,5.300260679424307,0,40000
1445444,18508.0,30226.0,61516.0,49750.0,19.284896596304286,5.300260679424307,0,40000
1445454,14872.0,39240.0,65002.0,40886.0,18.90217323529496,6.535124098507911,0,40000
1445464,21437.0,34291.0,58651.0,45621.0,18.44242840360209,7.738012314413237,0,40000
1445474,18482.0,43370.0,60884.0,37264.0,17.906465842190798,8.908337726111089,0,40000
1445484,25908.0,37770.0,54916.0,41406.0,17.295366620696843,10.043420406200543,0,40000
1445494,28138.0,37768.0,51918.0,42176.0,16.61267834915535,11.136378139570564,0,40000
1445504,32995.0,40093.0,47407.0,39505.0,15.851416963205534,12.19559675696929,0,40000
1445514,33011.0,41413.0,46971.0,38605.0,15.03202119123979,13.192359110717,0,40000
1445524,39713.0,41773.0,41213.0,37301.0,14.152914837786025,14.131348187429824,0,40000
1445534,39248.0,42534.0,41966.0,36252.0,13.218685350915962,15.008875960360248,0,40000
1445544,45739.0,44497.0,35047.0,34717.0,12.209934267291043,15.840375790631736,0,40000
1445554,43625.0,45473.0,38541.0,32361.0,11.141330010243834,16.60935777213677,0,40000
1445564,47830.0,46490.0,33908.0,31772.0,10.04927525217117,17.291965385869243,0,40000
1445574,47133.0,47983.0,35315.0,29569.0,8.91590140876559,17.902700971338703,0,40000
1445584,50381.0,49623.0,31981.0,28015.0,7.747266477178382,18.438542841873055,0,40000
1445594,47735.0,49793.0,35759.0,26713.0,6.52255035570981,18.906515724935407,0,40000
1445604,49876.0,51154.0,32996.0,25974.0,5.257491498325821,19.296600300183236,0,40000
1445614,46820.0,52908.0,35536.0,24736.0,3.973449955963998,19.601318717051914,0,40000
1445624,48514.0,52518.0,34490.0,24478.0,2.7063980438244952,19.81603920132333,0,40000
1445634,44671.0,50559.0,37811.0,26959.0,1.4245858063313737,19.949199364395533,0,40000
1445644,45858.0,53070.0,35242.0,25830.0,0.13452191023868587,19.9995475912748,0,40000
1445654,46373.0,55891.0,33579.0,24157.0,-1.1499708388888699,19.966911806028122,0,40000
1445664,43952.0,48988.0,35950.0,31110.0,-2.4308174478560978,19.851728552828803,0,40000
1445674,41066.0,50492.0,37494.0,30948.0,-2.4308174478560978,19.851728552828803,0,40000
1445684,40665.0,49645.0,36999.0,32691.0,-4.975621293823807,19.37119492288607,0,40000
1445694,40942.0,48878.0,35166.0,35014.0,-4.975621293823807,19.37119492288607,0,40000
1445704,40170.0,44688.0,36166.0,38976.0,-6.2492209069889935,18.99861147704357,0,40000
1445714,37258.0,46864.0,36236.0,39642.0,-7.46299424797506,18.55542284224995,0,40000
1445724,41990.0,43228.0,31402.0,43380.0,-8.63715874760428,18.03883279951014,0,40000
1445734,42443.0,46399.0,29169.0,41989.0,-9.788648606096917,17.440824477826638,0,40000
1445744,39135.0,40841.0,32909.0,47115.0,-10.911898644614247,16.760980519339128,0,40000
1445754,39492.0,45100.0,29576.0,45832.0,-11.982461265317724,16.013139043459294,0,40000
1445764,36928.0,40198.0,32698.0,50176.0,-12.986746400021904,15.210010451722841,0,40000
1445774,34996.0,42242.0,33348.0,49414.0,-13.93654912276235,14.344776002044506,0,40000
1445784,31599.0,35651.0,36545.0,56205.0,-14.825680499054524,13.423829473736413,0,40000
1445794,33832.0,40356.0,32934.0,52878.0,-15.659704754504455,12.440805721566049,0,40000
1445804,22175.0,39501.0,45695.0,52629.0,-16.429297773454653,11.405181921879109,0,40000
1445814,20994.0,39996.0,46338.0,52672.0,-17.156666625766185,10.278559738227955,0,40000
1445824,18764.0,36480.0,48930.0,55826.0,-17.794841295095758,9.129272878074946,0,40000
1445834,20583.0,39753.0,46719.0,52945.0,-18.349147037083963,7.956682915101797,0,40000
1445844,15522.0,37446.0,53150.0,53882.0,-18.824736700916866,6.7549454580443165,0,40000
1445854,19111.0,38803.0,49977.0,52109.0,-19.22154240176206,5.525604735887572,0,40000
1445864,15030.0,38308.0,54948.0,51714.0,-19.53622380956084,4.2820508244003985,0,40000
1445874,18412.0,39260.0,52118.0,50210.0,-19.773036227005896,3.00450301472845,0,40000
1445884,15709.0,38071.0,56353.0,49867.0,-19.93009778776149,1.6706891303484839,0,40000
1445894,19441.0,36695.0,53277.0,50587.0,-19.99621169363583,0.38925300679862607,0,40000
1445904,19514.0,36732.0,54132.0,49622.0,-19.98009896751092,-0.8919894889902741,0,40000
1445914,22152.0,36560.0,52128.0,49160.0,-19.881497586097588,-2.17394888026277,0,40000
1445924,22386.0,36034.0,52990.0,48590.0,-19.699809033220458,-3.4521767125461174,0,40000
1445934,26480.0,34752.0,49588.0,49180.0,-19.43358765096413,-4.726062950521756,0,40000
1445944,26184.0,32632.0,50874.0,50310.0,-19.09010030773542,-5.963897235918807,0,40000
1445954,29290.0,33052.0,48318.0,49340.0,-18.66713548423196,-7.179000822769702,0,40000
1445964,29576.0,33794.0,48510.0,48120.0,-18.1683585337199,-8.361264748242775,0,40000
1445974,32035.0,34471.0,46061.0,47433.0,-17.592002114801694,-9.514276724628772,0,40000
1445984,32041.0,36275.0,46759.0,44925.0,-16.94460502973506,-10.624516948373568,0,40000
1445994,34253.0,35961.0,45353.0,44433.0,-16.22925083333845,-11.688088696984773,0,40000
1446004,31605.0,37501.0,48361.0,42533.0,-16.22925083333845,-11.688088696984773,0,40000
1446014,33391.0,38687.0,46375.0,41547.0,-14.593341705720801,-13.676051252465747,0,40000
1446024,32459.0,41725.0,47001.0,38815.0,-14.593341705720801,-13.676051252465747,0,40000
1446034,33755.0,40961.0,47147.0,38137.0,-13.682761205460832,-14.58705062013346,0,40000
1446044,31761.0,43543.0,48453.0,36243.0,-12.717186314059536,-15.436099645101311,0,40000
1446054,32694.0,40756.0,47354.0,39196.0,-11.6932665310657,-16.225520572032774,0,40000
1446064,31422.0,45218.0,47854.0,35506.0,-10.623095435287164,-16.94549625631486,0,40000
1446074,30743.0,36655.0,49167.0,43435.0,-9.49197418659622,-17.60404572934844,0,40000
1446084,29257.0,39309.0,49679.0,41755.0,-8.341473244132326,-18.177453730306247,0,40000
1446094,30378.0,37034.0,48832.0,43756.0,-7.1556173839922055,-18.676111475730394,0,40000
1446104,28819.0,38943.0,48661.0,43577.0,-5.917007992934877,-19.104685718732583,0,40000
1446114,29114.0,35848.0,49326.0,45712.0,-4.67603283406869,-19.445686332313176,0,40000
1446124,28213.0,37907.0,49313.0,44567.0,-3.410735849272526,-19.70702618272192,0,40000
1446134,33376.0,42480.0,44474.0,39670.0,-2.1091891320866516,-19.88847206813755,0,40000
1446144,33882.0,43398.0,42520.0,40200.0,-0.8260173741871755,-19.982935102170075,0,40000
1446154,32364.0,40716.0,44816.0,42104.0,0.4748302934540349,-19.994362610306396,0,40000
1446164,33035.0,42057.0,43701.0,41207.0,1.7595530780575008,-19.922448970081422,0,40000
1446174,32070.0,39892.0,44184.0,43854.0,3.0511766071996305,-19.765887819970995,0,40000
1446184,32315.0,42383.0,43893.0,41409.0,4.3145884516807715,-19.529063635838327,0,40000
1446194,31557.0,39533.0,44051.0,44859.0,5.572925942669098,-19.20787589603613,0,40000
1446204,30921.0,42725.0,45249.0,41105.0,6.795171371669015,-18.810253747082996,0,40000
1446214,30100.0,41080.0,45034.0,43786.0,7.9972350385275925,-18.331509259702173,0,40000
1446224,29575.0,43657.0,45635.0,41133.0,9.160740695252715,-17.778662208229864,0,40000
1446234,27936.0,41698.0,46356.0,44010.0,10.283776600177779,-17.1535401255145,0,40000
1446244,30411.0,43383.0,44323.0,41883.0,11.36860557984505,-16.45462874603727,0,40000
1446254,27658.0,42538.0,45984.0,43820.0,12.403541677680005,-15.689236879149194,0,40000
1446264,30293.0,44151.0,43617.0,41939.0,13.386030198504304,-14.859818152478542,0,40000
1446274,28431.0,43371.0,44765.0,43433.0,14.314951281486225,-13.967181885000135,0,40000
1446284,31174.0,44310.0,42494.0,42022.0,15.185022236568248,-13.015955580552962,0,40000
1446294,29526.0,42710.0,43758.0,44006.0,15.997095313109062,-12.003871939641147,0,40000
1446304,32005.0,43939.0,40933.0,43123.0,16.737238817342185,-10.948280082791728,0,40000
1446314,31492.0,42652.0,41880.0,43976.0,17.40662572754816,-9.849334027286233,0,40000
1446324,32521.0,44913.0,40329.0,42237.0,18.004990202850333,-8.70748688171642,0,40000
1446334,31105.0,43773.0,42283.0,42839.0,18.526779102939187,-7.533820814891729,0,40000
1446344,33697.0,44853.0,38791.0,42659.0,18.972753582333073,-6.327291798555487,0,40000
1446354,32810.0,45000.0,41018.0,41172.0,18.972753582333073,-6.327291798555487,0,40000
1446364,34480.0,47022.0,38348.0,40150.0,19.344491206630366,-5.07845054683024,0,40000
1446374,33599.0,45195.0,40285.0,40921.0,19.6307824773245,-3.825229317043528,0,40000
1446384,34863.0,47277.0,38687.0,39173.0,19.845540651882093,-2.480829747180411,0,40000
1446394,33129.0,46879.0,41479.0,38513.0,19.964796329458416,-1.1861313263057471,0,40000
1446404,36519.0,47513.0,37275.0,38693.0,19.999700704365686,0.10941542758996475,0,40000
1446414,34256.0,46590.0,41288.0,37866.0,19.950762116184656,1.402530207664414,0,40000
1446424,33192.0,53442.0,41942.0,31424.0,19.819095534314815,2.6839247757160734,0,40000
1446434,31298.0,53474.0,44818.0,30410.0,19.60279354458262,3.966167576952582,0,40000
1446444,34180.0,53688.0,41874.0,30258.0,19.296419143717966,5.258156352749016,0,40000
1446454,32574.0,51842.0,44182.0,31402.0,18.916674031750212,6.493030384689966,0,40000
1446464,37182.0,52710.0,40310.0,29798.0,18.45375689933613,7.710956899127641,0,40000
1446474,34633.0,53059.0,42571.0,29737.0,17.915544427183313,8.8900656846629,0,40000
1446484,40345.0,43719.0,37325.0,38611.0,17.29902148894889,10.037123867168553,0,40000
1446494,38518.0,43770.0,39604.0,38108.0,16.613946119659488,11.13448671170124,0,40000
1446504,42797.0,41815.0,36143.0,39245.0,15.851599654894926,12.195359296918442,0,40000
1446514,38918.0,43290.0,39594.0,38198.0,14.999287866442632,13.229563995067517,0,40000
1446524,40467.0,41555.0,38053.0,39925.0,14.117772757734464,14.166456591574711,0,40000
1446534,39002.0,41864.0,40540.0,38594.0,13.1776708299855,15.044899185323553,0,40000
1446544,40829.0,40819.0,37751.0,40601.0,12.191440811001694,15.854613554162786,0,40000
1446554,37564.0,42924.0,41676.0,37836.0,11.139289660831295,16.61072622891898,0,40000
1446564,38711.0,41353.0,39761.0,40175.0,10.041218064425655,17.296645333204122,0,40000
1446574,37750.0,41982.0,42046.0,38222.0,8.904662597204704,17.90829372190281,0,40000
1446584,37861.0,41629.0,39601.0,40909.0,7.735332386936352,18.443552609614386,0,40000
1446594,37977.0,42281.0,40879.0,38863.0,6.531216352698759,18.90352382372769,0,40000
1446604,37185.0,40153.0,40125.0,42537.0,5.299133987006207,19.28520622103263,0,40000
1446614,38191.0,43503.0,40103.0,38203.0,4.049089452600697,19.58583351825594,0,40000
1446624,36162.0,41998.0,39750.0,42090.0,2.7809770547151484,19.80571045484478,0,40000
1446634,35326.0,43220.0,42172.0,39282.0,1.4810616532612708,19.94508602085333,0,40000
1446644,35163.0,41225.0,40679.0,42933.0,0.1957891470639963,19.999041642286063,0,40000
1446654,34677.0,41657.0,40771.0,42895.0,-1.0909515083891177,19.970223454091432,0,40000
1446664,34925.0,41431.0,40505.0,43139.0,-1.0909515083891177,19.970223454091432,0,40000
1446674,40183.0,47407.0,34433.0,37977.0,-3.70014147051039,19.654743781036913,0,40000
1446684,34254.0,41912.0,40236.0,43598.0,-3.70014147051039,19.654743781036913,0,40000
1446694,39952.0,45422.0,34136.0,40490.0,-4.955015281233641,19.37647603571767,0,40000
1446704,33073.0,41777.0,40307.0,44843.0,-6.189850474376197,19.01803751980905,0,40000
1446714,39656.0,44840.0,33990.0,41514.0,-7.3999644003889795,18.580649258650134,0,40000
1446724,32514.0,41718.0,39764.0,46004.0,-8.579746017731534,18.0662104014987,0,40000
1446734,39316.0,43310.0,33612.0,43762.0,-9.723184454969282,17.47740495767732,0,40000
1446744,32504.0,41362.0,39356.0,46778.0,-10.828278132529256,16.815123927125505,0,40000
1446754,30970.0,39996.0,40708.0,48326.0,-11.896484100612454,16.077116222876388,0,40000
1446764,38546.0,41510.0,33368.0,46576.0,-12.903822273333578,15.280424429256545,0,40000
1446774,29555.0,40491.0,41187.0,48767.0,-13.872006717326208,14.407200617554285,0,40000
1446784,38653.0,40087.0,32851.0,48409.0,-14.768516975804253,13.486693676931408,0,40000
1446794,29055.0,39377.0,41601.0,49967.0,-15.605042319913892,12.509302706134202,0,40000
1446804,36610.0,39342.0,34458.0,49590.0,-16.37366213369041,11.484911333212498,0,40000
1446814,28176.0,40748.0,42492.0,48584.0,-17.086318691244735,10.39508122052064,0,40000
1446824,26443.0,41223.0,44609.0,47725.0,-17.73482135725057,9.245329168093962,0,40000
1446834,26446.0,40844.0,44372.0,48338.0,-18.292792951266424,8.085402033424032,0,40000
1446844,28083.0,41497.0,45628.0,48206.0,-18.776741697172078,6.8872324802985645,0,40000
1446854,25864.0,41260.0,45576.0,47300.0,-19.184450039258277,5.653041366486108,0,40000
1446864,29110.0,41028.0,43492.0,46370.0,-19.51157787319864,4.39298633028891,0,40000
1446874,23913.0,41189.0,47641.0,47257.0,-19.75780250507291,3.1031017016099796,0,40000
1446884,27939.0,40505.0,45939.0,45617.0,-19.9164023935593,1.8267226658213502,0,40000
1446894,24333.0,40467.0,48541.0,46659.0,-19.99266807428925,0.5415009430235994,0,40000
1446904,26547.0,39789.0,48009.0,45655.0,-19.985473595894415,-0.762131975321319,0,40000
1446914,23813.0,40357.0,50041.0,45789.0,-19.88901171140632,-2.104094376101601,0,40000
1446924,27508.0,39514.0,47876.0,45102.0,-19.70755221408545,-3.407695075721377,0,40000
1446934,26037.0,38777.0,49341.0,45845.0,-19.446939497525403,-4.670818362940963,0,40000
1446944,29750.0,36322.0,47116.0,46812.0,-19.10587308895319,-5.913172880003957,0,40000
1446954,26847.0,37805.0,49001.0,46347.0,-18.685656429292784,-7.130655215786922,0,40000
1446964,30380.0,36880.0,46898.0,45842.0,-18.685656429292784,-7.130655215786922,0,40000
1446974,28458.0,36364.0,49416.0,45762.0,-18.157533925563968,-8.384745776825532,0,40000
1446984,33170.0,29054.0,44764.0,53012.0,-17.557969060635678,-9.57693700855134,0,40000
1446994,30400.0,30898.0,47226.0,51476.0,-16.897632290801344,-10.69906645296064,0,40000
1447004,32812.0,28716.0,45642.0,52830.0,-16.147157648831765,-11.80124145434597,0,40000
1447014,30317.0,28761.0,48935.0,51987.0,-15.343354797177218,-12.828930725821962,0,40000
1447024,31285.0,28957.0,47685.0,52073.0,-14.486429024386736,-13.789248497340438,0,40000
1447034,29374.0,39056.0,49890.0,41680.0,-13.57234916873635,-14.689837917482333,0,40000
1447044,31239.0,31257.0,47601.0,49903.0,-12.602747587719845,-15.529673314021181,0,40000
1447054,29848.0,39174.0,49526.0,41452.0,-11.578396094545019,-16.307689716137745,0,40000
1447064,28974.0,40144.0,50462.0,40420.0,-10.50620139420402,-17.018217658275073,0,40000
1447074,28974.0,41234.0,49962.0,39830.0,-9.388329591708278,-17.65953757824521,0,40000
1447084,30224.0,40532.0,48926.0,40318.0,-8.238190983633517,-18.224494761643722,0,40000
1447094,30034.0,42968.0,48312.0,38686.0,-7.049188128765995,-18.71654206110906,0,40000
1447104,31225.0,40031.0,47489.0,41255.0,-5.828797706819369,-19.131782909414827,0,40000
1447114,30733.0,41703.0,47221.0,40343.0,-4.586087437500012,-19.467095366684898,0,40000
1447124,31150.0,39856.0,46144.0,42850.0,-3.3240274894236665,-19.721836660147954,0,40000
1447134,31980.0,42654.0,44888.0,40478.0,-2.0474767622346164,-19.894919927160032,0,40000
1447144,31023.0,40185.0,45879.0,42913.0,-0.7644971352816782,-19.98538326202793,0,40000
1447154,30262.0,43594.0,46074.0,40070.0,0.5477903276800589,-19.992496736448405,0,40000
1447164,31172.0,39584.0,44668.0,44576.0,1.849008509471417,-19.91434577212875,0,40000
1447174,30400.0,43202.0,44684.0,41714.0,3.143022694348148,-19.75149129414821,0,40000
1447184,31457.0,41233.0,43509.0,43801.0,4.403040485463116,-19.50931148153037,0,40000
1447194,30979.0,46805.0,43547.0,38669.0,5.648471729739246,-19.185795973019637,0,40000
1447204,30301.0,43631.0,43917.0,42151.0,6.97761213235699,-18.743343589935723,0,40000
1447214,29995.0,45775.0,43799.0,40431.0,8.187406906998099,-18.24736606031785,0,40000
1447224,29383.0,43633.0,43237.0,43747.0,9.346240371009468,-17.68184919422493,0,40000
1447234,30331.0,47121.0,42603.0,39945.0,10.458818875437856,-17.04737832426983,0,40000
1447244,29925.0,44847.0,41991.0,43237.0,10.458818875437856,-17.04737832426983,0,40000
1447254,32571.0,47123.0,40089.0,40217.0,11.54761893378237,-16.32949775590636,0,40000
1447264,29588.0,46246.0,41492.0,42674.0,13.597987202670431,-14.666108687583463,0,40000
1447274,26058.0,46486.0,46090.0,41366.0,14.534470752016045,-13.738601091770231,0,40000
1447284,21888.0,45866.0,48686.0,43560.0,14.534470752016045,-13.738601091770231,0,40000
1447294,27143.0,47593.0,45217.0,40047.0,15.388135101596543,-12.77518289869121,0,40000
1447304,23167.0,47831.0,47559.0,41443.0,16.177828278629224,-11.759161202534159,0,40000
1447314,26374.0,49208.0,46026.0,38392.0,16.902775165205504,-10.690939702126842,0,40000
1447324,23467.0,49149.0,47437.0,39947.0,17.557237336829825,-9.578278399494804,0,40000
1447334,28010.0,50576.0,44562.0,36852.0,18.13420187288934,-8.435088762621103,0,40000
1447344,26423.0,50007.0,45409.0,38161.0,18.63883712339728,-7.252154899577599,0,40000
1447354,35475.0,48633.0,37189.0,38703.0,19.070639592428186,-6.025836500910934,0,40000
1447364,34436.0,45366.0,37516.0,42682.0,19.421503336481074,-4.775479886990897,0,40000
1447374,36267.0,46683.0,37081.0,39969.0,19.692949429104324,-3.49109478283527,0,40000
1447384,35016.0,46472.0,37662.0,40850.0,19.879151109894114,-2.1953020634973344,0,40000
1447394,37808.0,48772.0,36078.0,37342.0,19.9794035062349,-0.9074334879475227,0,40000
1447404,34593.0,47643.0,39423.0,38341.0,19.996513321738327,0.37343670620567004,0,40000
1447414,35257.0,47629.0,38975.0,38139.0,19.930220368294137,1.6692261893564582,0,40000
1447424,34280.0,45582.0,41016.0,39122.0,19.779937044084573,2.9587312368734784,0,40000
1447434,35864.0,47210.0,39536.0,37390.0,19.547920834179635,4.228331947783396,0,40000
1447444,36575.0,47381.0,39635.0,36409.0,19.236986892017264,5.47159348968433,0,40000
1447454,37519.0,45797.0,38125.0,38559.0,18.84715710982786,6.6921348520083725,0,40000
1447464,36805.0,44187.0,40635.0,38373.0,18.37749294062563,7.890991903256214,0,40000
1447474,37380.0,44338.0,40004.0,38278.0,17.83026359047292,9.059895159120535,0,40000
1447484,36276.0,44300.0,41164.0,38260.0,17.208826139486245,10.190991261939878,0,40000
1447494,39536.0,43212.0,37830.0,39422.0,16.521273032546056,11.27153660261397,0,40000
1447504,40423.0,45621.0,38501.0,35455.0,15.754312321696782,12.320780952132576,0,40000
1447514,39335.0,42665.0,38437.0,39563.0,14.927844000404484,13.310126727405258,0,40000
1447524,35729.0,41527.0,41991.0,40753.0,14.034127102769677,14.24932547397615,0,40000
1447534,38395.0,41857.0,40415.0,39333.0,13.092788502405613,15.118825656487855,0,40000
1447544,37642.0,42446.0,41024.0,38888.0,12.095026866359738,15.928286948132122,0,40000
1447554,39992.0,42402.0,37558.0,40048.0,11.044228302105797,16.674082319904905,0,40000
1447564,36579.0,42569.0,42283.0,38569.0,9.958967726225662,17.34413335476857,0,40000
1447574,38557.0,40709.0,40095.0,40639.0,8.824898158320988,17.947734466925425,0,40000
1447584,36002.0,44292.0,41970.0,37736.0,7.6558553097708915,18.47668475338184,0,40000
1447594,38190.0,44426.0,39438.0,37946.0,6.457568529087717,18.928808961266842,0,40000
1447604,37899.0,44695.0,40085.0,37321.0,5.229966840292349,19.304078502985902,0,40000
1447614,37307.0,42357.0,39381.0,40955.0,5.229966840292349,19.304078502985902,0,40000
1447624,36447.0,44107.0,40989.0,38457.0,3.96607948030507,19.602811368676257,0,40000
1447634,36169.0,43395.0,40449.0,39987.0,2.6763834327881453,19.820115330660848,0,40000
1447644,36911.0,46113.0,39563.0,37413.0,1.3136631279863251,19.95681059653995,0,40000
1447654,41840.0,48426.0,33276.0,36458.0,0.027623629624088094,19.99998092336806,0,40000
1447664,42142.0,49622.0,33794.0,34442.0,-1.2595468527462717,19.960299139184688,0,40000
1447674,41223.0,45865.0,33343.0,39569.0,-2.5394744938213174,19.838121617109593,0,40000
1447684,42590.0,48776.0,32338.0,36296.0,-3.808965678737022,19.633944597512833,0,40000
1447694,41352.0,47150.0,32444.0,39054.0,-5.060249746653876,19.34926025721628,0,40000
1447704,42273.0,48785.0,31355.0,37587.0,-6.288682039154293,18.98558606444421,0,40000
1447714,42861.0,45417.0,30657.0,41065.0,-7.496893550508128,18.541752535624823,0,40000
1447724,43049.0,48181.0,29591.0,39179.0,-8.681854690349462,18.0173638231473,0,40000
1447734,41337.0,44951.0,30963.0,42749.0,-9.820689691667209,17.4228027016316,0,40000
1447744,40368.0,46118.0,32380.0,41134.0,-10.91920415780634,16.756222144628687,0,40000
1447754,30269.0,42765.0,41201.0,45765.0,-11.973583816159366,16.01977810699657,0,40000
1447764,31532.0,45750.0,39120.0,43598.0,-12.977926414125658,15.217536791134744,0,40000
1447774,28698.0,43252.0,42334.0,45716.0,-13.927585542156745,14.353479054428108,0,40000
1447784,29007.0,44849.0,41891.0,44253.0,-14.81686944636386,13.433554250808278,0,40000
1447794,27157.0,42985.0,43175.0,46683.0,-15.650960288933115,12.451804770162383,0,40000
1447804,30311.0,44947.0,39789.0,44953.0,-16.419997925045816,11.418566816439402,0,40000
1447814,27117.0,40753.0,43809.0,48321.0,-17.11709178718913,10.344330270681738,0,40000
1447824,28321.0,42691.0,42311.0,46677.0,-17.75077747565711,9.214656749423943,0,40000
1447834,26125.0,41169.0,44777.0,47929.0,-18.309275738135963,8.048007327587733,0,40000
1447844,28550.0,42164.0,42104.0,47182.0,-18.80673935668228,6.8048919734127935,0,40000
1447854,26047.0,39983.0,45193.0,48777.0,-19.207241293172814,5.575112725841259,0,40000
1447864,28728.0,40232.0,42678.0,48362.0,-19.526228474104283,4.327401249835644,0,40000
1447874,25600.0,37704.0,45986.0,50710.0,-19.76478956292983,3.0582827752024637,0,40000
1447884,27496.0,40968.0,44694.0,46842.0,-19.920720886931957,1.7790107770760795,0,40000
1447894,26273.0,38645.0,46365.0,48717.0,-19.99392184116855,0.4930409813019016,0,40000
1447904,27410.0,39988.0,45788.0,46814.0,-19.98417511093722,-0.7954527864037103,0,40000
1447914,25560.0,38266.0,48310.0,47864.0,-19.889172404980272,-2.1025748607293844,0,40000
1447924,28405.0,38837.0,45661.0,47097.0,-19.713575427319835,-3.372676069736244,0,40000
1447934,26122.0,39022.0,48596.0,46260.0,-19.456109776574632,-4.63247151765416,0,40000
1447944,28807.0,38271.0,46441.0,46481.0,-19.119665913923974,-5.868421878148648,0,40000
1447954,25953.0,38383.0,50129.0,45535.0,-19.119665913923974,-5.868421878148648,0,40000
1447964,29217.0,36677.0,47089.0,47017.0,-18.692516235637736,-7.112653286954141,0,40000
1447974,25880.0,38260.0,51114.0,44746.0,-17.626561900556222,-9.45009606119746,0,40000
1447984,28605.0,37023.0,48373.0,45999.0,-17.626561900556222,-9.45009606119746,0,40000
1447994,27063.0,38611.0,51001.0,43325.0,-16.981221575438013,-10.565893895259336,0,40000
1448004,30543.0,36941.0,46867.0,45649.0,-16.26372532235782,-11.64007038805595,0,40000
1448014,29174.0,30734.0,50036.0,50056.0,-15.470144866993573,-12.675749200510097,0,40000
1448024,30318.0,36504.0,47658.0,45520.0,-14.612114609969513,-13.655991601678565,0,40000
1448034,29275.0,37307.0,49617.0,43801.0,-13.705099533299705,-14.566064903821767,0,40000
1448044,31824.0,35438.0,46832.0,45906.0,-12.74472948854332,-15.413366610311138,0,40000
1448054,30112.0,31296.0,48898.0,49694.0,-11.70709255824572,-16.21554759583122,0,40000
1448064,31184.0,29848.0,47196.0,51772.0,-10.63619083249112,-16.937279727714007,0,40000
1448074,29919.0,32445.0,48671.0,48965.0,-9.526423332540194,-17.585427446872988,0,40000
1448084,29895.0,32207.0,47865.0,50033.0,-8.383032108221474,-18.158325161548568,0,40000
1448094,31298.0,42248.0,46744.0,39710.0,-7.180259181675747,-18.666651496290413,0,40000
1448104,30830.0,41390.0,46634.0,41146.0,-5.936323030185582,-19.098692857923243,0,40000
1448114,30521.0,43679.0,46977.0,38823.0,-4.688732596361441,-19.442628079552872,0,40000
1448124,29996.0,41534.0,47008.0,41462.0,-3.3980112954937782,-19.70922421699283,0,40000
1448134,30807.0,42559.0,46035.0,40599.0,-2.119110101510169,-19.88741743861373,0,40000
1448144,30809.0,42057.0,45593.0,41541.0,-0.8324234213257208,-19.982669272337677,0,40000
1448154,30338.0,44050.0,45226.0,40386.0,0.45338430844962174,-19.994860406335714,0,40000
1448164,32457.0,42509.0,43103.0,41931.0,1.7473165476050898,-19.923525914919413,0,40000
1448174,30255.0,45311.0,43655.0,40779.0,3.0257096063358713,-19.76980225945942,0,40000
1448184,32083.0,42141.0,43113.0,42663.0,4.2904497165725815,-19.534381004515147,0,40000
1448194,30856.0,45320.0,42328.0,41496.0,5.54382911099286,-19.216294096107816,0,40000
1448204,30309.0,43345.0,43579.0,42767.0,6.766985468798506,-18.82041199509378,0,40000
1448214,29568.0,46102.0,42518.0,41812.0,7.9625923230089874,-18.34658342846314,0,40000
1448224,29657.0,43877.0,43323.0,43143.0,9.1642560636587,-17.776850418442937,0,40000
1448234,30825.0,46465.0,41283.0,41427.0,10.290122927940244,-17.149733820904583,0,40000
1448244,29411.0,45247.0,42713.0,42629.0,11.372573818085279,-16.451886358475775,0,40000
1448254,31061.0,46191.0,40257.0,42491.0,12.40753677147249,-15.68607762522416,0,40000
1448264,28714.0,45058.0,42896.0,43332.0,13.391216062099936,-14.855144980045019,0,40000
1448274,31536.0,46754.0,39610.0,42100.0,14.31953269867057,-13.962484853768125,0,40000
1448284,29923.0,45247.0,41597.0,43233.0,15.184866249338766,-13.01613756033995,0,40000
1448294,31571.0,47217.0,39819.0,41393.0,15.184866249338766,-13.01613756033995,0,40000
1448304,30057.0,45355.0,41635.0,42953.0,16.72749009857146,-10.96316902187473,0,40000
1448314,32695.0,47347.0,38599.0,41359.0,16.72749009857146,-10.96316902187473,0,40000
1448324,30673.0,46039.0,41241.0,42047.0,17.399406068658433,-9.862082359113215,0,40000
1448334,32930.0,47056.0,38308.0,41706.0,18.003463771270745,-8.710642469791866,0,40000
1448344,32117.0,45849.0,39781.0,42253.0,18.527501313815318,-7.532044547569514,0,40000
1448354,33229.0,48817.0,38159.0,39795.0,18.972952620625804,-6.326694939341426,0,40000
1448364,31820.0,46860.0,40174.0,41146.0,19.343151585842733,-5.083550602394916,0,40000
1448374,35148.0,48186.0,37542.0,39124.0,19.630759555767842,-3.8253469468310324,0,40000
1448384,33521.0,46975.0,38521.0,40983.0,19.835980453361095,-2.556145428937189,0,40000
1448394,35780.0,46384.0,37692.0,40144.0,19.95917428295766,-1.277247799967386,0,40000
1448404,28518.0,51614.0,44066.0,35802.0,19.999994764789243,0.014470950310588333,0,40000
1448414,32866.0,52488.0,41614.0,33032.0,19.957418494938377,1.3043952690390956,0,40000
1448424,31561.0,53093.0,42343.0,33003.0,19.8316754942363,2.5893333295092438,0,40000
1448434,34030.0,52006.0,40934.0,33030.0,19.619443219216514,3.882968937287451,0,40000
1448444,32075.0,51605.0,43085.0,33235.0,19.328119137159373,5.14040957704478,0,40000
1448454,35746.0,50710.0,40296.0,33248.0,18.956979789513866,6.374395442703786,0,40000
1448464,36564.0,44736.0,39090.0,39610.0,18.505067716533503,7.586993397025564,0,40000
1448474,38935.0,45481.0,37643.0,37941.0,17.979241285375604,8.760529824288332,0,40000
1448484,37129.0,45751.0,40053.0,37067.0,17.371473508770492,9.911201144870633,0,40000
1448494,39261.0,43711.0,37761.0,39267.0,16.70085187191973,11.003706046246203,0,40000
1448504,36696.0,45006.0,40654.0,37644.0,15.955804105839315,12.058702887793583,0,40000
1448514,40009.0,43335.0,37245.0,39411.0,15.147620622643043,13.05946359819113,0,40000
1448524,37534.0,45700.0,40522.0,36244.0,14.273670241001579,14.009366075991657,0,40000
1448534,38919.0,43353.0,39163.0,38565.0,13.344373051630072,14.89723826280996,0,40000
1448544,37413.0,45625.0,39895.0,37067.0,12.35728121527095,15.72569874335356,0,40000
1448554,40545.0,44003.0,37631.0,37821.0,11.317600651938566,16.48975183206951,0,40000
1448564,39073.0,42859.0,39879.0,38189.0,10.237537072564182,17.18117675503846,0,40000
1448574,37539.0,42467.0,39577.0,40417.0,9.107220396242841,17.806137611909506,0,40000
1448584,36480.0,43752.0,40910.0,38858.0,7.9214567503044995,18.36438191045523,0,40000
1448594,37580.0,41698.0,40128.0,40594.0,6.725665719296696,18.83521756264783,0,40000
1448604,37088.0,43846.0,40214.0,38852.0,5.490322298506108,19.231649982737483,0,40000
1448614,38476.0,43772.0,36810.0,40942.0,4.253687750676793,19.54241900379127,0,40000
1448624,36809.0,44219.0,40699.0,38273.0,2.990047377882912,19.775227348326887,0,40000
1448634,33655.0,44871.0,43810.0,46262.0,1.6991698923940959,19.927689822876648,0,40000
1448644,38408.0,44792.0,38076.0,38724.0,0.38769535148097967,19.996241954788406,0,40000
1448654,35548.0,46264.0,39318.0,38870.0,0.38769535148097967,19.996241954788406,0,40000
1448664,35328.0,41880.0,39690.0,43102.0,-2.224662271930173,19.875886842499643,0,40000
1448674,39645.0,49801.0,33669.0,36885.0,-2.224662271930173,19.875886842499643,0,40000
1448684,39595.0,47109.0,34679.0,38617.0,-3.511507312969304,19.68931985597682,0,40000
1448694,39353.0,49327.0,34179.0,37141.0,-4.791014530953796,19.417676991962495,0,40000
1448704,40114.0,48440.0,32280.0,39166.0,-6.048458391074187,19.063476888842818,0,40000
1448714,42183.0,50815.0,30529.0,36473.0,-7.276607883996169,18.629304273175762,0,40000
1448724,38394.0,45216.0,34256.0,42134.0,-8.466316606163037,18.11964357056198,0,40000
1448734,37604.0,47480.0,33464.0,41452.0,-9.613634094757508,17.537902938838382,0,40000
1448744,28812.0,41280.0,42592.0,47316.0,-10.740143271415397,16.871553648359434,0,40000
1448754,31059.0,44225.0,39775.0,44941.0,-11.804192302567778,16.14500059101887,0,40000
1448764,29052.0,41962.0,41920.0,47066.0,-12.817181747266545,15.35317074931225,0,40000
1448774,28955.0,44763.0,40759.0,45523.0,-13.780804437239908,14.494462013560518,0,40000
1448784,26322.0,41678.0,44126.0,47874.0,-14.685181080026027,13.57738769597619,0,40000
1448794,28333.0,42161.0,42071.0,47435.0,-15.538467269276484,12.591903546391363,0,40000
1448804,26144.0,41658.0,43404.0,48794.0,-16.316859974212154,11.565469319571664,0,40000
1448814,28019.0,44349.0,41537.0,46095.0,-17.026192211729345,10.493273024621391,0,40000
1448824,24475.0,39321.0,46503.0,49701.0,-17.666030907909544,9.376105372743243,0,40000
1448834,27842.0,40778.0,42416.0,48964.0,-18.23883202106011,8.206400338001577,0,40000
1448844,24307.0,39933.0,45643.0,50117.0,-18.73064408087711,7.011631216450515,0,40000
1448854,28514.0,42448.0,42118.0,46920.0,-19.153245076726538,5.757881818069092,0,40000
1448864,24274.0,39518.0,46300.0,49908.0,-19.495136213518496,4.46538509160853,0,40000
1448874,26711.0,40389.0,45477.0,47423.0,-19.741616489904775,3.2044622584015277,0,40000
1448884,23289.0,39029.0,47533.0,50149.0,-19.906894935236462,1.927572057656195,0,40000
1448894,27110.0,39702.0,46236.0,46952.0,-19.98974880643998,0.640267643592465,0,40000
1448904,23864.0,38406.0,48210.0,49520.0,-19.989711365906643,-0.6414355055209131,0,40000
1448914,27306.0,37470.0,47316.0,47908.0,-19.90808368635639,-1.9152555800807625,0,40000
1448924,24161.0,38643.0,48843.0,48353.0,-19.74281519907912,-3.1970686597272904,0,40000
1448934,26863.0,37827.0,48711.0,46599.0,-19.495557550859786,-4.463545203211669,0,40000
1448944,26286.0,38308.0,48000.0,47406.0,-19.171101581217044,-5.698145677556635,0,40000
1448954,27427.0,38825.0,48915.0,44833.0,-18.7636877585233,-6.922717797270291,0,40000
1448964,26138.0,38640.0,49374.0,45848.0,-18.279724353178278,-8.11490465574433,0,40000
1448974,27417.0,37095.0,49843.0,45645.0,-17.72009047189201,-9.273531887472103,0,40000
1448984,27324.0,37920.0,49336.0,45420.0,-17.72009047189201,-9.273531887472103,0,40000
1448994,29379.0,37491.0,47819.0,45311.0,-17.08986813880989,-10.389244775155245,0,40000
1449004,28735.0,38841.0,48507.0,43917.0,-15.575578506983337,-12.54596963860501,0,40000
1449014,31392.0,29876.0,46886.0,51846.0,-15.575578506983337,-12.54596963860501,0,40000
1449024,29335.0,31099.0,48595.0,50971.0,-14.711736391685523,-13.548609240123351,0,40000
1449034,31176.0,29492.0,47040.0,52292.0,-13.807032973305315,-14.469479620016049,0,40000
1449044,29530.0,31556.0,48384.0,50530.0,-12.851717450821006,-15.32427350853093,0,40000
1449054,31211.0,30557.0,47251.0,50981.0,-11.844979922155163,-16.11510008171656,0,40000
1449064,29116.0,32474.0,49610.0,48800.0,-10.784916247708269,-16.842968311135607,0,40000
1449074,31231.0,39465.0,46227.0,43077.0,-9.656088112036969,-17.51456429296996,0,40000
1449084,29746.0,32660.0,48180.0,49414.0,-8.511321871449478,-18.098546903013673,0,40000
1449094,28845.0,32117.0,48521.0,50517.0,-7.334368628472933,-18.60663958971829,0,40000
1449104,31734.0,42182.0,45664.0,40420.0,-6.123147022961923,-19.039618445105262,0,40000
1449114,30374.0,41310.0,46344.0,41972.0,-4.85826670316756,-19.40095988967797,0,40000
1449124,30383.0,43333.0,46145.0,40139.0,-3.588433156073245,-19.67544529316666,0,40000
1449134,30021.0,41229.0,45981.0,42769.0,-2.3161358369741993,-19.865435177329587,0,40000
1449144,29553.0,44615.0,46179.0,39653.0,-1.0324612191791527,-19.973332817306456,0,40000
1449154,30456.0,42356.0,44706.0,42482.0,0.25387898593669717,-19.998388571594955,0,40000
1449164,28947.0,44917.0,45971.0,40165.0,1.539586780605848,-19.940653764232096,0,40000
1449174,29567.0,42111.0,45025.0,43297.0,2.8226565272773225,-19.79981338621702,0,40000
1449184,28710.0,44688.0,45408.0,41194.0,4.097634872644111,-19.575734684820667,0,40000
1449194,30181.0,42335.0,43401.0,44083.0,5.348200508759092,-19.27165668327736,0,40000
1449204,31109.0,44291.0,42559.0,42041.0,6.574723783633996,-18.888435805246488,0,40000
1449214,30235.0,41873.0,42085.0,45807.0,7.774547979893093,-18.427056295250747,0,40000
1449224,30992.0,43952.0,41836.0,43220.0,8.942629747834928,-17.889364806866055,0,40000
1449234,30747.0,41535.0,40579.0,47139.0,10.070457051536597,-17.279638155156977,0,40000
1449244,31296.0,44598.0,41166.0,42940.0,11.16224632353244,-16.595308283149986,0,40000
1449254,29954.0,42844.0,40790.0,46412.0,12.210574949166455,-15.839881925405525,0,40000
1449264,31975.0,46811.0,39865.0,41349.0,13.230305467613642,-14.998633845575156,0,40000
1449274,29218.0,44602.0,41030.0,45150.0,14.168084956504796,-14.116138589049855,0,40000
1449284,30772.0,46492.0,40902.0,41834.0,15.046024340193725,-13.176386134077054,0,40000
1449294,28459.0,45615.0,41945.0,43981.0,15.863248029664518,-12.180203690798638,0,40000
1449304,31254.0,47718.0,39970.0,41058.0,16.61314544755222,-11.135681314516635,0,40000
1449314,29506.0,47546.0,40890.0,42058.0,16.61314544755222,-11.135681314516635,0,40000
1449324,32679.0,48119.0,38561.0,40641.0,17.30907181289236,-10.019782082267817,0,40000
1449334,30166.0,47790.0,39928.0,42116.0,17.92646459842906,-8.868024977483413,0,40000
