timestamp,stabilizer.roll,stabilizer.pitch,stateEstimateZ.rateRoll,stateEstimateZ.ratePitch,controller.pitchRate,controller.rollRate,roll,pitch,yawdot,thrust
974882,-34.7411003112793,68.7541732788086,4.0,-14.0,-415.00030517578125,209.69744873046875,0,0,0,40000
974892,-34.759178161621094,68.74971771240234,13.0,15.0,-417.0361022949219,210.84844970703125,0,0,0,40000
974902,-34.79350280761719,68.71939086914062,-16.0,-80.0,-418.9163513183594,212.09805297851562,0,0,0,40000
974912,-34.7780876159668,68.66807556152344,21.0,-93.0,-420.6690979003906,213.0490264892578,0,0,0,40000
974922,-34.693603515625,68.53705596923828,58.0,-281.0,-421.9410705566406,213.58468627929688,0,0,0,40000
974932,-34.5371208190918,68.3614730834961,-13.0,-491.0,-422.9405822753906,213.6841278076172,0,0,0,40000
974942,-34.02462387084961,67.93978118896484,-80.0,-819.0,-422.454345703125,211.63687133789062,0,0,0,40000
974952,-33.4260139465332,67.50029754638672,-69.0,-1299.0,-421.847900390625,209.05551147460938,0,0,0,40000
974962,-32.119606018066406,66.55608367919922,32.0,-1803.0,-418.1916198730469,202.1977996826172,0,0,0,40000
974972,-31.00718116760254,65.69943237304688,13.0,-2410.0,-415.0332946777344,196.46719360351562,0,0,0,40000
974982,-28.94989585876465,64.02925872802734,-42.0,-3095.0,-406.9544677734375,185.01747131347656,0,0,0,40000
974992,-27.35703468322754,62.61798095703125,-4.0,-3869.0,-400.3826904296875,176.3002471923828,0,0,0,40000
975002,-24.809978485107422,59.9937858581543,89.0,-4673.0,-386.4704895019531,161.79348754882812,0,0,0,40000
975012,-23.027217864990234,57.85868835449219,166.0,-5579.0,-375.4218444824219,151.8092041015625,0,0,0,40000
975022,-20.373313903808594,54.04630661010742,147.0,-6482.0,-354.216552734375,136.528564453125,0,0,0,40000
975032,-18.64805030822754,51.108882904052734,184.0,-7323.0,-338.1609802246094,126.75689697265625,0,0,0,40000
975042,-16.206974029541016,46.1798210144043,407.0,-7983.0,-310.03265380859375,112.62548828125,0,0,0,40000
975052,-14.712818145751953,42.62744140625,680.0,-8416.0,-290.0400390625,104.119873046875,0,0,0,40000
975062,-12.631853103637695,37.063724517822266,858.0,-8604.0,-257.8368225097656,92.0376205444336,0,0,0,40000
975072,-11.347942352294922,33.30894470214844,1090.0,-8505.0,-236.35238647460938,84.6898193359375,0,0,0,40000
975082,-9.494586944580078,27.805635452270508,1397.0,-8166.0,-204.23208618164062,73.87643432617188,0,0,0,40000
975092,-8.307059288024902,24.310880661010742,1729.0,-7629.0,-184.03453063964844,67.01470947265625,0,0,0,40000
975102,-6.528729438781738,19.5081787109375,2008.0,-6847.0,-155.85948181152344,56.56201171875,0,0,0,40000
975112,-5.331687927246094,16.71339988708496,2230.0,-5778.0,-139.62515258789062,49.55409240722656,0,0,0,40000
975122,-3.516780138015747,13.279901504516602,2445.0,-4594.0,-119.46121215820312,38.792022705078125,0,0,0,40000
975132,-2.2862203121185303,11.56157398223877,2586.0,-3271.0,-109.51800537109375,31.49203872680664,0,0,0,40000
975142,-0.4134771525859833,9.885945320129395,2617.0,-1940.0,-99.77806091308594,20.290428161621094,0,0,0,40000
975152,0.8321032524108887,9.311820030212402,2652.0,-795.0,-96.61892700195312,12.806910514831543,0,0,0,40000
975162,2.677396059036255,9.138402938842773,2620.0,109.0,-95.85275268554688,1.6769218444824219,0,0,0,40000
975172,3.875338077545166,9.362587928771973,2536.0,752.0,-97.47570037841797,-5.612648010253906,0,0,0,40000
975182,5.6069207191467285,10.027518272399902,2390.0,1162.0,-101.75733947753906,-16.14986228942871,0,0,0,40000
975192,6.707342624664307,10.611245155334473,2224.0,1395.0,-105.5709228515625,-22.94049835205078,0,0,0,40000
975202,8.253753662109375,11.550280570983887,2081.0,1443.0,-111.54035949707031,-32.4483642578125,0,0,0,40000
975212,9.199923515319824,12.167243003845215,1876.0,1382.0,-115.59979248046875,-38.390106201171875,0,0,0,40000
975222,10.471117973327637,12.985566139221191,1629.0,1192.0,-120.88995361328125,-46.31675338745117,0,0,0,40000
975232,11.21627140045166,13.392114639282227,1418.0,884.0,-123.72630310058594,-51.11531066894531,0,0,0,40000
975242,12.151238441467285,13.749778747558594,1166.0,430.0,-126.28144073486328,-57.07905197143555,0,0,0,40000
975252,12.644777297973633,13.780956268310547,851.0,-94.0,-126.88182830810547,-60.41393280029297,0,0,0,40000
975262,13.140555381774902,13.449520111083984,656.0,-688.0,-125.30195617675781,-63.77735137939453,0,0,0,40000
975272,13.336812019348145,12.944452285766602,371.0,-1379.0,-122.66632843017578,-65.35279083251953,0,0,0,40000
975282,13.429023742675781,11.738372802734375,101.0,-2079.0,-115.7979507446289,-66.30853271484375,0,0,0,40000
975292,13.353588104248047,10.631928443908691,-173.0,-2728.0,-109.49187469482422,-66.25764465332031,0,0,0,40000
975302,13.058637619018555,8.607958793640137,-412.0,-3202.0,-97.63156127929688,-64.8837890625,0,0,0,40000
975312,12.752936363220215,7.0945281982421875,-650.0,-3504.0,-88.7821273803711,-63.43595886230469,0,0,0,40000
975322,12.167014122009277,4.732003211975098,-858.0,-3538.0,-74.77734375,-60.292877197265625,0,0,0,40000
975332,11.696802139282227,3.1849052906036377,-1067.0,-3386.0,-65.6087646484375,-57.8282356262207,0,0,0,40000
975342,10.8705472946167,1.0383936166763306,-1218.0,-3052.0,-52.785926818847656,-53.206947326660156,0,0,0,40000
975352,10.261114120483398,-0.21101367473602295,-1381.0,-2558.0,-45.29787826538086,-49.8656120300293,0,0,0,40000
975362,9.267704963684082,-1.7361185550689697,-1508.0,-2015.0,-36.11225891113281,-44.19541549682617,0,0,0,40000
975372,8.576178550720215,-2.494856357574463,-1565.0,-1429.0,-31.49378204345703,-40.3119010925293,0,0,0,40000
975382,7.491690158843994,-3.274078369140625,-1592.0,-938.0,-26.728614807128906,-34.04279327392578,0,0,0,40000
975392,6.761362552642822,-3.564815044403076,-1583.0,-438.0,-24.880443572998047,-29.872421264648438,0,0,0,40000
975402,5.690722942352295,-3.7082278728485107,-1532.0,-52.0,-23.909648895263672,-23.632055282592773,0,0,0,40000
975412,4.992551803588867,-3.6708474159240723,-1506.0,180.0,-24.02322769165039,-19.601177215576172,0,0,0,40000
975422,3.999840259552002,-3.521688222885132,-1400.0,268.0,-24.810529708862305,-13.776581764221191,0,0,0,40000
975432,3.3914289474487305,-3.406283140182495,-1281.0,258.0,-25.39937973022461,-10.235085487365723,0,0,0,40000
975442,2.5649807453155518,-3.2504124641418457,-1136.0,202.0,-26.23542022705078,-5.362943649291992,0,0,0,40000
975452,2.069770574569702,-3.203956127166748,-991.0,42.0,-26.41756820678711,-2.4596242904663086,0,0,0,40000
975462,1.4370286464691162,-3.2604634761810303,-849.0,-155.0,-25.981843948364258,1.2864418029785156,0,0,0,40000
975472,1.089798927307129,-3.4028360843658447,-680.0,-410.0,-25.02736473083496,3.3330469131469727,0,0,0,40000
975482,0.6868298649787903,-3.7978057861328125,-506.0,-660.0,-22.548873901367188,5.725776672363281,0,0,0,40000
975492,0.5007115602493286,-4.159675598144531,-332.0,-855.0,-20.257312774658203,6.825307846069336,0,0,0,40000
975502,0.34824153780937195,-4.830422878265381,-158.0,-1030.0,-16.096290588378906,7.7281951904296875,0,0,0,40000
975512,0.3292578458786011,-5.332553386688232,-5.0,-1121.0,-12.92959213256836,7.832069396972656,0,0,0,40000
975522,0.3978589177131653,-6.114030838012695,176.0,-1115.0,-8.066596984863281,7.409798622131348,0,0,0,40000
975532,0.508804976940155,-6.60397481918335,299.0,-1018.0,-4.93463134765625,6.7302656173706055,0,0,0,40000
975542,0.7682596445083618,-7.248074054718018,414.0,-863.0,-0.8599586486816406,5.153863906860352,0,0,0,40000
975552,0.9849262833595276,-7.5842604637146,501.0,-652.0,1.3807754516601562,3.8269219398498535,0,0,0,40000
975562,1.37882661819458,-7.927049160003662,571.0,-392.0,3.671741485595703,1.4270362854003906,0,0,0,40000
975572,1.6734193563461304,-8.027153015136719,650.0,-124.0,4.512138366699219,-0.38713645935058594,0,0,0,40000
975582,2.1442477703094482,-8.022329330444336,675.0,67.0,4.724338531494141,-3.270692825317383,0,0,0,40000
975592,2.4682059288024902,-7.926041603088379,710.0,279.0,4.385650634765625,-5.284623146057129,0,0,0,40000
975602,2.9481430053710938,-7.707303047180176,668.0,364.0,3.3072547912597656,-8.247030258178711,0,0,0,40000
975612,3.264742374420166,-7.524097919464111,671.0,418.0,2.4359817504882812,-10.240777015686035,0,0,0,40000
975622,3.720383882522583,-7.252318382263184,634.0,384.0,1.0260505676269531,-13.08085823059082,0,0,0,40000
975632,4.010630130767822,-7.102687358856201,627.0,270.0,0.3430519104003906,-14.93918514251709,0,0,0,40000
975642,4.411168575286865,-6.994256019592285,550.0,82.0,-0.0968017578125,-17.470090866088867,0,0,0,40000
975652,4.651686668395996,-7.007636547088623,509.0,-102.0,0.19343185424804688,-19.04989242553711,0,0,0,40000
975662,4.973705768585205,-7.158559799194336,427.0,-296.0,1.3115081787109375,-21.127460479736328,0,0,0,40000
975672,5.156885623931885,-7.326146125793457,376.0,-443.0,2.534698486328125,-22.37908363342285,0,0,0,40000
975682,5.314672470092773,-7.539994239807129,262.0,-490.0,3.9974365234375,-23.452484130859375,0,0,0,40000
975692,5.47829532623291,-7.8895463943481445,186.0,-523.0,6.327156066894531,-24.596834182739258,0,0,0,40000
975702,5.551265716552734,-8.130257606506348,97.0,-507.0,8.012443542480469,-25.200347900390625,0,0,0,40000
975712,5.598997116088867,-8.456818580627441,27.0,-451.0,10.221702575683594,-25.65432357788086,0,0,0,40000
975722,5.583110809326172,-8.645661354064941,-70.0,-358.0,11.611923217773438,-25.726722717285156,0,0,0,40000
975732,5.508635997772217,-8.8468656539917,-148.0,-232.0,13.082405090332031,-25.446218490600586,0,0,0,40000
975742,5.427760124206543,-8.937615394592285,-191.0,-133.0,13.89401626586914,-25.124794006347656,0,0,0,40000
975752,5.245776176452637,-9.001823425292969,-295.0,-20.0,14.548812866210938,-24.192718505859375,0,0,0,40000
975762,5.091482639312744,-9.00367259979248,-363.0,43.0,14.829994201660156,-23.421588897705078,0,0,0,40000
975772,4.8155083656311035,-8.951639175415039,-392.0,119.0,14.787155151367188,-21.913599014282227,0,0,0,40000
975782,4.611384391784668,-8.892328262329102,-465.0,187.0,14.698795318603516,-20.82968521118164,0,0,0,40000
975792,4.2766618728637695,-8.769533157348633,-459.0,201.0,14.22665786743164,-18.95367431640625,0,0,0,40000
975802,4.056890487670898,-8.693036079406738,-481.0,191.0,14.02935791015625,-17.759397506713867,0,0,0,40000
975812,3.718377113342285,-8.574918746948242,-463.0,171.0,13.579292297363281,-15.843897819519043,0,0,0,40000
975822,3.507692337036133,-8.511484146118164,-475.0,130.0,13.454795837402344,-14.687520980834961,0,0,0,40000
975832,3.1840944290161133,-8.464387893676758,-443.0,40.0,13.426513671875,-12.845307350158691,0,0,0,40000
975842,2.9810733795166016,-8.460834503173828,-442.0,-31.0,13.659027099609375,-11.71906566619873,0,0,0,40000
975852,2.6948986053466797,-8.501086235046387,-395.0,-83.0,14.154975891113281,-10.08624267578125,0,0,0,40000
975862,2.523751735687256,-8.548565864562988,-360.0,-106.0,14.69573974609375,-9.137073516845703,0,0,0,40000
975872,2.2899699211120605,-8.621037483215332,-281.0,-103.0,15.388328552246094,-7.8056769371032715,0,0,0,40000
975882,2.1516735553741455,-8.668745994567871,-252.0,-54.0,15.934089660644531,-7.042091369628906,0,0,0,40000
975892,1.9874320030212402,-8.695724487304688,-221.0,0.0,16.35662841796875,-6.1182074546813965,0,0,0,40000
975902,1.9002716541290283,-8.683232307434082,-161.0,70.0,16.542335510253906,-5.653295993804932,0,0,0,40000
975912,1.8008664846420288,-8.615636825561523,-128.0,123.0,16.396190643310547,-5.112030982971191,0,0,0,40000
975922,1.763800859451294,-8.538050651550293,-65.0,197.0,16.18779754638672,-4.942934989929199,0,0,0,40000
975932,1.7303197383880615,-8.408177375793457,-13.0,197.0,15.662372589111328,-4.794251441955566,0,0,0,40000
975942,1.7300100326538086,-8.329472541809082,25.0,183.0,15.440948486328125,-4.844271183013916,0,0,0,40000
975952,1.7534154653549194,-8.205860137939453,48.0,186.0,14.946937561035156,-5.036993980407715,0,0,0,40000
975962,1.777799129486084,-8.129232406616211,79.0,165.0,14.731956481933594,-5.236326217651367,0,0,0,40000
975972,1.8451182842254639,-8.02904224395752,101.0,147.0,14.372886657714844,-5.694730758666992,0,0,0,40000
975982,1.8951599597930908,-7.972536563873291,125.0,131.0,14.273689270019531,-6.051247596740723,0,0,0,40000
975992,1.9773627519607544,-7.895674705505371,122.0,125.0,14.050304412841797,-6.602828025817871,0,0,0,40000
976002,2.039867877960205,-7.840025424957275,129.0,116.0,13.952274322509766,-7.038290023803711,0,0,0,40000
976012,2.1289680004119873,-7.75757360458374,129.0,122.0,13.69134521484375,-7.635686874389648,0,0,0,40000
976022,2.1813595294952393,-7.69533634185791,123.0,126.0,13.549545288085938,-8.014880180358887,0,0,0,40000
976032,2.2702481746673584,-7.5922722816467285,112.0,171.0,13.160224914550781,-8.615321159362793,0,0,0,40000
976042,2.3273680210113525,-7.511483192443848,105.0,170.0,12.90179443359375,-9.0271635055542,0,0,0,40000
976052,2.399064540863037,-7.39515495300293,99.0,181.0,12.427131652832031,-9.528507232666016,0,0,0,40000
976062,2.4339046478271484,-7.315315246582031,77.0,197.0,12.16849136352539,-9.810169219970703,0,0,0,40000
976072,2.480649471282959,-7.179831504821777,48.0,202.0,11.572650909423828,-10.164584159851074,0,0,0,40000
976082,2.505260944366455,-7.089562892913818,30.0,189.0,11.244834899902344,-10.387099266052246,0,0,0,40000
976092,2.521075487136841,-6.986358165740967,11.0,132.0,10.836307525634766,-10.55751895904541,0,0,0,40000
976102,2.5212533473968506,-6.938166618347168,-9.0,83.0,10.755836486816406,-10.63422679901123,0,0,0,40000
976112,2.5085554122924805,-6.888452053070068,-22.0,71.0,10.664762496948242,-10.633485794067383,0,0,0,40000
976122,2.4872896671295166,-6.869452953338623,-49.0,29.0,10.75705337524414,-10.580782890319824,0,0,0,40000
976132,2.43603253364563,-6.8634514808654785,-88.0,0.0,10.926942825317383,-10.347086906433105,0,0,0,40000
976142,2.3897907733917236,-6.876735687255859,-112.0,-34.0,11.212766647338867,-10.14190673828125,0,0,0,40000
976152,2.302375555038452,-6.897583961486816,-135.0,-21.0,11.544586181640625,-9.68759822845459,0,0,0,40000
976162,2.2386538982391357,-6.890862464904785,-151.0,24.0,11.711067199707031,-9.373180389404297,0,0,0,40000
976172,2.131207227706909,-6.873545169830322,-154.0,52.0,11.813610076904297,-8.793745040893555,0,0,0,40000
976182,2.056467294692993,-6.834869384765625,-166.0,111.0,11.787088394165039,-8.407918930053711,0,0,0,40000
976192,1.944459080696106,-6.736429214477539,-156.0,183.0,11.399879455566406,-7.795502662658691,0,0,0,40000
976202,1.8625116348266602,-6.645727157592773,-169.0,229.0,11.056148529052734,-7.360703468322754,0,0,0,40000
976212,1.7456004619598389,-6.476979732513428,-180.0,260.0,10.240074157714844,-6.713033676147461,0,0,0,40000
976222,1.6686688661575317,-6.372697353363037,-126.0,239.0,9.80681037902832,-6.302378177642822,0,0,0,40000
976232,1.560150384902954,-6.254455089569092,-175.0,136.0,9.286182403564453,-5.699477672576904,0,0,0,40000
976242,1.4924930334091187,-6.193697929382324,-138.0,127.0,9.108156204223633,-5.339098930358887,0,0,0,40000
976252,1.4053399562835693,-6.105672359466553,-100.0,128.0,8.764251708984375,-4.859292030334473,0,0,0,40000
976262,1.360036015510559,-6.044853210449219,-106.0,105.0,8.58138656616211,-4.628836631774902,0,0,0,40000
976272,1.2997713088989258,-5.985268592834473,-73.0,55.0,8.40403938293457,-4.306895732879639,0,0,0,40000
976282,1.2725930213928223,-5.971024513244629,-46.0,13.0,8.497880935668945,-4.182333946228027,0,0,0,40000
976292,1.2366739511489868,-5.964118003845215,-52.0,12.0,8.635475158691406,-4.004401206970215,0,0,0,40000
976302,1.2203261852264404,-5.9625244140625,-41.0,33.0,8.804758071899414,-3.94313907623291,0,0,0,40000
976312,1.2004451751708984,-5.949310302734375,-16.0,43.0,8.904136657714844,-3.8600142002105713,0,0,0,40000
976322,1.2002040147781372,-5.939592361450195,5.0,34.0,9.024118423461914,-3.894559860229492,0,0,0,40000
976332,1.217637300491333,-5.90477991104126,22.0,56.0,8.992870330810547,-4.035348892211914,0,0,0,40000
976342,1.2181164026260376,-5.883131504058838,27.0,52.0,9.039754867553711,-4.074734210968018,0,0,0,40000
976352,1.2384064197540283,-5.842295169830322,23.0,94.0,8.970586776733398,-4.233382225036621,0,0,0,40000
976362,1.257444143295288,-5.786996364593506,36.0,136.0,8.813108444213867,-4.385097503662109,0,0,0,40000
976372,1.2824805974960327,-5.699642658233643,37.0,160.0,8.461082458496094,-4.573460102081299,0,0,0,40000
976382,1.3028205633163452,-5.623664379119873,45.0,186.0,8.174877166748047,-4.734333038330078,0,0,0,40000
976392,1.3260151147842407,-5.49173641204834,31.0,213.0,7.5496978759765625,-4.913028717041016,0,0,0,40000
976402,1.3445323705673218,-5.397770404815674,39.0,202.0,7.148956298828125,-5.064242362976074,0,0,0,40000
976412,1.3727704286575317,-5.277507781982422,23.0,166.0,6.587053298950195,-5.274539947509766,0,0,0,40000
976422,1.3913511037826538,-5.214817047119141,18.0,97.0,6.368104934692383,-5.427489280700684,0,0,0,40000
976432,1.3965829610824585,-5.164369583129883,9.0,52.0,6.220836639404297,-5.500704288482666,0,0,0,40000
976442,1.3930132389068604,-5.160995960235596,-14.0,14.0,6.355428695678711,-5.5211286544799805,0,0,0,40000
976452,1.378706455230713,-5.151651382446289,-1.0,12.0,6.454004287719727,-5.476830959320068,0,0,0,40000
976462,1.3655009269714355,-5.151622295379639,-61.0,12.0,6.608404159545898,-5.438774585723877,0,0,0,40000
976472,1.3257800340652466,-5.155154228210449,-67.0,-6.0,6.784185409545898,-5.24073600769043,0,0,0,40000
976482,1.2896857261657715,-5.16159725189209,-71.0,-4.0,6.977649688720703,-5.063304901123047,0,0,0,40000
976492,1.2361167669296265,-5.170987129211426,-90.0,-12.0,7.188966751098633,-4.779662132263184,0,0,0,40000
976502,1.1941699981689453,-5.172352313995361,-96.0,30.0,7.352319717407227,-4.564323902130127,0,0,0,40000
976512,1.1340409517288208,-5.14645528793335,-82.0,87.0,7.351711273193359,-4.238252639770508,0,0,0,40000
976522,1.0917177200317383,-5.105007171630859,-113.0,82.0,7.256689071655273,-4.01761531829834,0,0,0,40000
976532,1.0093071460723877,-5.0562238693237305,-107.0,76.0,7.116250991821289,-3.5543787479400635,0,0,0,40000
976542,0.9512356519699097,-5.017165660858154,-113.0,83.0,7.032892227172852,-3.235187292098999,0,0,0,40000
976552,0.8631201982498169,-4.9502482414245605,-132.0,121.0,6.780797958374023,-2.7334957122802734,0,0,0,40000
976562,0.8078075647354126,-4.905951023101807,-121.0,89.0,6.662723541259766,-2.426520824432373,0,0,0,40000
976572,0.7191306948661804,-4.856472492218018,-110.0,70.0,6.512102127075195,-1.9170427322387695,0,0,0,40000
976582,0.6664289236068726,-4.828958034515381,-123.0,49.0,6.492197036743164,-1.6214892864227295,0,0,0,40000
976592,0.6067349314689636,-4.783420085906982,-64.0,64.0,6.362985610961914,-1.2821013927459717,0,0,0,40000
976602,0.5683659911155701,-4.759546279907227,-69.0,63.0,6.362804412841797,-1.069401741027832,0,0,0,40000
976612,0.5288134217262268,-4.703072547912598,-56.0,105.0,6.165792465209961,-0.8484072685241699,0,0,0,40000
976622,0.5017452836036682,-4.672320365905762,-57.0,80.0,6.121829986572266,-0.7013952732086182,0,0,0,40000
976632,0.4859520494937897,-4.6301679611206055,-30.0,51.0,6.008243560791016,-0.6213383674621582,0,0,0,40000
976642,0.47438517212867737,-4.621885776519775,-20.0,6.0,6.097263336181641,-0.5663018226623535,0,0,0,40000
976652,0.4600202739238739,-4.629415988922119,-26.0,-2.0,6.281196594238281,-0.49413132667541504,0,0,0,40000
976662,0.4525797367095947,-4.623613357543945,-15.0,31.0,6.3851776123046875,-0.46320390701293945,0,0,0,40000
976672,0.4519347846508026,-4.586437225341797,-3.0,38.0,6.300104141235352,-0.47292327880859375,0,0,0,40000
976682,0.45968127250671387,-4.565526485443115,20.0,71.0,6.311885833740234,-0.5330681800842285,0,0,0,40000
976692,0.4824293851852417,-4.518687725067139,51.0,87.0,6.167022705078125,-0.6836717128753662,0,0,0,40000
976702,0.5053767561912537,-4.4670515060424805,78.0,104.0,5.9918670654296875,-0.8361942768096924,0,0,0,40000
976712,0.5358527898788452,-4.392669677734375,29.0,108.0,5.678218841552734,-1.034895658493042,0,0,0,40000
976722,0.5617803335189819,-4.356033802032471,41.0,70.0,5.58952522277832,-1.2070157527923584,0,0,0,40000
976732,0.6007407307624817,-4.311886310577393,57.0,51.0,5.454456329345703,-1.4582889080047607,0,0,0,40000
976742,0.6243956089019775,-4.303465366363525,60.0,46.0,5.533138275146484,-1.6186399459838867,0,0,0,40000
976752,0.6676816344261169,-4.280550003051758,79.0,37.0,5.5243072509765625,-1.8978025913238525,0,0,0,40000
976762,0.6964893937110901,-4.276753902435303,79.0,33.0,5.6298980712890625,-2.091188430786133,0,0,0,40000
976772,0.7479568719863892,-4.250753402709961,78.0,43.0,5.601722717285156,-2.421785831451416,0,0,0,40000
976782,0.7971307039260864,-4.234132289886475,81.0,46.0,5.629188537597656,-2.740159034729004,0,0,0,40000
976792,0.8464363813400269,-4.186842918395996,67.0,91.0,5.471729278564453,-3.0607833862304688,0,0,0,40000
976802,0.8771674036979675,-4.1554436683654785,66.0,90.0,5.408374786376953,-3.2710864543914795,0,0,0,40000
976812,0.9121841192245483,-4.0777907371521,59.0,134.0,5.065814971923828,-3.5081186294555664,0,0,0,40000
976822,0.9298396110534668,-4.016963005065918,39.0,136.0,4.822126388549805,-3.6417367458343506,0,0,0,40000
976832,0.9498356580734253,-3.921567916870117,28.0,141.0,4.368568420410156,-3.7899813652038574,0,0,0,40000
976842,0.9597167372703552,-3.8606162071228027,6.0,155.0,4.119396209716797,-3.8779525756835938,0,0,0,40000
976852,0.9629402756690979,-3.770514726638794,11.0,123.0,3.6929359436035156,-3.9261019229888916,0,0,0,40000
976862,0.954125165939331,-3.724538564682007,-10.0,115.0,3.529369354248047,-3.9019269943237305,0,0,0,40000
976872,0.9354164600372314,-3.6696150302886963,-32.0,56.0,3.3104171752929688,-3.8180160522460938,0,0,0,40000
976882,0.9165480136871338,-3.6500940322875977,-62.0,29.0,3.3030261993408203,-3.7325656414031982,0,0,0,40000
976892,0.8754045367240906,-3.6571881771087646,-65.0,-43.0,3.4550304412841797,-3.51247239112854,0,0,0,40000
976902,0.839336097240448,-3.6932523250579834,-80.0,-89.0,3.7817516326904297,-3.321674346923828,0,0,0,40000
976912,0.7757634520530701,-3.7667737007141113,-90.0,-87.0,4.335063934326172,-2.9642906188964844,0,0,0,40000
976922,0.7262648344039917,-3.8083298206329346,-106.0,-121.0,4.698125839233398,-2.6897103786468506,0,0,0,40000
976932,0.659091055393219,-3.8870742321014404,-110.0,-90.0,5.286342620849609,-2.307290554046631,0,0,0,40000
976942,0.6090275049209595,-3.924976348876953,-117.0,-83.0,5.631069183349609,-2.0257797241210938,0,0,0,40000
976952,0.5349490642547607,-3.977490186691284,-107.0,-63.0,6.064874649047852,-1.5982303619384766,0,0,0,40000
976962,0.4816078841686249,-3.987598419189453,-97.0,40.0,6.245082855224609,-1.2932668924331665,0,0,0,40000
976972,0.41885653138160706,-3.942166566848755,-87.0,91.0,6.091440200805664,-0.9300848245620728,0,0,0,40000
976982,0.36758196353912354,-3.8693721294403076,-106.0,201.0,5.7716522216796875,-0.6341389417648315,0,0,0,40000
976992,0.30215075612068176,-3.7133824825286865,-102.0,245.0,4.949026107788086,-0.2514641284942627,0,0,0,40000
977002,0.25173816084861755,-3.5943856239318848,-95.0,269.0,4.344316482543945,0.042861223220825195,0,0,0,40000
977012,0.19090887904167175,-3.409309148788452,-92.0,272.0,3.3383636474609375,0.4013988971710205,0,0,0,40000
977022,0.15549780428409576,-3.300842523574829,-83.0,232.0,2.7878780364990234,0.6087440252304077,0,0,0,40000
977032,0.09427070617675781,-3.168668031692505,-107.0,164.0,2.0913143157958984,0.9724605083465576,0,0,0,40000
977042,0.06278000771999359,-3.1012699604034424,-119.0,138.0,1.7807331085205078,1.1591356992721558,0,0,0,40000
977052,-0.0044907331466674805,-3.0386266708374023,-64.0,71.0,1.4966106414794922,1.5622599124908447,0,0,0,40000
977062,-0.0386168397963047,-3.014125108718872,-40.0,37.0,1.4403114318847656,1.7677885293960571,0,0,0,40000
977072,-0.07106167823076248,-3.0131797790527344,-49.0,-36.0,1.5248470306396484,1.9641659259796143,0,0,0,40000
977082,-0.09438174962997437,-3.0540835857391357,-45.0,-93.0,1.8613815307617188,2.1066277027130127,0,0,0,40000
977092,-0.11690431088209152,-3.1387627124786377,-41.0,-132.0,2.4625415802001953,2.2449917793273926,0,0,0,40000
977102,-0.13136982917785645,-3.193366289138794,-37.0,-112.0,2.885305404663086,2.3355355262756348,0,0,0,40000
977112,-0.15211960673332214,-3.2700631618499756,-31.0,-107.0,3.4427032470703125,2.464350461959839,0,0,0,40000
977122,-0.15740585327148438,-3.3111884593963623,8.0,-77.0,3.7882919311523438,2.500779390335083,0,0,0,40000
977132,-0.15267226099967957,-3.33427357673645,8.0,-11.0,4.026728630065918,2.4770071506500244,0,0,0,40000
977142,-0.14745788276195526,-3.3244402408599854,3.0,31.0,4.067588806152344,2.4502148628234863,0,0,0,40000
977152,-0.14506398141384125,-3.273235321044922,14.0,112.0,3.859376907348633,2.440267562866211,0,0,0,40000
977162,-0.13784633576869965,-3.2083382606506348,31.0,157.0,3.5670394897460938,2.40120530128479,0,0,0,40000
977172,-0.12047608941793442,-3.1095359325408936,3.0,172.0,3.068796157836914,2.300691843032837,0,0,0,40000
977182,-0.10761592537164688,-3.0318856239318848,34.0,207.0,2.694805145263672,2.2269468307495117,0,0,0,40000
977192,-0.07827500253915787,-2.912137031555176,36.0,166.0,2.065095901489258,2.053597927093506,0,0,0,40000
977202,-0.06669945269823074,-2.8449759483337402,30.0,124.0,1.7482337951660156,1.9862494468688965,0,0,0,40000
977212,-0.0499051995575428,-2.793823003768921,25.0,57.0,1.5256366729736328,1.887194275856018,0,0,0,40000
977222,-0.033317696303129196,-2.777141571044922,27.0,13.0,1.5090160369873047,1.7888689041137695,0,0,0,40000
977232,-0.005087846890091896,-2.802114725112915,39.0,-28.0,1.7426137924194336,1.620013952255249,0,0,0,40000
977242,0.01565300114452839,-2.8350772857666016,53.0,-91.0,2.0250110626220703,1.4953606128692627,0,0,0,40000
977252,0.04894223436713219,-2.903285026550293,64.0,-90.0,2.5206098556518555,1.2945984601974487,0,0,0,40000
977262,0.054674334824085236,-2.953913450241089,5.0,-99.0,2.9123783111572266,1.2585763931274414,0,0,0,40000
977272,0.056329142302274704,-3.0175318717956543,1.0,-85.0,3.383913040161133,1.2469134330749512,0,0,0,40000
977282,0.0603078231215477,-3.051344394683838,-8.0,-84.0,3.6778926849365234,1.221268653869629,0,0,0,40000
977292,0.06108075752854347,-3.082051992416382,0.0,-31.0,3.954318046569824,1.2148468494415283,0,0,0,40000
977302,0.05835627764463425,-3.0970911979675293,-9.0,-5.0,4.137325286865234,1.2294321060180664,0,0,0,40000
977312,0.06548161059617996,-3.0899441242218018,13.0,28.0,4.18733024597168,1.1848483085632324,0,0,0,40000
977322,0.07496221363544464,-3.0701560974121094,34.0,79.0,4.160926818847656,1.1258095502853394,0,0,0,40000
977332,0.08813098818063736,-2.9862678050994873,2.0,141.0,3.748332977294922,1.04422926902771,0,0,0,40000
977342,0.08930642902851105,-2.9188930988311768,4.0,148.0,3.432435989379883,1.034497857093811,0,0,0,40000
977352,0.08538797497749329,-2.816117525100708,-1.0,153.0,2.90155029296875,1.0554108619689941,0,0,0,40000
977362,0.08997144550085068,-2.760216236114502,-5.0,125.0,2.649599075317383,1.0252714157104492,0,0,0,40000
977372,0.08956760913133621,-2.6818740367889404,-4.0,120.0,2.2609500885009766,1.025024175643921,0,0,0,40000
977382,0.092015340924263,-2.638339042663574,3.0,82.0,2.079376220703125,1.0076024532318115,0,0,0,40000
977392,0.09416332840919495,-2.5724716186523438,6.0,94.0,1.7621574401855469,0.9919053912162781,0,0,0,40000
977402,0.1012377068400383,-2.5462465286254883,0.0,54.0,1.6814956665039062,0.946475088596344,0,0,0,40000
977412,0.10707007348537445,-2.53535532951355,18.0,-2.0,1.6770343780517578,0.9089628458023071,0,0,0,40000
977422,0.11619828641414642,-2.541938304901123,25.0,-51.0,1.792586326599121,0.8508464097976685,0,0,0,40000
977432,0.12423129379749298,-2.558701515197754,6.0,-21.0,1.9697017669677734,0.7989952564239502,0,0,0,40000
977442,0.14111213386058807,-2.560917615890503,37.0,0.0,2.059811592102051,0.6937787532806396,0,0,0,40000
977452,0.15447336435317993,-2.56160831451416,17.0,10.0,2.140810012817383,0.6091246604919434,0,0,0,40000
977462,0.18152903020381927,-2.543637752532959,28.0,12.0,2.109518051147461,0.44168365001678467,0,0,0,40000
977472,0.19009701907634735,-2.542839288711548,27.0,2.0,2.1810359954833984,0.38466787338256836,0,0,0,40000
977482,0.20116640627384186,-2.550690174102783,30.0,-1.0,2.3045759201049805,0.3123742341995239,0,0,0,40000
977492,0.20770026743412018,-2.54231333732605,50.0,34.0,2.330720901489258,0.2670266628265381,0,0,0,40000
977502,0.2367953509092331,-2.533006191253662,31.0,4.0,2.3509130477905273,0.08566272258758545,0,0,0,40000
977512,0.25831300020217896,-2.5389440059661865,19.0,-30.0,2.462596893310547,-0.0509343147277832,0,0,0,40000
977522,0.2828404903411865,-2.5709569454193115,47.0,-37.0,2.7313995361328125,-0.2062135934829712,0,0,0,40000
977532,0.30565425753593445,-2.593771457672119,85.0,-34.0,2.945857048034668,-0.35198545455932617,0,0,0,40000
977542,0.34425127506256104,-2.6296439170837402,40.0,-38.0,3.2395944595336914,-0.5935626029968262,0,0,0,40000
977552,0.37369006872177124,-2.6309664249420166,51.0,19.0,3.326448440551758,-0.7810714244842529,0,0,0,40000
977562,0.4041500687599182,-2.6072041988372803,40.0,42.0,3.2624998092651367,-0.9755858182907104,0,0,0,40000
977572,0.4183950126171112,-2.5744998455047607,39.0,61.0,3.143880844116211,-1.0733938217163086,0,0,0,40000
977582,0.44121477007865906,-2.5332529544830322,45.0,47.0,2.9728965759277344,-1.2232633829116821,0,0,0,40000
977592,0.4449821412563324,-2.515573263168335,22.0,28.0,2.9424591064453125,-1.259200096130371,0,0,0,40000
977602,0.45107826590538025,-2.514063835144043,-7.0,5.0,3.0088119506835938,-1.309352993965149,0,0,0,40000
977612,0.44686803221702576,-2.510446310043335,-8.0,6.0,3.062467575073242,-1.2975622415542603,0,0,0,40000
977622,0.4316307306289673,-2.5037851333618164,-9.0,32.0,3.097776412963867,-1.219280481338501,0,0,0,40000
977632,0.4332892894744873,-2.46903657913208,-8.0,116.0,2.963810920715332,-1.2421730756759644,0,0,0,40000
977642,0.4181239902973175,-2.386561870574951,5.0,138.0,2.5416460037231445,-1.1638580560684204,0,0,0,40000
977652,0.41735273599624634,-2.3322792053222656,-25.0,126.0,2.2865524291992188,-1.1717890501022339,0,0,0,40000
977662,0.40319880843162537,-2.2589566707611084,-26.0,81.0,1.9151935577392578,-1.0991524457931519,0,0,0,40000
977672,0.3913614749908447,-2.238051652908325,-30.0,47.0,1.8571462631225586,-1.0400139093399048,0,0,0,40000
977682,0.36942818760871887,-2.241238832473755,-22.0,-38.0,1.9432640075683594,-0.9197556972503662,0,0,0,40000
977692,0.36091721057891846,-2.2768492698669434,-20.0,-105.0,2.224760055541992,-0.8795944452285767,0,0,0,40000
977702,0.3483610153198242,-2.375607490539551,-18.0,-174.0,2.8873071670532227,-0.8148223161697388,0,0,0,40000
977712,0.33893632888793945,-2.4630134105682373,-22.0,-183.0,3.4846019744873047,-0.7685756683349609,0,0,0,40000
977722,0.3419097661972046,-2.5685064792633057,-4.0,-140.0,4.193449020385742,-0.796616792678833,0,0,0,40000
977732,0.3381136953830719,-2.6217503547668457,2.0,-102.0,4.590928077697754,-0.784004807472229,0,0,0,40000
977742,0.3336459696292877,-2.6673026084899902,16.0,-33.0,4.943861961364746,-0.7672281265258789,0,0,0,40000
977752,0.33477747440338135,-2.6719627380371094,-6.0,5.0,5.051900863647461,-0.784063458442688,0,0,0,40000
977762,0.32835859060287476,-2.6603574752807617,13.0,52.0,5.062323570251465,-0.7554396390914917,0,0,0,40000
977772,0.3310431241989136,-2.630605697631836,-1.0,82.0,4.963068008422852,-0.7814725637435913,0,0,0,40000
977782,0.33765357732772827,-2.578173875808716,5.0,76.0,4.726482391357422,-0.831181526184082,0,0,0,40000
977792,0.35103732347488403,-2.529289960861206,37.0,132.0,4.509677886962891,-0.9218229055404663,0,0,0,40000
977802,0.37602198123931885,-2.4231228828430176,40.0,162.0,3.946719169616699,-1.0827674865722656,0,0,0,40000
977812,0.3889305889606476,-2.354459285736084,64.0,194.0,3.606194496154785,-1.1717066764831543,0,0,0,40000
977822,0.4242296814918518,-2.2379140853881836,53.0,157.0,2.97537899017334,-1.3958475589752197,0,0,0,40000
977832,0.4522183835506439,-2.18347430229187,55.0,107.0,2.7148942947387695,-1.5770126581192017,0,0,0,40000
977842,0.5016795992851257,-2.1350350379943848,72.0,34.0,2.488715171813965,-1.888200283050537,0,0,0,40000
977852,0.5361906886100769,-2.132017135620117,71.0,-17.0,2.534587860107422,-2.110928535461426,0,0,0,40000
977862,0.5782122611999512,-2.1614737510681152,49.0,-73.0,2.7756757736206055,-2.3799474239349365,0,0,0,40000
977872,0.5926947593688965,-2.2120649814605713,52.0,-129.0,3.1449508666992188,-2.4844517707824707,0,0,0,40000
977882,0.6270833015441895,-2.3080575466156006,43.0,-128.0,3.7889413833618164,-2.7092204093933105,0,0,0,40000
977892,0.6410717964172363,-2.3714823722839355,15.0,-100.0,4.239901542663574,-2.8122591972351074,0,0,0,40000
977902,0.6436339020729065,-2.4248945713043213,14.0,-25.0,4.632608413696289,-2.846968412399292,0,0,0,40000
977912,0.6463598608970642,-2.407421588897705,-1.0,98.0,4.600272178649902,-2.8826842308044434,0,0,0,40000
977922,0.6473179459571838,-2.3263392448425293,9.0,143.0,4.184599876403809,-2.907784938812256,0,0,0,40000
977932,0.6462593674659729,-2.2504239082336426,-8.0,180.0,3.79757022857666,-2.9208178520202637,0,0,0,40000
977942,0.6396282911300659,-2.119678258895874,-21.0,175.0,3.0782480239868164,-2.900339126586914,0,0,0,40000
977952,0.6290550827980042,-2.0458319187164307,-33.0,152.0,2.6974124908447266,-2.8558993339538574,0,0,0,40000
977962,0.6101431846618652,-1.954188585281372,-35.0,126.0,2.20717716217041,-2.76092529296875,0,0,0,40000
977972,0.5888340473175049,-1.9047038555145264,-35.0,64.0,1.9679737091064453,-2.6509885787963867,0,0,0,40000
977982,0.5624131560325623,-1.8922381401062012,-42.0,-11.0,1.9499025344848633,-2.5096728801727295,0,0,0,40000
977992,0.5364676117897034,-1.923841118812561,-53.0,-80.0,2.1968202590942383,-2.3704121112823486,0,0,0,40000
978002,0.481797456741333,-1.9932221174240112,-94.0,-96.0,2.6720285415649414,-2.0575828552246094,0,0,0,40000
978012,0.4456549286842346,-2.016770124435425,-62.0,-30.0,2.873624801635742,-1.8544996976852417,0,0,0,40000
978022,0.3912373483181,-2.0416295528411865,-71.0,-36.0,3.0836753845214844,-1.5403811931610107,0,0,0,40000
978032,0.35715213418006897,-2.0560574531555176,-71.0,-40.0,3.2317495346069336,-1.3469960689544678,0,0,0,40000
978042,0.3077685534954071,-2.091214895248413,-79.0,-50.0,3.5049571990966797,-1.0605064630508423,0,0,0,40000
978052,0.27466881275177,-2.112332582473755,-68.0,-26.0,3.6948041915893555,-0.8705294132232666,0,0,0,40000
978062,0.23170268535614014,-2.12495756149292,-73.0,-16.0,3.834164619445801,-0.6201755404472351,0,0,0,40000
978072,0.19668622314929962,-2.124159336090088,-67.0,20.0,3.893113136291504,-0.4164196252822876,0,0,0,40000
978082,0.14533013105392456,-2.1152403354644775,-67.0,20.0,3.903097152709961,-0.11328202486038208,0,0,0,40000
978092,0.1156952977180481,-2.1015684604644775,-54.0,8.0,3.8842830657958984,0.060694217681884766,0,0,0,40000
978102,0.08090531826019287,-2.0838992595672607,-32.0,38.0,3.841017723083496,0.2666487693786621,0,0,0,40000
978112,0.056194890290498734,-2.065476417541504,-40.0,52.0,3.7926864624023438,0.41287583112716675,0,0,0,40000
978122,0.029577303677797318,-1.9998127222061157,-25.0,132.0,3.459625244140625,0.5713540315628052,0,0,0,40000
978132,0.0229265745729208,-1.9370253086090088,-11.0,157.0,3.1417856216430664,0.6104844808578491,0,0,0,40000
978142,0.0249809380620718,-1.8320558071136475,8.0,174.0,2.5682010650634766,0.5974502563476562,0,0,0,40000
978152,0.03569282591342926,-1.760199785232544,46.0,153.0,2.190704345703125,0.5322573184967041,0,0,0,40000
978162,0.056127745658159256,-1.6629986763000488,28.0,118.0,1.658381462097168,0.40814363956451416,0,0,0,40000
978172,0.07732712477445602,-1.6084591150283813,58.0,114.0,1.380035400390625,0.27890700101852417,0,0,0,40000
978182,0.11306934803724289,-1.553841471672058,53.0,97.0,1.0995349884033203,0.061486780643463135,0,0,0,40000
978192,0.14363881945610046,-1.5134834051132202,75.0,91.0,0.9032630920410156,-0.12587076425552368,0,0,0,40000
978202,0.1919928789138794,-1.4795490503311157,67.0,27.0,0.7442893981933594,-0.4211893677711487,0,0,0,40000
978212,0.22690415382385254,-1.487843632698059,81.0,-65.0,0.8385629653930664,-0.637039065361023,0,0,0,40000
978222,0.27884823083877563,-1.543546199798584,87.0,-90.0,1.2184038162231445,-0.9564151763916016,0,0,0,40000
978232,0.31025630235671997,-1.5875288248062134,81.0,-68.0,1.529402256011963,-1.1538255214691162,0,0,0,40000
978242,0.35213303565979004,-1.6495548486709595,53.0,-93.0,1.950204849243164,-1.4152088165283203,0,0,0,40000
978252,0.3770509958267212,-1.69782555103302,57.0,-94.0,2.290189743041992,-1.5757200717926025,0,0,0,40000
978262,0.40851497650146484,-1.737844705581665,29.0,-17.0,2.582120895385742,-1.7764410972595215,0,0,0,40000
978272,0.43025118112564087,-1.7364293336868286,47.0,27.0,2.62575626373291,-1.9194800853729248,0,0,0,40000
978282,0.4479813277721405,-1.6970428228378296,8.0,90.0,2.4409780502319336,-2.039163589477539,0,0,0,40000
978292,0.4548962712287903,-1.6400744915008545,7.0,117.0,2.149074077606201,-2.094240665435791,0,0,0,40000
978302,0.4554031193256378,-1.5467276573181152,-5.0,135.0,1.6365461349487305,-2.1109657287597656,0,0,0,40000
978312,0.45088744163513184,-1.4882135391235352,-10.0,120.0,1.3308119773864746,-2.0974559783935547,0,0,0,40000
978322,0.43716469407081604,-1.4154554605484009,-20.0,100.0,0.9375209808349609,-2.0284104347229004,0,0,0,40000
978332,0.42398038506507874,-1.3856024742126465,-44.0,48.0,0.8003025054931641,-1.9621833562850952,0,0,0,40000
978342,0.3768805265426636,-1.3533610105514526,-44.0,52.0,0.6478128433227539,-1.6913682222366333,0,0,0,40000
978352,0.34516510367393494,-1.338059425354004,-67.0,30.0,0.5963172912597656,-1.5118255615234375,0,0,0,40000
978362,0.3021882474422455,-1.3226442337036133,-53.0,22.0,0.5437040328979492,-1.2635786533355713,0,0,0,40000
978372,0.2693752646446228,-1.3111977577209473,-66.0,20.0,0.5144748687744141,-1.075204610824585,0,0,0,40000
978382,0.2247164398431778,-1.2853739261627197,-80.0,37.0,0.3983631134033203,-0.8146401643753052,0,0,0,40000
978392,0.18541868031024933,-1.2790336608886719,-67.0,17.0,0.39876365661621094,-0.5848498344421387,0,0,0,40000
978402,0.13110587000846863,-1.281714677810669,-72.0,6.0,0.4532589912414551,-0.263552188873291,0,0,0,40000
978412,0.0874604731798172,-1.2974772453308105,-88.0,-40.0,0.5865354537963867,-0.004846692085266113,0,0,0,40000
978422,0.02583686262369156,-1.3259742259979248,-92.0,-54.0,0.7968497276306152,0.3633469343185425,0,0,0,40000
978432,-0.01110338419675827,-1.3565473556518555,-76.0,-60.0,1.0206513404846191,0.584883987903595,0,0,0,40000
978442,-0.05670629069209099,-1.374572992324829,-55.0,-7.0,1.1699018478393555,0.859703779220581,0,0,0,40000
978452,-0.06583952158689499,-1.3655030727386475,-47.0,19.0,1.1565523147583008,0.9163255095481873,0,0,0,40000
978462,-0.09209728986024857,-1.3486900329589844,-39.0,29.0,1.0963068008422852,1.076353669166565,0,0,0,40000
978472,-0.10353043675422668,-1.3344231843948364,-25.0,33.0,1.0509376525878906,1.1479310989379883,0,0,0,40000
978482,-0.12007655203342438,-1.3177541494369507,-6.0,36.0,0.9906253814697266,1.250658631324768,0,0,0,40000
978492,-0.1261257380247116,-1.300439715385437,-15.0,46.0,0.9259705543518066,1.2906460762023926,0,0,0,40000
978502,-0.13966195285320282,-1.2766391038894653,-33.0,33.0,0.8216934204101562,1.3758162260055542,0,0,0,40000
978512,-0.1416448950767517,-1.2658066749572754,0.0,1.0,0.7947735786437988,1.3919565677642822,0,0,0,40000
978522,-0.11379820853471756,-1.2691982984542847,51.0,-18.0,0.8530426025390625,1.228724718093872,0,0,0,40000
978532,-0.08645062893629074,-1.2898401021957397,53.0,-38.0,1.0153217315673828,1.0675711631774902,0,0,0,40000
978542,-0.05369997397065163,-1.322485327720642,42.0,-51.0,1.250464916229248,0.8730580806732178,0,0,0,40000
978552,-0.036777518689632416,-1.3569759130477905,66.0,-66.0,1.497675895690918,0.7728544473648071,0,0,0,40000
978562,0.006486446131020784,-1.4127072095870972,67.0,-77.0,1.8738126754760742,0.5135787129402161,0,0,0,40000
978572,0.0460502952337265,-1.4537677764892578,78.0,-94.0,2.163240909576416,0.2752712666988373,0,0,0,40000
978582,0.10680421441793442,-1.5171645879745483,108.0,-82.0,2.5884475708007812,-0.09162729978561401,0,0,0,40000
978592,0.1613510102033615,-1.5471464395523071,116.0,-36.0,2.814413547515869,-0.4230780601501465,0,0,0,40000
978602,0.23341375589370728,-1.5602519512176514,124.0,7.0,2.93985652923584,-0.861552357673645,0,0,0,40000
978612,0.2781481146812439,-1.5411207675933838,103.0,64.0,2.871537685394287,-1.1377754211425781,0,0,0,40000
978622,0.34824803471565247,-1.4791688919067383,74.0,94.0,2.5450029373168945,-1.5681183338165283,0,0,0,40000
978632,0.3853064179420471,-1.430362582206726,83.0,138.0,2.295685291290283,-1.8015681505203247,0,0,0,40000
978642,0.43360820412635803,-1.3216058015823364,82.0,175.0,1.6841850280761719,-2.1037843227386475,0,0,0,40000
978652,0.4608340263366699,-1.24665105342865,75.0,172.0,1.2727479934692383,-2.2806262969970703,0,0,0,40000
978662,0.5015274882316589,-1.143699049949646,57.0,154.0,0.6905755996704102,-2.5394129753112793,0,0,0,40000
978672,0.5251868367195129,-1.1007511615753174,14.0,75.0,0.46636962890625,-2.6969070434570312,0,0,0,40000
978682,0.5346497893333435,-1.0599634647369385,10.0,61.0,0.25394153594970703,-2.7696213722229004,0,0,0,40000
978692,0.5357062816619873,-1.0541126728057861,-10.0,-4.0,0.2505197525024414,-2.792031764984131,0,0,0,40000
978702,0.5370270013809204,-1.0805567502975464,21.0,-66.0,0.4411344528198242,-2.8159706592559814,0,0,0,40000
978712,0.5322913527488708,-1.118302345275879,-13.0,-93.0,0.700685977935791,-2.8035967350006104,0,0,0,40000
978722,0.5194432139396667,-1.1744414567947388,-21.0,-66.0,1.072159767150879,-2.742281675338745,0,0,0,40000
978732,0.5059221386909485,-1.201474905014038,-60.0,-47.0,1.2700777053833008,-2.6765356063842773,0,0,0,40000
978742,0.47655189037323,-1.209249496459961,-47.0,24.0,1.353085994720459,-2.5149312019348145,0,0,0,40000
978752,0.4503764808177948,-1.2017955780029297,-46.0,21.0,1.3445181846618652,-2.3716936111450195,0,0,0,40000
978762,0.4061432480812073,-1.1759074926376343,-33.0,58.0,1.2248034477233887,-2.118985414505005,0,0,0,40000
978772,0.36246028542518616,-1.162759780883789,-89.0,59.0,1.1809663772583008,-1.8683128356933594,0,0,0,40000
978782,0.3035809397697449,-1.115535855293274,-91.0,67.0,0.9316163063049316,-1.5248866081237793,0,0,0,40000
978792,0.2614438533782959,-1.1062273979187012,-109.0,33.0,0.9090523719787598,-1.2804163694381714,0,0,0,40000
978802,0.19309909641742706,-1.0847351551055908,-90.0,32.0,0.8129019737243652,-0.8768893480300903,0,0,0,40000
978812,0.14269350469112396,-1.0766984224319458,-88.0,28.0,0.7970881462097168,-0.579330325126648,0,0,0,40000
978822,0.0782647430896759,-1.0475280284881592,-96.0,56.0,0.6539082527160645,-0.19593200087547302,0,0,0,40000
978832,0.03626392409205437,-1.0006431341171265,-87.0,132.0,0.40322208404541016,0.05447220802307129,0,0,0,40000
978842,-0.012224728241562843,-0.8907618522644043,-72.0,188.0,-0.2279214859008789,0.3451962172985077,0,0,0,40000
978852,-0.03543080762028694,-0.8072534799575806,-77.0,164.0,-0.7037644386291504,0.48520344495773315,0,0,0,40000
978862,-0.08091814815998077,-0.7073001265525818,-59.0,140.0,-1.2811198234558105,0.7600734233856201,0,0,0,40000
978872,-0.1053355410695076,-0.6524792909622192,-44.0,138.0,-1.589799165725708,0.9094619750976562,0,0,0,40000
978882,-0.13652263581752777,-0.5656870007514954,-46.0,111.0,-2.0926084518432617,1.1002962589263916,0,0,0,40000
978892,-0.16086925566196442,-0.5224618911743164,-44.0,81.0,-2.3357725143432617,1.2509140968322754,0,0,0,40000
978902,-0.1868709921836853,-0.4649912714958191,-30.0,67.0,-2.6660022735595703,1.4122517108917236,0,0,0,40000
978912,-0.20153102278709412,-0.44251272082328796,-35.0,53.0,-2.7873551845550537,1.5060902833938599,0,0,0,40000
978922,-0.2283482700586319,-0.4161236584186554,-24.0,41.0,-2.9329288005828857,1.673575758934021,0,0,0,40000
978932,-0.23103587329387665,-0.4081551730632782,9.0,16.0,-2.968398332595825,1.6966339349746704,0,0,0,40000
978942,-0.22808581590652466,-0.4088842272758484,-2.0,-21.0,-2.954249382019043,1.684410572052002,0,0,0,40000
978952,-0.2204948365688324,-0.4413120150566101,14.0,-57.0,-2.74422550201416,1.646951675415039,0,0,0,40000
978962,-0.20343135297298431,-0.48223093152046204,35.0,-100.0,-2.4874308109283447,1.5495731830596924,0,0,0,40000
978972,-0.189200296998024,-0.5545371174812317,36.0,-104.0,-2.0344948768615723,1.4711394309997559,0,0,0,40000
978982,-0.17631472647190094,-0.5967949628829956,37.0,-94.0,-1.7668578624725342,1.3981380462646484,0,0,0,40000
978992,-0.1447840929031372,-0.6531175971031189,46.0,-58.0,-1.4060091972351074,1.2145620584487915,0,0,0,40000
979002,-0.12154735624790192,-0.6884958744049072,51.0,-75.0,-1.1774330139160156,1.0782065391540527,0,0,0,40000
979012,-0.08536027371883392,-0.7255698442459106,57.0,-80.0,-0.9292483329772949,0.8646593689918518,0,0,0,40000
979022,-0.06574971228837967,-0.7528553009033203,53.0,-14.0,-0.7476177215576172,0.7486860752105713,0,0,0,40000
979032,-0.03228761628270149,-0.7429578900337219,43.0,38.0,-0.7799253463745117,0.5494332313537598,0,0,0,40000
979042,-0.013525410555303097,-0.7169259786605835,31.0,47.0,-0.9187674522399902,0.43728768825531006,0,0,0,40000
979052,0.006352382246404886,-0.7011047005653381,34.0,8.0,-0.9883537292480469,0.318062961101532,0,0,0,40000
979062,0.016649020835757256,-0.7048112154006958,22.0,-31.0,-0.9492659568786621,0.2559226155281067,0,0,0,40000
979072,0.027071015909314156,-0.7352567911148071,10.0,-46.0,-0.7404422760009766,0.192517951130867,0,0,0,40000
979082,0.03677890822291374,-0.7582959532737732,-6.0,-25.0,-0.584134578704834,0.13343918323516846,0,0,0,40000
979092,0.039280004799366,-0.7855345606803894,-16.0,-22.0,-0.392697811126709,0.11702324450016022,0,0,0,40000
979102,0.038806892931461334,-0.7910488247871399,-9.0,-8.0,-0.3406491279602051,0.11895044147968292,0,0,0,40000
979112,0.013409453444182873,-0.808353841304779,-27.0,-21.0,-0.20797348022460938,0.2704848051071167,0,0,0,40000
979122,-0.008829708211123943,-0.8167089819908142,-39.0,-12.0,-0.1383042335510254,0.40397343039512634,0,0,0,40000
979132,-0.03900429233908653,-0.8250446319580078,-49.0,11.0,-0.058643341064453125,0.5859829187393188,0,0,0,40000
979142,-0.05507520213723183,-0.818133533000946,-51.0,70.0,-0.08040285110473633,0.6836435198783875,0,0,0,40000
979152,-0.08859359472990036,-0.7695896625518799,-51.0,73.0,-0.347994327545166,0.8870280385017395,0,0,0,40000
979162,-0.12275107204914093,-0.7327032089233398,-78.0,103.0,-0.5468721389770508,1.09521484375,0,0,0,40000
979172,-0.17514368891716003,-0.6629540920257568,-71.0,96.0,-0.9446182250976562,1.4142365455627441,0,0,0,40000
979182,-0.19959396123886108,-0.6191521286964417,-48.0,80.0,-1.1883392333984375,1.5666581392288208,0,0,0,40000
979192,-0.2291756421327591,-0.5632275938987732,-29.0,76.0,-1.506335735321045,1.7507407665252686,0,0,0,40000
979202,-0.2451247125864029,-0.5446291565895081,-31.0,31.0,-1.6013832092285156,1.8536174297332764,0,0,0,40000
979212,-0.2641327381134033,-0.5199909806251526,-21.0,39.0,-1.7333154678344727,1.9754096269607544,0,0,0,40000
979222,-0.2744673192501068,-0.5168815851211548,-26.0,-18.0,-1.7364766597747803,2.0455193519592285,0,0,0,40000
979232,-0.27290913462638855,-0.5402001738548279,-10.0,-35.0,-1.5806641578674316,2.0443665981292725,0,0,0,40000
979242,-0.2751845717430115,-0.5630630254745483,-13.0,-43.0,-1.426893949508667,2.0662424564361572,0,0,0,40000
979252,-0.27025312185287476,-0.564019501209259,7.0,2.0,-1.40411376953125,2.0449137687683105,0,0,0,40000
979262,-0.2677268981933594,-0.5560716986656189,0.0,41.0,-1.4349775314331055,2.037811040878296,0,0,0,40000
979272,-0.2659531235694885,-0.5270317792892456,2.0,29.0,-1.5930731296539307,2.035163640975952,0,0,0,40000
979282,-0.2558209002017975,-0.5137327909469604,-3.0,11.0,-1.657280683517456,1.9821723699569702,0,0,0,40000
979292,-0.2548932135105133,-0.5225533843040466,9.0,-32.0,-1.588843822479248,1.984297513961792,0,0,0,40000
979302,-0.23998408019542694,-0.5280090570449829,25.0,-24.0,-1.5403573513031006,1.9022116661071777,0,0,0,40000
979312,-0.21363316476345062,-0.5512014031410217,45.0,-22.0,-1.3848810195922852,1.7508924007415771,0,0,0,40000
979322,-0.2002975046634674,-0.5626604557037354,46.0,-36.0,-1.2993931770324707,1.677040934562683,0,0,0,40000
979332,-0.17433319985866547,-0.5787611603736877,33.0,-3.0,-1.185509204864502,1.5267541408538818,0,0,0,40000
979342,-0.15859666466712952,-0.5727315545082092,39.0,17.0,-1.204446792602539,1.4372851848602295,0,0,0,40000
979352,-0.14166773855686188,-0.5573544502258301,30.0,66.0,-1.2796540260314941,1.3401633501052856,0,0,0,40000
979362,-0.12394783645868301,-0.5379951000213623,59.0,60.0,-1.3794646263122559,1.2377970218658447,0,0,0,40000
979372,-0.09662532061338425,-0.5075981020927429,31.0,37.0,-1.5462822914123535,1.077034592628479,0,0,0,40000
979382,-0.07925707846879959,-0.49898579716682434,40.0,-25.0,-1.5829274654388428,0.9754032492637634,0,0,0,40000
979392,-0.05297740176320076,-0.5510708093643188,40.0,-118.0,-1.2546465396881104,0.8196582794189453,0,0,0,40000
979402,-0.04552497714757919,-0.6128557324409485,41.0,-143.0,-0.8662867546081543,0.776421308517456,0,0,0,40000
979412,-0.03275544196367264,-0.7213311195373535,31.0,-145.0,-0.19506549835205078,0.7008932828903198,0,0,0,40000
979422,-0.015539119020104408,-0.7857432961463928,15.0,-142.0,0.21419286727905273,0.5982455015182495,0,0,0,40000
979432,0.01926472969353199,-0.8792137503623962,53.0,-105.0,0.8003849983215332,0.3894382119178772,0,0,0,40000
979442,0.03463384509086609,-0.925591766834259,42.0,-77.0,1.1058392524719238,0.29639196395874023,0,0,0,40000
979452,0.055805325508117676,-0.9630792737007141,51.0,-19.0,1.3593578338623047,0.16796797513961792,0,0,0,40000
979462,0.07121593505144119,-0.9711780548095703,28.0,-8.0,1.436966896057129,0.07353073358535767,0,0,0,40000
979472,0.08954738825559616,-0.9550358653068542,28.0,74.0,1.3691730499267578,-0.03893697261810303,0,0,0,40000
979482,0.10819221287965775,-0.9222961068153381,28.0,109.0,1.2008085250854492,-0.1538180410861969,0,0,0,40000
979492,0.1320003718137741,-0.8288564682006836,38.0,148.0,0.6662287712097168,-0.3002757430076599,0,0,0,40000
979502,0.13918212056159973,-0.7672944068908691,34.0,121.0,0.32058095932006836,-0.34745460748672485,0,0,0,40000
979512,0.1485341340303421,-0.6800334453582764,3.0,143.0,-0.18145418167114258,-0.4079934358596802,0,0,0,40000
979522,0.15458321571350098,-0.6447815299034119,0.0,55.0,-0.37326860427856445,-0.4488603472709656,0,0,0,40000
979532,0.1544446498155594,-0.6317839622497559,-9.0,5.0,-0.43222856521606445,-0.4527052044868469,0,0,0,40000
979542,0.15106305480003357,-0.6483122110366821,0.0,-48.0,-0.31384825706481934,-0.43699193000793457,0,0,0,40000
979552,0.14177381992340088,-0.6736965775489807,-19.0,-46.0,-0.14157533645629883,-0.38567471504211426,0,0,0,40000
979562,0.13130545616149902,-0.7138255834579468,-22.0,-75.0,0.120086669921875,-0.3269352614879608,0,0,0,40000
979572,0.11962639540433884,-0.7686057090759277,-9.0,-52.0,0.4712491035461426,-0.26059120893478394,0,0,0,40000
979582,0.1145131066441536,-0.7863208651542664,-12.0,-26.0,0.6008810997009277,-0.23343127965927124,0,0,0,40000
979592,0.09965617954730988,-0.7989574670791626,-22.0,-2.0,0.7006220817565918,-0.147484689950943,0,0,0,40000
979602,0.09222379326820374,-0.7955524921417236,-17.0,7.0,0.7040786743164062,-0.1057502031326294,0,0,0,40000
979612,0.07167360186576843,-0.785214364528656,-33.0,44.0,0.6658773422241211,0.01511576771736145,0,0,0,40000
979622,0.06770195066928864,-0.7672927379608154,-39.0,37.0,0.5815792083740234,0.03684702515602112,0,0,0,40000
979632,0.04262829199433327,-0.7628739476203918,-19.0,4.0,0.577960729598999,0.18575319647789001,0,0,0,40000
979642,0.03293956443667412,-0.7614017128944397,-20.0,8.0,0.5919785499572754,0.24276936054229736,0,0,0,40000
979652,0.029949715360999107,-0.7562404870986938,-8.0,5.0,0.5837836265563965,0.25979292392730713,0,0,0,40000
979662,0.02619893290102482,-0.7584818005561829,-11.0,13.0,0.6199579238891602,0.28146353363990784,0,0,0,40000
979672,0.021973194554448128,-0.7417892813682556,-4.0,44.0,0.5423378944396973,0.3061363101005554,0,0,0,40000
979682,0.025129161775112152,-0.7324306964874268,0.0,6.0,0.5082254409790039,0.2864837646484375,0,0,0,40000
979692,0.02764739841222763,-0.7142462134361267,3.0,23.0,0.42082881927490234,0.27062737941741943,0,0,0,40000
979702,0.037094149738550186,-0.7012936472892761,6.0,19.0,0.36430835723876953,0.21296387910842896,0,0,0,40000
979712,0.02853241004049778,-0.7100048065185547,-1.0,-5.0,0.4377174377441406,0.26333439350128174,0,0,0,40000
979722,0.03286929801106453,-0.7227688431739807,3.0,-57.0,0.5358123779296875,0.23635882139205933,0,0,0,40000
979732,0.02913878671824932,-0.7716710567474365,-5.0,-65.0,0.8517870903015137,0.25778728723526,0,0,0,40000
979742,0.024087775498628616,-0.8115409016609192,-14.0,-88.0,1.1148476600646973,0.28732025623321533,0,0,0,40000
979752,0.011073057539761066,-0.893025815486908,-6.0,-103.0,1.6295757293701172,0.36496269702911377,0,0,0,40000
979762,-0.0005191268282942474,-0.9374767541885376,-6.0,-83.0,1.9238696098327637,0.4343813359737396,0,0,0,40000
979772,-0.005528578069061041,-0.9767060279846191,17.0,-31.0,2.188199520111084,0.464574933052063,0,0,0,40000
979782,-0.00207525840960443,-0.9668576717376709,-4.0,41.0,2.158254623413086,0.44392573833465576,0,0,0,40000
979792,-0.0009248813148587942,-0.9217022061347961,-22.0,91.0,1.915658950805664,0.43706458806991577,0,0,0,40000
979802,0.006422499194741249,-0.890038788318634,0.0,79.0,1.7527451515197754,0.39289626479148865,0,0,0,40000
979812,0.008682405576109886,-0.8339663743972778,8.0,73.0,1.4419631958007812,0.3791453540325165,0,0,0,40000
979822,0.004979986231774092,-0.8043904304504395,4.0,43.0,1.28898286819458,0.4011574983596802,0,0,0,40000
979832,0.012267000041902065,-0.7919678688049316,21.0,3.0,1.2382864952087402,0.35716167092323303,0,0,0,40000
979842,0.021506762132048607,-0.792427659034729,13.0,-6.0,1.2647686004638672,0.30117663741111755,0,0,0,40000
979852,0.03712213784456253,-0.8204860687255859,40.0,-47.0,1.4572327136993408,0.2065977305173874,0,0,0,40000
979862,0.051740553230047226,-0.8531739115715027,40.0,-92.0,1.6785578727722168,0.117513507604599,0,0,0,40000
979872,0.06255307048559189,-0.9255205988883972,19.0,-99.0,2.139497756958008,0.050855815410614014,0,0,0,40000
979882,0.07330881059169769,-0.9675007462501526,25.0,-70.0,2.4198999404907227,-0.015742599964141846,19.999964823837576,0.03751060196243348,0,40000
979892,0.09707044064998627,-1.0053192377090454,17.0,-32.0,2.450852870941162,120.1988525390625,19.784505045580243,2.928030071807648,0,40000
979902,0.10670154541730881,-1.0150935649871826,32.0,-16.0,-14.839081764221191,119.44265747070312,19.24686502704595,5.436744120397393,0,40000
979912,0.14898759126663208,-1.0312479734420776,108.0,-18.0,-29.89669418334961,116.54317474365234,18.386571037951438,7.869816101178309,0,40000
979922,0.21492254734039307,-1.0475801229476929,233.0,-41.0,-44.558231353759766,111.54728698730469,18.386571037951438,7.869816101178309,0,40000
979932,0.4002803862094879,-1.120801329612732,342.0,-136.0,-58.13471221923828,103.98094177246094,15.780743111612699,12.28690957260158,0,40000
979942,0.5958551168441772,-1.2171324491500854,499.0,-318.0,-70.56977844238281,94.63875579833984,14.073116009838124,14.210820024672675,0,40000
979952,1.004551887512207,-1.5075469017028809,691.0,-547.0,-80.7212142944336,82.36893463134766,14.073116009838124,14.210820024672675,0,40000
979962,1.3541582822799683,-1.818013072013855,847.0,-818.0,-89.39833068847656,68.97657775878906,12.130239960717681,15.901486675635327,0,40000
979972,1.9948028326034546,-2.4950408935546875,991.0,-1134.0,-94.2962417602539,52.60667037963867,9.994827530378686,17.323493372815552,0,40000
979982,2.4957821369171143,-3.0790977478027344,1150.0,-1422.0,-98.1030044555664,35.903175354003906,7.675696441147832,18.46845104883868,0,40000
979992,3.329428195953369,-4.15922737121582,1265.0,-1730.0,-97.07765197753906,16.37601089477539,5.233812837418759,19.303036113079997,0,40000
980002,3.9261038303375244,-5.002110004425049,1337.0,-1960.0,-95.53925323486328,-2.3265786170959473,2.708179131918901,19.81579586565826,0,40000
980012,4.866923809051514,-6.3949055671691895,1350.0,-2097.0,-88.7048110961914,-23.3574161529541,0.15531399366773607,19.99939692999194,0,40000
980022,5.502632141113281,-7.36162805557251,1315.0,-2112.0,-82.427734375,-42.69727325439453,-2.404258847159203,19.85496258862899,0,40000
980032,6.423295021057129,-8.749724388122559,1229.0,-2001.0,-71.52824401855469,-63.97679901123047,-4.985283866339752,19.368710457126788,0,40000
980042,6.991142272949219,-9.59487533569336,1136.0,-1792.0,-61.91328811645508,-82.52464294433594,-7.44753678205777,18.561632360325873,0,40000
980052,7.734758377075195,-10.7062406539917,947.0,-1565.0,-48.90632247924805,-101.23614501953125,-9.745718756485047,17.464849438786914,0,40000
980062,8.14779281616211,-11.313817977905273,746.0,-1236.0,-37.11919403076172,-117.1619644165039,-11.896171006719552,16.077347896306936,0,40000
980072,8.598296165466309,-12.025877952575684,479.0,-898.0,-22.972869873046875,-132.3131103515625,-13.867214659383219,14.411813126410816,0,40000
980082,8.751310348510742,-12.312485694885254,209.0,-488.0,-21.31944465637207,-133.90806579589844,-15.652974624681427,12.44927248473096,0,40000
980092,8.752646446228027,-12.475311279296875,-119.0,-83.0,-8.567558288574219,-145.363525390625,-17.133125123953462,10.317752831259074,0,40000
980102,8.591194152832031,-12.419374465942383,-464.0,249.0,3.949812889099121,-154.0496063232422,-18.334371324549526,7.990671319328313,0,40000
980112,8.081275939941406,-12.163328170776367,-860.0,522.0,16.5048885345459,-158.99710083007812,-19.20867714378389,5.570163586994042,0,40000
980122,7.565799713134766,-11.884278297424316,-1185.0,735.0,29.546493530273438,-161.959716796875,-19.772563395256658,3.007613136784146,0,40000
980132,6.539803504943848,-11.337309837341309,-1523.0,913.0,41.896820068359375,-159.9893798828125,-19.99499266422468,0.44751352784160936,0,40000
980142,5.690402984619141,-10.898530960083008,-1886.0,1046.0,54.943599700927734,-157.00845336914062,-19.885917305308983,-2.1331415626752865,0,40000
980152,4.185282230377197,-10.180304527282715,-2209.0,1119.0,66.48090362548828,-148.0647735595703,-19.44462810570388,-4.680431372306483,0,40000
980162,3.030912399291992,-9.668506622314453,-2564.0,1168.0,79.11520385742188,-139.18182373046875,-18.68341230110793,-7.136533106965105,0,40000
980172,1.1051440238952637,-8.872278213500977,-2843.0,1207.0,89.5497055053711,-123.68186950683594,-17.60464290276021,-9.49086657088248,0,40000
980182,-0.27940163016319275,-8.290639877319336,-3070.0,1313.0,100.71222686767578,-109.44493865966797,-16.237423604193616,-11.67673219261177,0,40000
980192,-2.5041885375976562,-7.365243434906006,-3215.0,1397.0,108.83145141601562,-88.34822845458984,-14.570355090338069,-13.700538403342385,0,40000
980202,-4.04887056350708,-6.700033664703369,-3341.0,1477.0,117.57878875732422,-69.43196868896484,-12.645342727775246,-15.495009109293925,0,40000
980212,-6.39636754989624,-5.615872383117676,-3409.0,1626.0,122.4657974243164,-44.03575897216797,-10.549277601862808,-16.991549137110354,0,40000
980222,-7.967872142791748,-4.8285369873046875,-3440.0,1762.0,127.36717987060547,-22.151836395263672,-8.284275625489649,-18.20359243009242,0,40000
980232,-10.298881530761719,-3.5477118492126465,-3377.0,1915.0,127.608154296875,5.429656982421875,-5.881166172972523,-19.115749643837766,0,40000
980242,-11.811525344848633,-2.631552219390869,-3259.0,2086.0,128.2312469482422,29.04078483581543,-3.3676851398624237,-19.714428644998815,0,40000
980252,-13.99259090423584,-1.160796046257019,-3130.0,2231.0,123.63569641113281,57.470741271972656,-0.7327911393029696,-19.986570920149337,0,40000
980262,-15.372760772705078,-0.12966978549957275,-2939.0,2370.0,119.69278717041016,81.9364013671875,-0.7327911393029696,-19.986570920149337,0,40000
980272,-17.309490203857422,1.4590977430343628,-2725.0,2480.0,110.3028335571289,109.53276062011719,1.8456374387661711,-19.914658481747175,0,40000
980282,-18.486684799194336,2.5368618965148926,-2434.0,2480.0,101.95623016357422,132.46633911132812,4.3862926556212765,-19.513083732184487,0,40000
980292,-20.08548927307129,4.0956292152404785,-2152.0,2465.0,88.59219360351562,157.98870849609375,6.916898998453678,-18.765833534516673,0,40000
