timestamp,stabilizer.roll,stabilizer.pitch,stateEstimateZ.rateRoll,stateEstimateZ.ratePitch,controller.pitchRate,controller.rollRate,roll,pitch,yawdot,thrust
859314,-43.45514678955078,67.00401306152344,4.0,0.0,-404.0341796875,262.03448486328125,0,0,0,40000
859324,-43.48066329956055,66.99888610839844,7.0,-2.0,-406.01348876953125,263.49169921875,0,0,0,40000
859334,-43.50032043457031,66.98133087158203,15.0,-61.0,-407.9178771972656,264.91448974609375,0,0,0,40000
859344,-43.47512435913086,66.91669464111328,14.0,-103.0,-409.53839111328125,266.0679016113281,0,0,0,40000
859354,-43.41182327270508,66.83966827392578,7.0,-256.0,-411.0823669433594,266.99127197265625,0,0,0,40000
859364,-43.101478576660156,66.60942840576172,-54.0,-474.0,-411.7023010253906,266.42645263671875,0,0,0,40000
859374,-42.709957122802734,66.3769760131836,-42.0,-827.0,-412.30181884765625,265.3635559082031,0,0,0,40000
859384,-41.66814041137695,65.79730987548828,20.0,-1332.0,-410.805419921875,260.37677001953125,0,0,0,40000
859394,-40.70201110839844,65.24508666992188,42.0,-1877.0,-409.456298828125,255.81314086914062,0,0,0,40000
859404,-38.718143463134766,64.09056091308594,-10.0,-2501.0,-404.466796875,245.09671020507812,0,0,0,40000
859414,-37.06764221191406,63.06593704223633,-34.0,-3220.0,-400.2236633300781,236.32582092285156,0,0,0,40000
859424,-34.22245788574219,61.0909309387207,33.0,-4026.0,-390.231689453125,220.3167266845703,0,0,0,40000
859434,-32.148529052734375,59.43667221069336,72.0,-4846.0,-382.1094665527344,208.86264038085938,0,0,0,40000
859444,-28.934614181518555,56.38504409790039,114.0,-5730.0,-365.52972412109375,190.48593139648438,0,0,0,40000
859454,-26.787145614624023,53.93696594238281,186.0,-6662.0,-352.4892272949219,178.43045043945312,0,0,0,40000
859464,-23.676273345947266,49.684326171875,295.0,-7465.0,-328.5168151855469,160.51220703125,0,0,0,40000
859474,-21.716150283813477,46.49298095703125,425.0,-8102.0,-310.8022155761719,149.42630004882812,0,0,0,40000
859484,-19.024383544921875,41.31448745727539,631.0,-8486.0,-281.0338134765625,133.87799072265625,0,0,0,40000
859494,-17.390853881835938,37.6972770690918,887.0,-8624.0,-260.5049743652344,124.61803436279297,0,0,0,40000
859504,-15.152091026306152,32.21914291381836,1154.0,-8494.0,-228.66836547851562,111.66627502441406,0,0,0,40000
859514,-13.763174057006836,28.639984130859375,1445.0,-8134.0,-208.095458984375,103.76214599609375,0,0,0,40000
859524,-11.760580062866211,23.534626007080078,1730.0,-7558.0,-178.2294921875,92.12301635742188,0,0,0,40000
859534,-10.452401161193848,20.39928436279297,2096.0,-6767.0,-160.06663513183594,84.6032943725586,0,0,0,40000
859544,-8.50425910949707,16.278982162475586,2414.0,-5708.0,-135.8805389404297,73.19316101074219,0,0,0,40000
859554,-7.1883745193481445,14.008098602294922,2654.0,-4483.0,-122.70210266113281,65.52934265136719,0,0,0,40000
859564,-5.172639846801758,11.420792579650879,2761.0,-3175.0,-107.54914855957031,53.61421203613281,0,0,0,40000
859574,-3.7957451343536377,10.288302421569824,2877.0,-1886.0,-101.07573699951172,45.48320388793945,0,0,0,40000
859584,-1.7297147512435913,9.418036460876465,2914.0,-745.0,-96.14469909667969,33.163692474365234,0,0,0,40000
859594,-0.34954243898391724,9.299098014831543,2923.0,145.0,-95.71098327636719,24.909744262695312,0,0,0,40000
859604,1.6919399499893188,9.638030052185059,2877.0,777.0,-98.02827453613281,12.63456916809082,0,0,0,40000
859614,3.0117242336273193,10.095113754272461,2803.0,1178.0,-101.06791687011719,4.641286849975586,0,0,0,40000
859624,4.923966884613037,10.969154357910156,2575.0,1386.0,-106.63027954101562,-6.957450866699219,0,0,0,40000
859634,6.155439853668213,11.583579063415527,2532.0,1418.0,-110.656982421875,-14.516145706176758,0,0,0,40000
859644,7.904222011566162,12.486863136291504,2279.0,1346.0,-116.44062805175781,-25.225412368774414,0,0,0,40000
859654,8.979866027832031,13.01636791229248,2093.0,1154.0,-120.00190734863281,-31.935827255249023,0,0,0,40000
859664,10.422060012817383,13.639778137207031,1874.0,836.0,-124.14474487304688,-40.88474655151367,0,0,0,40000
859674,11.262295722961426,13.891366004943848,1626.0,441.0,-126.06819915771484,-46.254112243652344,0,0,0,40000
859684,12.329704284667969,13.980377197265625,1315.0,-56.0,-127.02169799804688,-53.01642608642578,0,0,0,40000
859694,12.902827262878418,13.80319881439209,1045.0,-633.0,-126.3751449584961,-56.83557891845703,0,0,0,40000
859704,13.528236389160156,13.120767593383789,751.0,-1300.0,-122.68384552001953,-60.987098693847656,0,0,0,40000
859714,13.79284954071045,12.36560344696045,506.0,-1974.0,-118.53324890136719,-62.98554992675781,0,0,0,40000
859724,13.978073120117188,10.8079833984375,233.0,-2627.0,-109.53179931640625,-64.51458740234375,0,0,0,40000
859734,13.933931350708008,9.53007984161377,-104.0,-3084.0,-102.16584777832031,-64.66854858398438,0,0,0,40000
859744,13.69300651550293,7.368630886077881,-392.0,-3379.0,-89.44483947753906,-63.63732147216797,0,0,0,40000
859754,13.419119834899902,5.84038782119751,-671.0,-3497.0,-80.46900177001953,-62.399993896484375,0,0,0,40000
859764,12.840108871459961,3.539426803588867,-902.0,-3358.0,-66.79679870605469,-59.318424224853516,0,0,0,40000
859774,12.354336738586426,2.0987887382507324,-1107.0,-3100.0,-58.23307800292969,-56.780330657958984,0,0,0,40000
859784,11.502806663513184,0.16027425229549408,-1300.0,-2652.0,-46.62910842895508,-52.0268669128418,0,0,0,40000
859794,10.871736526489258,-0.9142406582832336,-1464.0,-2122.0,-40.16719436645508,-48.57429885864258,0,0,0,40000
859804,9.830663681030273,-2.1778206825256348,-1585.0,-1573.0,-32.53445053100586,-42.63559341430664,0,0,0,40000
859814,9.087448120117188,-2.768627166748047,-1690.0,-1019.0,-28.913352966308594,-38.45793914794922,0,0,0,40000
859824,7.939102649688721,-3.297445297241211,-1642.0,-499.0,-25.646690368652344,-31.819671630859375,0,0,0,40000
859834,7.16784143447876,-3.4524571895599365,-1658.0,-147.0,-24.614694595336914,-27.416418075561523,0,0,0,40000
859844,6.032505512237549,-3.467327833175659,-1619.0,119.0,-24.421077728271484,-20.798934936523438,0,0,0,40000
859854,5.30820369720459,-3.3721370697021484,-1555.0,294.0,-24.889816284179688,-16.621036529541016,0,0,0,40000
859864,4.27731990814209,-3.1846344470977783,-1453.0,299.0,-25.916996002197266,-10.57619857788086,0,0,0,40000
859874,3.6258416175842285,-3.0856494903564453,-1332.0,179.0,-26.417213439941406,-6.783853530883789,0,0,0,40000
859884,2.7416324615478516,-3.036130428314209,-1209.0,7.0,-26.623058319091797,-1.5712080001831055,0,0,0,40000
859894,2.230631113052368,-3.0838093757629395,-1048.0,-247.0,-26.24518585205078,1.4218158721923828,0,0,0,40000
859904,1.5721111297607422,-3.33834171295166,-879.0,-475.0,-24.621408462524414,5.318307876586914,0,0,0,40000
859914,1.2130435705184937,-3.613532781600952,-640.0,-710.0,-22.86528968811035,7.432147979736328,0,0,0,40000
859924,0.8138730525970459,-4.18962287902832,-484.0,-943.0,-19.29050064086914,9.798276901245117,0,0,0,40000
859934,0.6413143873214722,-4.656650543212891,-312.0,-1087.0,-16.354320526123047,10.812363624572754,0,0,0,40000
859944,0.5042374134063721,-5.444607734680176,-111.0,-1191.0,-11.472919464111328,11.618553161621094,0,0,0,40000
859954,0.5021902918815613,-5.983730792999268,79.0,-1159.0,-8.065120697021484,11.615884780883789,0,0,0,40000
859964,0.6047955751419067,-6.745337963104248,245.0,-1025.0,-3.3019752502441406,10.983769416809082,0,0,0,40000
859974,0.7461531162261963,-7.164736270904541,379.0,-820.0,-0.5755729675292969,10.114997863769531,0,0,0,40000
859984,1.0584639310836792,-7.654253959655762,485.0,-574.0,2.5858497619628906,8.213404655456543,0,0,0,40000
859994,1.3276054859161377,-7.852565288543701,621.0,-303.0,4.009071350097656,6.562044620513916,0,0,0,40000
860004,1.7868677377700806,-7.964639663696289,704.0,-34.0,4.919712066650391,3.7585906982421875,0,0,0,40000
860014,2.1288974285125732,-7.946601867675781,767.0,107.0,5.0501708984375,1.64666748046875,0,0,0,40000
860024,2.677344560623169,-7.829104900360107,796.0,241.0,4.581783294677734,-1.7176761627197266,0,0,0,40000
860034,3.0619144439697266,-7.691465377807617,830.0,305.0,3.988384246826172,-4.1123046875,0,0,0,40000
860044,3.6490211486816406,-7.464938640594482,817.0,332.0,2.8559608459472656,-7.737367630004883,0,0,0,40000
860054,4.030014514923096,-7.318321228027344,813.0,284.0,2.1975555419921875,-10.139644622802734,0,0,0,40000
860064,4.577873229980469,-7.150752544403076,763.0,195.0,1.4084701538085938,-13.557672500610352,0,0,0,40000
860074,4.918734550476074,-7.074557304382324,710.0,113.0,1.1643791198730469,-15.746358871459961,0,0,0,40000
860084,5.388163089752197,-7.041757106781006,613.0,-29.0,1.1788825988769531,-18.719146728515625,0,0,0,40000
860094,5.654828071594238,-7.085322380065918,513.0,-160.0,1.6522483825683594,-20.485626220703125,0,0,0,40000
860104,5.974510669708252,-7.242650508880615,414.0,-288.0,2.8112869262695312,-22.57931137084961,0,0,0,40000
860114,6.138315677642822,-7.39086389541626,312.0,-366.0,3.9204559326171875,-23.7443790435791,0,0,0,40000
860124,6.3036208152771,-7.67549991607666,178.0,-441.0,5.8549957275390625,-24.923599243164062,0,0,0,40000
860134,6.354355335235596,-7.886740684509277,53.0,-464.0,7.3565216064453125,-25.418113708496094,0,0,0,40000
860144,6.347619533538818,-8.21484088897705,-55.0,-472.0,9.567619323730469,-25.568462371826172,0,0,0,40000
860154,6.2916083335876465,-8.429070472717285,-176.0,-406.0,11.103378295898438,-25.421892166137695,0,0,0,40000
860164,6.131317138671875,-8.680188179016113,-273.0,-311.0,12.867691040039062,-24.646228790283203,0,0,0,40000
860174,5.980385780334473,-8.798418998718262,-372.0,-170.0,13.839683532714844,-23.92193031311035,0,0,0,40000
860184,5.7060770988464355,-8.866861343383789,-397.0,-30.0,14.515872955322266,-22.450536727905273,0,0,0,40000
860194,5.490094184875488,-8.853672981262207,-464.0,82.0,14.702556610107422,-21.321975708007812,0,0,0,40000
860204,5.141678333282471,-8.75550365447998,-521.0,191.0,14.377609252929688,-19.39002227783203,0,0,0,40000
860214,4.891243934631348,-8.665458679199219,-546.0,223.0,14.098392486572266,-18.03719139099121,0,0,0,40000
860224,4.49302864074707,-8.501859664916992,-565.0,261.0,13.373847961425781,-15.787498474121094,0,0,0,40000
860234,4.229433059692383,-8.39370346069336,-567.0,234.0,12.978008270263672,-14.335979461669922,0,0,0,40000
860244,3.8339993953704834,-8.252418518066406,-553.0,219.0,12.379539489746094,-12.083080291748047,0,0,0,40000
860254,3.572218894958496,-8.179397583007812,-535.0,138.0,12.187610626220703,-10.622695922851562,0,0,0,40000
860264,3.1941585540771484,-8.128602027893066,-527.0,47.0,12.127090454101562,-8.454692840576172,0,0,0,40000
860274,2.9557342529296875,-8.135464668273926,-503.0,-46.0,12.412193298339844,-7.115675926208496,0,0,0,40000
860284,2.6284289360046387,-8.192855834960938,-453.0,-79.0,13.001617431640625,-5.234585762023926,0,0,0,40000
860294,2.4274370670318604,-8.248456001281738,-403.0,-110.0,13.582012176513672,-4.103815078735352,0,0,0,40000
860304,2.1724817752838135,-8.297205924987793,-329.0,-31.0,14.12302017211914,-2.64211368560791,0,0,0,40000
860314,2.0226025581359863,-8.3058500289917,-286.0,18.0,14.423969268798828,-1.8052740097045898,0,0,0,40000
860324,1.853674292564392,-8.255805015563965,-201.0,131.0,14.372230529785156,-0.8492193222045898,0,0,0,40000
860334,1.7717289924621582,-8.185250282287598,-161.0,193.0,14.195354461669922,-0.4116525650024414,0,0,0,40000
860344,1.7001408338546753,-8.038497924804688,-76.0,236.0,13.557853698730469,-0.033782005310058594,0,0,0,40000
860354,1.683203101158142,-7.921036720275879,-5.0,268.0,13.092166900634766,0.017169952392578125,0,0,0,40000
860364,1.6939129829406738,-7.724203586578369,26.0,291.0,12.145256042480469,-0.0977325439453125,0,0,0,40000
860374,1.720080852508545,-7.593221664428711,81.0,303.0,11.588741302490234,-0.3059854507446289,0,0,0,40000
860384,1.7926853895187378,-7.405521392822266,126.0,274.0,10.686851501464844,-0.7944192886352539,0,0,0,40000
860394,1.8570817708969116,-7.294363975524902,160.0,258.0,10.240100860595703,-1.2357378005981445,0,0,0,40000
860404,1.981653094291687,-7.134553909301758,163.0,219.0,9.497093200683594,-2.041149139404297,0,0,0,40000
860414,2.072007417678833,-7.042489528656006,187.0,183.0,9.157073974609375,-2.644373893737793,0,0,0,40000
860424,2.215980052947998,-6.929924964904785,210.0,159.0,8.690868377685547,-3.5729246139526367,0,0,0,40000
860434,2.327545404434204,-6.866239070892334,225.0,111.0,8.515491485595703,-4.310785293579102,0,0,0,40000
860444,2.470973491668701,-6.802434921264648,206.0,74.0,8.337360382080078,-5.243814468383789,0,0,0,40000
860454,2.558210849761963,-6.777517795562744,199.0,38.0,8.3914794921875,-5.8429365158081055,0,0,0,40000
860464,2.6777405738830566,-6.753313064575195,164.0,38.0,8.44913101196289,-6.639065742492676,0,0,0,40000
860474,2.744147300720215,-6.752703666687012,134.0,8.0,8.648067474365234,-7.119074821472168,0,0,0,40000
860484,2.825277805328369,-6.759503364562988,93.0,-1.0,8.891582489013672,-7.689741134643555,0,0,0,40000
860494,2.8614022731781006,-6.7665605545043945,63.0,-24.0,9.136863708496094,-7.991901397705078,0,0,0,40000
860504,2.880544424057007,-6.760467052459717,44.0,46.0,9.303375244140625,-8.1929292678833,0,0,0,40000
860514,2.889382839202881,-6.722518444061279,5.0,91.0,9.277820587158203,-8.33253288269043,0,0,0,40000
860524,2.8481040000915527,-6.642550468444824,-89.0,134.0,8.998348236083984,-8.171011924743652,0,0,0,40000
860534,2.810342311859131,-6.5685625076293945,-123.0,170.0,8.752349853515625,-8.029236793518066,0,0,0,40000
860544,2.7255361080169678,-6.447810173034668,-140.0,185.0,8.222747802734375,-7.603245735168457,0,0,0,40000
860554,2.6512203216552734,-6.3666672706604,-155.0,208.0,7.927879333496094,-7.2377729415893555,0,0,0,40000
860564,2.5201480388641357,-6.2408294677734375,-188.0,165.0,7.361530303955078,-6.528565406799316,0,0,0,40000
860574,2.4092745780944824,-6.175430774688721,-257.0,104.0,7.155120849609375,-5.937003135681152,0,0,0,40000
860584,2.24458384513855,-6.1127824783325195,-259.0,74.0,6.963308334350586,-5.018242835998535,0,0,0,40000
860594,2.1247763633728027,-6.084765911102295,-271.0,69.0,6.978084564208984,-4.364581108093262,0,0,0,40000
860604,1.9377449750900269,-6.05812931060791,-256.0,43.0,7.00031852722168,-3.3027477264404297,0,0,0,40000
860614,1.8126832246780396,-6.048283576965332,-266.0,34.0,7.122795104980469,-2.6082754135131836,0,0,0,40000
860624,1.6320794820785522,-6.018316268920898,-256.0,59.0,7.123941421508789,-1.5758171081542969,0,0,0,40000
860634,1.5192912817001343,-5.998429298400879,-240.0,54.0,7.1848297119140625,-0.9460020065307617,0,0,0,40000
860644,1.353126883506775,-5.952706813812256,-230.0,88.0,7.089756011962891,0.008442878723144531,0,0,0,40000
860654,1.2490376234054565,-5.901325225830078,-188.0,120.0,6.959133148193359,0.5942869186401367,0,0,0,40000
860664,1.1223891973495483,-5.807734489440918,-159.0,144.0,6.572967529296875,1.319066047668457,0,0,0,40000
860674,1.0545244216918945,-5.728023052215576,-128.0,182.0,6.267486572265625,1.6938018798828125,0,0,0,40000
860684,0.9749482870101929,-5.619758605957031,-123.0,160.0,5.7877349853515625,2.141033172607422,0,0,0,40000
860694,0.9323835372924805,-5.5551042556762695,-92.0,170.0,5.567218780517578,2.3679356575012207,0,0,0,40000
860704,0.8894585371017456,-5.470989227294922,-38.0,94.0,5.227512359619141,2.5984115600585938,0,0,0,40000
860714,0.8705687522888184,-5.435111045837402,-36.0,55.0,5.175701141357422,2.68538761138916,0,0,0,40000
860724,0.8680897951126099,-5.417343616485596,2.0,14.0,5.231779098510742,2.6742115020751953,0,0,0,40000
860734,0.8772826790809631,-5.420499801635742,10.0,-44.0,5.413242340087891,2.592830181121826,0,0,0,40000
860744,0.9022656679153442,-5.463879585266113,31.0,-59.0,5.836940765380859,2.4162025451660156,0,0,0,40000
860754,0.9306161999702454,-5.503664970397949,68.0,-87.0,6.240257263183594,2.218571186065674,0,0,0,40000
860764,0.9749622941017151,-5.579633712768555,72.0,-82.0,6.862649917602539,1.923790454864502,0,0,0,40000
860774,1.0020132064819336,-5.621464729309082,70.0,-70.0,7.281795501708984,1.7317485809326172,0,0,0,40000
860784,1.0530847311019897,-5.659548759460449,78.0,-25.0,7.679750442504883,1.394361972808838,0,0,0,40000
860794,1.0927671194076538,-5.652054309844971,75.0,56.0,7.804500579833984,1.1239538192749023,0,0,0,40000
860804,1.1526439189910889,-5.6034698486328125,96.0,97.0,7.681812286376953,0.7309060096740723,0,0,0,40000
860814,1.1924747228622437,-5.546289920806885,95.0,143.0,7.505825042724609,0.45662879943847656,0,0,0,40000
860824,1.2548446655273438,-5.432582378387451,91.0,204.0,6.988033294677734,0.0455317497253418,0,0,0,40000
860834,1.310888409614563,-5.341672897338867,91.0,201.0,6.603885650634766,-0.32939910888671875,0,0,0,40000
860844,1.363917350769043,-5.198782444000244,87.0,248.0,5.904388427734375,-0.687830924987793,0,0,0,40000
860854,1.3970251083374023,-5.076945781707764,72.0,303.0,5.3271942138671875,-0.927985668182373,0,0,0,40000
860864,1.4446488618850708,-4.838395595550537,65.0,373.0,4.044057846069336,-1.2565116882324219,0,0,0,40000
860874,1.4703034162521362,-4.665464878082275,55.0,395.0,3.148529052734375,-1.4542698860168457,0,0,0,40000
860884,1.507068157196045,-4.4020466804504395,49.0,379.0,1.7031974792480469,-1.7196464538574219,0,0,0,40000
860894,1.5334213972091675,-4.25381326675415,37.0,308.0,0.9431381225585938,-1.9234604835510254,0,0,0,40000
860904,1.5593900680541992,-4.079214096069336,20.0,241.0,0.019895553588867188,-2.1257991790771484,0,0,0,40000
860914,1.5583404302597046,-4.005792617797852,3.0,137.0,-0.2996368408203125,-2.166266918182373,0,0,0,40000
860924,1.5541855096817017,-3.9259629249572754,-6.0,84.0,-0.6600570678710938,-2.1880416870117188,0,0,0,40000
860934,1.5432751178741455,-3.9044511318206787,-38.0,13.0,-0.6718006134033203,-2.169046401977539,0,0,0,40000
860944,1.5183509588241577,-3.933321237564087,-41.0,-86.0,-0.3811492919921875,-2.065389633178711,0,0,0,40000
860954,1.50198233127594,-3.984344482421875,-44.0,-119.0,0.019989013671875,-2.0034265518188477,0,0,0,40000
860964,1.4764896631240845,-4.065177917480469,-47.0,-171.0,0.6259498596191406,-1.8950796127319336,0,0,0,40000
860974,1.4348629713058472,-4.193841934204102,-59.0,-154.0,1.5222511291503906,-1.6889219284057617,0,0,0,40000
860984,1.407613754272461,-4.2624406814575195,-69.0,-137.0,2.0608882904052734,-1.5680150985717773,0,0,0,40000
860994,1.3613375425338745,-4.346764087677002,-72.0,-100.0,2.6963119506835938,-1.331789493560791,0,0,0,40000
861004,1.3263797760009766,-4.377486705780029,-86.0,-19.0,3.011638641357422,-1.162269115447998,0,0,0,40000
861014,1.2681751251220703,-4.377804279327393,-103.0,30.0,3.1450061798095703,-0.8518123626708984,0,0,0,40000
861024,1.2250429391860962,-4.343284606933594,-85.0,74.0,3.0686073303222656,-0.6302857398986816,0,0,0,40000
861034,1.1560691595077515,-4.271896839141846,-110.0,125.0,2.7693710327148438,-0.2520565986633301,0,0,0,40000
861044,1.107622742652893,-4.209278106689453,-78.0,170.0,2.520692825317383,0.004844188690185547,0,0,0,40000
861054,1.0538679361343384,-4.107217788696289,-79.0,169.0,2.0327377319335938,0.2950863838195801,0,0,0,40000
861064,1.00882887840271,-4.038083076477051,-66.0,165.0,1.7398624420166016,0.5344977378845215,0,0,0,40000
861074,0.9591697454452515,-3.9245622158050537,-74.0,169.0,1.1778507232666016,0.8030185699462891,0,0,0,40000
861084,0.9256531596183777,-3.874296188354492,-71.0,77.0,0.9930648803710938,0.9759411811828613,0,0,0,40000
861094,0.8905733227729797,-3.8496298789978027,-38.0,0.0,0.9607009887695312,1.1593799591064453,0,0,0,40000
861104,0.8698596954345703,-3.8710360527038574,-24.0,-66.0,1.2049846649169922,1.2573494911193848,0,0,0,40000
861114,0.8556280732154846,-3.9349188804626465,0.0,-101.0,1.7054824829101562,1.3169941902160645,0,0,0,40000
861124,0.855294942855835,-3.984675407409668,16.0,-110.0,2.1229991912841797,1.293346881866455,0,0,0,40000
861134,0.8663198351860046,-4.077949523925781,16.0,-136.0,2.8037796020507812,1.2013359069824219,0,0,0,40000
861144,0.8795436024665833,-4.151827335357666,24.0,-151.0,3.3707313537597656,1.0957527160644531,0,0,0,40000
861154,0.9053252935409546,-4.257376670837402,48.0,-145.0,4.130460739135742,0.9142794609069824,0,0,0,40000
861164,0.9297771453857422,-4.315069675445557,71.0,-93.0,4.605396270751953,0.7400021553039551,0,0,0,40000
861174,0.9832637310028076,-4.362817764282227,86.0,-43.0,5.022312164306641,0.3903007507324219,0,0,0,40000
861184,1.0229352712631226,-4.375375747680664,76.0,-11.0,5.228786468505859,0.12205219268798828,0,0,0,40000
861194,1.0849310159683228,-4.367002487182617,84.0,32.0,5.309719085693359,-0.2817211151123047,0,0,0,40000
861204,1.1253098249435425,-4.3466691970825195,81.0,65.0,5.318376541137695,-0.5572476387023926,0,0,0,40000
861214,1.1914957761764526,-4.292953014373779,95.0,100.0,5.125583648681641,-0.9892644882202148,0,0,0,40000
861224,1.2367485761642456,-4.248753547668457,95.0,122.0,4.988424301147461,-1.2973356246948242,0,0,0,40000
861234,1.305098295211792,-4.154148101806641,80.0,169.0,4.546653747558594,-1.7457962036132812,0,0,0,40000
861244,1.35539710521698,-4.084950923919678,107.0,118.0,4.254833221435547,-2.087623119354248,0,0,0,40000
861254,1.4343205690383911,-4.004645824432373,118.0,111.0,3.8940963745117188,-2.603198528289795,0,0,0,40000
861264,1.4860610961914062,-3.955327033996582,87.0,94.0,3.7174625396728516,-2.9576244354248047,0,0,0,40000
861274,1.5575144290924072,-3.9097862243652344,113.0,56.0,3.561952590942383,-3.4321584701538086,0,0,0,40000
861284,1.6025692224502563,-3.915738344192505,91.0,-60.0,3.71502685546875,-3.750041961669922,0,0,0,40000
861294,1.6631749868392944,-3.975478172302246,71.0,-105.0,4.191925048828125,-4.162899494171143,0,0,0,40000
861304,1.6898409128189087,-4.038942813873291,45.0,-145.0,4.693107604980469,-4.373303413391113,0,0,0,40000
861314,1.7211787700653076,-4.118164539337158,23.0,-110.0,5.291135787963867,-4.612643241882324,0,0,0,40000
861324,1.73011314868927,-4.171558856964111,17.0,-91.0,5.736003875732422,-4.718053817749023,0,0,0,40000
861334,1.7357547283172607,-4.229288101196289,7.0,-78.0,6.208566665649414,-4.803907871246338,0,0,0,40000
861344,1.7345077991485596,-4.261097431182861,-12.0,-39.0,6.5269012451171875,-4.848499298095703,0,0,0,40000
861354,1.7080696821212769,-4.2903900146484375,-46.0,-17.0,6.831056594848633,-4.741531848907471,0,0,0,40000
861364,1.6874669790267944,-4.295986175537109,-70.0,37.0,6.993461608886719,-4.668794631958008,0,0,0,40000
861374,1.6416761875152588,-4.246023178100586,-87.0,107.0,6.821832656860352,-4.443871974945068,0,0,0,40000
861384,1.5988365411758423,-4.182063579559326,-56.0,160.0,6.564357757568359,-4.235282897949219,0,0,0,40000
861394,1.5512092113494873,-4.0461649894714355,-65.0,226.0,5.87211799621582,-3.996683120727539,0,0,0,40000
861404,1.506032109260559,-3.9385640621185303,-88.0,268.0,5.345937728881836,-3.7713727951049805,0,0,0,40000
861414,1.4471173286437988,-3.739116907119751,-91.0,301.0,4.2638092041015625,-3.4619946479797363,0,0,0,40000
861424,1.3993123769760132,-3.6140494346618652,-102.0,254.0,3.623302459716797,-3.217715263366699,0,0,0,40000
861434,1.3232009410858154,-3.4654295444488525,-95.0,177.0,2.837160110473633,-2.801623821258545,0,0,0,40000
861444,1.2715510129928589,-3.4070773124694824,-110.0,77.0,2.589874267578125,-2.530508041381836,0,0,0,40000
861454,1.1952693462371826,-3.4013547897338867,-116.0,-45.0,2.6573524475097656,-2.109628677368164,0,0,0,40000
861464,1.141559362411499,-3.440110683441162,-115.0,-116.0,2.9925880432128906,-1.8222651481628418,0,0,0,40000
861474,1.077900767326355,-3.532550096511841,-67.0,-160.0,3.651956558227539,-1.4732513427734375,0,0,0,40000
861484,1.0413455963134766,-3.6004867553710938,-59.0,-129.0,4.166797637939453,-1.285593032836914,0,0,0,40000
861494,1.003586769104004,-3.7021517753601074,-65.0,-131.0,4.886663436889648,-1.0895986557006836,0,0,0,40000
861504,0.9821909666061401,-3.754483461380005,-54.0,-81.0,5.31266975402832,-0.990966796875,0,0,0,40000
861514,0.9476388096809387,-3.797508478164673,-47.0,-13.0,5.684370040893555,-0.8125004768371582,0,0,0,40000
861524,0.9390842914581299,-3.8016178607940674,-23.0,-13.0,5.823040008544922,-0.7894444465637207,0,0,0,40000
861534,0.9277634620666504,-3.8129894733428955,-17.0,0.0,6.005577087402344,-0.7494125366210938,0,0,0,40000
861544,0.9232080578804016,-3.813225030899048,19.0,15.0,6.1213836669921875,-0.7498016357421875,0,0,0,40000
861554,0.9306947588920593,-3.811591148376465,0.0,4.0,6.225896835327148,-0.8226261138916016,0,0,0,40000
861564,0.9335843920707703,-3.7951462268829346,7.0,47.0,6.2412872314453125,-0.8679652214050293,0,0,0,40000
861574,0.9430499076843262,-3.760491132736206,8.0,68.0,6.146644592285156,-0.952937126159668,0,0,0,40000
861584,0.9613170027732849,-3.723581314086914,25.0,72.0,6.037345886230469,-1.0911402702331543,0,0,0,40000
861594,0.9807261228561401,-3.6880404949188232,34.0,53.0,5.935136795043945,-1.2367334365844727,0,0,0,40000
861604,0.9931464195251465,-3.66516375541687,47.0,52.0,5.908111572265625,-1.340886116027832,0,0,0,40000
861614,1.0238784551620483,-3.6346871852874756,35.0,15.0,5.8345947265625,-1.555654525756836,0,0,0,40000
861624,1.0409399271011353,-3.6307120323181152,29.0,25.0,5.919695854187012,-1.6890697479248047,0,0,0,40000
861634,1.0628249645233154,-3.6187515258789062,22.0,32.0,5.956609725952148,-1.852006435394287,0,0,0,40000
861644,1.0855978727340698,-3.5945961475372314,60.0,84.0,5.919833183288574,-2.02091121673584,0,0,0,40000
861654,1.114152431488037,-3.5364320278167725,36.0,82.0,5.677621841430664,-2.225348472595215,0,0,0,40000
861664,1.1454204320907593,-3.4795596599578857,63.0,129.0,5.441500663757324,-2.4469470977783203,0,0,0,40000
861674,1.1775566339492798,-3.3959782123565674,38.0,122.0,5.0428266525268555,-2.674777030944824,0,0,0,40000
861684,1.1988921165466309,-3.349778175354004,29.0,73.0,4.866671562194824,-2.8385009765625,0,0,0,40000
861694,1.2154725790023804,-3.2922513484954834,37.0,71.0,4.620948791503906,-2.9742202758789062,0,0,0,40000
861704,1.2229461669921875,-3.2649052143096924,19.0,57.0,4.555133819580078,-3.0556793212890625,0,0,0,40000
861714,1.227481722831726,-3.2238805294036865,0.0,72.0,4.406210899353027,-3.119701385498047,0,0,0,40000
861724,1.2302048206329346,-3.196474075317383,6.0,53.0,4.337994575500488,-3.1729111671447754,0,0,0,40000
861734,1.2170490026474,-3.186842679977417,-28.0,-11.0,4.375776290893555,-3.130673885345459,0,0,0,40000
861744,1.1963086128234863,-3.2072622776031494,-27.0,-30.0,4.594278335571289,-3.042356014251709,0,0,0,40000
861754,1.1717860698699951,-3.2396435737609863,-34.0,-42.0,4.885354995727539,-2.9307093620300293,0,0,0,40000
861764,1.1628496646881104,-3.250359058380127,-16.0,3.0,5.047039985656738,-2.91206693649292,0,0,0,40000
861774,1.1472712755203247,-3.2300310134887695,-31.0,67.0,5.022334098815918,-2.8532490730285645,0,0,0,40000
861784,1.127968430519104,-3.1884257793426514,-42.0,116.0,4.868889808654785,-2.771519660949707,0,0,0,40000
861794,1.0956072807312012,-3.1072118282318115,-51.0,127.0,4.475786209106445,-2.610650062561035,0,0,0,40000
861804,1.075316071510315,-3.04630446434021,-27.0,149.0,4.202488899230957,-2.521406888961792,0,0,0,40000
861814,1.057230830192566,-2.952085018157959,-42.0,139.0,3.726827621459961,-2.444819450378418,0,0,0,40000
861824,1.0356347560882568,-2.9040279388427734,-42.0,90.0,3.526153564453125,-2.346553087234497,0,0,0,40000
861834,0.992626965045929,-2.861149787902832,-51.0,68.0,3.3551979064941406,-2.1188011169433594,0,0,0,40000
861844,0.9675402045249939,-2.823716402053833,-90.0,54.0,3.215780258178711,-1.9976723194122314,0,0,0,40000
861854,0.9204809665679932,-2.787834882736206,-76.0,56.0,3.0845603942871094,-1.7434535026550293,0,0,0,40000
861864,0.8940502405166626,-2.7679827213287354,-49.0,36.0,3.0487022399902344,-1.6119635105133057,0,0,0,40000
861874,0.8716820478439331,-2.7483372688293457,-19.0,58.0,3.0135860443115234,-1.5040416717529297,0,0,0,40000
861884,0.852638304233551,-2.7404375076293945,-46.0,16.0,3.048482894897461,-1.415616750717163,0,0,0,40000
861894,0.8247360587120056,-2.7435176372528076,-52.0,-9.0,3.1491622924804688,-1.2733073234558105,0,0,0,40000
861904,0.8044994473457336,-2.7371551990509033,-44.0,5.0,3.1931724548339844,-1.1762721538543701,0,0,0,40000
861914,0.771665096282959,-2.7464969158172607,-47.0,-7.0,3.331510543823242,-1.0027921199798584,0,0,0,40000
861924,0.7467031478881836,-2.7623047828674316,-40.0,-60.0,3.509016990661621,-0.8757040500640869,0,0,0,40000
861934,0.6984155178070068,-2.8190526962280273,-66.0,-68.0,3.933342933654785,-0.6075515747070312,0,0,0,40000
861944,0.6796715259552002,-2.8484983444213867,-60.0,-71.0,4.195086479187012,-0.5157465934753418,0,0,0,40000
861954,0.6373410820960999,-2.900299549102783,-81.0,-53.0,4.592319488525391,-0.28145313262939453,0,0,0,40000
861964,0.6125749349594116,-2.9016480445861816,-63.0,8.0,4.687472343444824,-0.15154266357421875,0,0,0,40000
861974,0.5752214193344116,-2.8738527297973633,-44.0,60.0,4.6073713302612305,0.05495429039001465,0,0,0,40000
861984,0.5525306463241577,-2.8359904289245605,-18.0,89.0,4.465732574462891,0.1742842197418213,0,0,0,40000
861994,0.5236825346946716,-2.770266056060791,-45.0,91.0,4.1552581787109375,0.3312389850616455,0,0,0,40000
862004,0.5028684735298157,-2.710958480834961,-29.0,174.0,3.881495475769043,0.4407801628112793,0,0,0,40000
862014,0.5015524625778198,-2.5792465209960938,9.0,201.0,3.170225143432617,0.4336564540863037,0,0,0,40000
862024,0.5034748911857605,-2.4923806190490723,21.0,207.0,2.724858283996582,0.4070611000061035,0,0,0,40000
862034,0.5165928602218628,-2.3604564666748047,30.0,183.0,2.005674362182617,0.31307435035705566,0,0,0,40000
862044,0.5247255563735962,-2.2906079292297363,24.0,151.0,1.656111717224121,0.24863505363464355,0,0,0,40000
862054,0.5423374772071838,-2.221550941467285,46.0,81.0,1.3091154098510742,0.12694215774536133,0,0,0,40000
862064,0.5571634769439697,-2.1865439414978027,40.0,68.0,1.165085792541504,0.02146124839782715,0,0,0,40000
862074,0.5844301581382751,-2.1614620685577393,49.0,0.0,1.0795717239379883,-0.15931463241577148,0,0,0,40000
862084,0.6085036396980286,-2.182573080062866,88.0,-66.0,1.2714195251464844,-0.3217146396636963,0,0,0,40000
862094,0.6514610052108765,-2.2373251914978027,41.0,-93.0,1.6663751602172852,-0.5986061096191406,0,0,0,40000
862104,0.677579402923584,-2.3006298542022705,51.0,-136.0,2.114426612854004,-0.7753307819366455,0,0,0,40000
862114,0.7197758555412292,-2.404987335205078,55.0,-170.0,2.811372756958008,-1.049628734588623,0,0,0,40000
862124,0.7413307428359985,-2.487854480743408,54.0,-197.0,3.382218360900879,-1.2009360790252686,0,0,0,40000
862134,0.7715152502059937,-2.6250407695770264,31.0,-212.0,4.282413482666016,-1.4049172401428223,0,0,0,40000
862144,0.7942851781845093,-2.6986451148986816,48.0,-112.0,4.804150581359863,-1.5651030540466309,0,0,0,40000
862154,0.8271828889846802,-2.7491636276245117,40.0,-41.0,5.18927001953125,-1.7868993282318115,0,0,0,40000
862164,0.8461360335350037,-2.7496447563171387,45.0,37.0,5.2746782302856445,-1.9257547855377197,0,0,0,40000
862174,0.8681516051292419,-2.699777841567993,37.0,115.0,5.057292938232422,-2.0836105346679688,0,0,0,40000
862184,0.8782685995101929,-2.626386880874634,22.0,179.0,4.696632385253906,-2.170567035675049,0,0,0,40000
862194,0.8901822566986084,-2.4776036739349365,15.0,249.0,3.8802175521850586,-2.268634796142578,0,0,0,40000
862204,0.9017406702041626,-2.347628593444824,18.0,296.0,3.172393798828125,-2.36490535736084,0,0,0,40000
862214,0.9032977819442749,-2.161494255065918,14.0,258.0,2.122579574584961,-2.4013161659240723,0,0,0,40000
862224,0.9047945737838745,-2.0431227684020996,23.0,253.0,1.4750432968139648,-2.4374139308929443,0,0,0,40000
862234,0.9029172658920288,-1.89823579788208,-9.0,199.0,0.6642723083496094,-2.453336477279663,0,0,0,40000
862244,0.9005256295204163,-1.824711799621582,-44.0,135.0,0.27869224548339844,-2.4660773277282715,0,0,0,40000
862254,0.8799698352813721,-1.7609825134277344,-31.0,89.0,-0.05013847351074219,-2.3693594932556152,0,0,0,40000
862264,0.8490549325942993,-1.7542425394058228,-48.0,-3.0,-0.03791618347167969,-2.2097177505493164,0,0,0,40000
862274,0.8063696026802063,-1.780035376548767,-44.0,-47.0,0.16983795166015625,-1.9782721996307373,0,0,0,40000
862284,0.7813085317611694,-1.8221311569213867,-52.0,-113.0,0.4765052795410156,-1.851663589477539,0,0,0,40000
862294,0.74507737159729,-1.9280436038970947,-78.0,-160.0,1.168452262878418,-1.657184362411499,0,0,0,40000
862304,0.7215939164161682,-2.0107223987579346,-71.0,-181.0,1.7238235473632812,-1.538210153579712,0,0,0,40000
862314,0.6900851726531982,-2.141062021255493,-55.0,-190.0,2.5685033798217773,-1.370154857635498,0,0,0,40000
862324,0.6599971652030945,-2.216571569442749,-45.0,-132.0,3.087177276611328,-1.20975661277771,0,0,0,40000
862334,0.6194329261779785,-2.2747013568878174,-51.0,-53.0,3.5036678314208984,-0.9854509830474854,0,0,0,40000
862344,0.5963094234466553,-2.275513172149658,-65.0,26.0,3.5768327713012695,-0.8649296760559082,0,0,0,40000
862354,0.5550079941749573,-2.225240707397461,-65.0,103.0,3.342754364013672,-0.6342804431915283,0,0,0,40000
862364,0.5258883237838745,-2.171865224838257,-65.0,125.0,3.0882911682128906,-0.4756793975830078,0,0,0,40000
862374,0.48807293176651,-2.0811033248901367,-48.0,141.0,2.6072750091552734,-0.26386022567749023,0,0,0,40000
862384,0.464586079120636,-2.0138585567474365,-43.0,139.0,2.265026092529297,-0.1371450424194336,0,0,0,40000
862394,0.4320896565914154,-1.9432015419006348,-52.0,80.0,1.9000778198242188,0.04445385932922363,0,0,0,40000
862404,0.40203842520713806,-1.913366675376892,-45.0,49.0,1.7788162231445312,0.21234393119812012,0,0,0,40000
862414,0.3919126093387604,-1.9006400108337402,-13.0,-1.0,1.7594671249389648,0.2612767219543457,0,0,0,40000
862424,0.38091742992401123,-1.911003828048706,-23.0,-23.0,1.8788433074951172,0.31569647789001465,0,0,0,40000
862434,0.3684082627296448,-1.9388611316680908,-9.0,-42.0,2.1037521362304688,0.37959790229797363,0,0,0,40000
862444,0.36954885721206665,-1.9567793607711792,-6.0,-35.0,2.2697715759277344,0.36166858673095703,0,0,0,40000
862454,0.3820722997188568,-1.982430338859558,23.0,-25.0,2.482842445373535,0.27527952194213867,0,0,0,40000
862464,0.3924499750137329,-1.9902304410934448,18.0,11.0,2.589268684387207,0.2013862133026123,0,0,0,40000
862474,0.40480345487594604,-1.9893641471862793,47.0,-7.0,2.6437110900878906,0.11539936065673828,0,0,0,40000
862484,0.41378214955329895,-1.9996392726898193,24.0,-19.0,2.7652320861816406,0.04920029640197754,0,0,0,40000
862494,0.4387461543083191,-1.9881980419158936,30.0,31.0,2.7564449310302734,-0.11345911026000977,0,0,0,40000
862504,0.4533211886882782,-1.9742735624313354,20.0,24.0,2.732285499572754,-0.21434426307678223,0,0,0,40000
862514,0.470664918422699,-1.969070315361023,29.0,12.0,2.7601442337036133,-0.3323097229003906,0,0,0,40000
862524,0.48084715008735657,-1.9656211137771606,46.0,27.0,2.79848575592041,-0.4076573848724365,0,0,0,40000
862534,0.4966263473033905,-1.950534701347351,23.0,23.0,2.7665796279907227,-0.5170919895172119,0,0,0,40000
862544,0.5007257461547852,-1.9435298442840576,1.0,32.0,2.782958984375,-0.5566930770874023,0,0,0,40000
862554,0.512126088142395,-1.9225574731826782,11.0,30.0,2.715024948120117,-0.6403095722198486,0,0,0,40000
862564,0.5191782712936401,-1.907588243484497,10.0,11.0,2.6826486587524414,-0.6980931758880615,0,0,0,40000
862574,0.5237859487533569,-1.9083439111709595,0.0,-2.0,2.744405746459961,-0.7413816452026367,0,0,0,40000
862584,0.5223459601402283,-1.9189565181732178,-16.0,-8.0,2.8655128479003906,-0.7484273910522461,0,0,0,40000
862594,0.5097183585166931,-1.9318668842315674,-14.0,-3.0,3.0007944107055664,-0.6881158351898193,0,0,0,40000
862604,0.5068456530570984,-1.9309762716293335,-22.0,15.0,3.0534191131591797,-0.6861250400543213,0,0,0,40000
862614,0.49603620171546936,-1.9052400588989258,-11.0,63.0,2.95656681060791,-0.6362345218658447,0,0,0,40000
862624,0.4780917167663574,-1.8746278285980225,-6.0,103.0,2.829535484313965,-0.5431365966796875,0,0,0,40000
862634,0.4692803919315338,-1.798197627067566,-32.0,128.0,2.425868034362793,-0.5045373439788818,0,0,0,40000
862644,0.46294206380844116,-1.737798810005188,-11.0,135.0,2.1163816452026367,-0.4804646968841553,0,0,0,40000
862654,0.44941943883895874,-1.6471580266952515,-24.0,137.0,1.6230106353759766,-0.41298389434814453,0,0,0,40000
862664,0.4473068118095398,-1.5939923524856567,-9.0,114.0,1.352522850036621,-0.4137430191040039,0,0,0,40000
862674,0.43802061676979065,-1.5586647987365723,-3.0,51.0,1.187601089477539,-0.37123537063598633,0,0,0,40000
862684,0.43038761615753174,-1.5439954996109009,-11.0,21.0,1.1461162567138672,-0.33843159675598145,0,0,0,40000
862694,0.42168503999710083,-1.5378413200378418,-11.0,2.0,1.1553525924682617,-0.29892539978027344,0,0,0,40000
862704,0.4108564257621765,-1.5321632623672485,-17.0,20.0,1.167318344116211,-0.24640464782714844,0,0,0,40000
862714,0.401127427816391,-1.5169075727462769,-11.0,31.0,1.1215267181396484,-0.20016121864318848,0,0,0,40000
862724,0.397995263338089,-1.5022791624069214,-17.0,18.0,1.0789823532104492,-0.19335055351257324,0,0,0,40000
862734,0.3873963952064514,-1.4961246252059937,2.0,7.0,1.0869574546813965,-0.14143610000610352,0,0,0,40000
862744,0.3870450258255005,-1.4920759201049805,5.0,6.0,1.1074562072753906,-0.15091609954833984,0,0,0,40000
862754,0.3877173364162445,-1.489137887954712,9.0,33.0,1.1256012916564941,-0.18274736404418945,0,0,0,40000
862764,0.38981348276138306,-1.4530971050262451,-11.0,77.0,0.962181568145752,-0.19089865684509277,0,0,0,40000
862774,0.389065146446228,-1.4154573678970337,0.0,97.0,0.7705116271972656,-0.19573712348937988,0,0,0,40000
862784,0.3982540965080261,-1.3528919219970703,10.0,118.0,0.4445972442626953,-0.2650914192199707,0,0,0,40000
862794,0.3964773714542389,-1.2982147932052612,8.0,123.0,0.1480112075805664,-0.26395463943481445,0,0,0,40000
862804,0.39664143323898315,-1.2246299982070923,0.0,102.0,-0.2558727264404297,-0.2768576145172119,0,0,0,40000
862814,0.3995377719402313,-1.1886671781539917,14.0,65.0,-0.4355902671813965,-0.30620408058166504,0,0,0,40000
862824,0.4092459976673126,-1.1617449522018433,-2.0,30.0,-0.5620021820068359,-0.37665605545043945,0,0,0,40000
862834,0.4102706015110016,-1.1604276895523071,0.0,-9.0,-0.535123348236084,-0.3950831890106201,0,0,0,40000
862844,0.40949544310569763,-1.1788034439086914,-23.0,-20.0,-0.3897075653076172,-0.40279579162597656,0,0,0,40000
862854,0.39745548367500305,-1.1890040636062622,-24.0,-13.0,-0.2929549217224121,-0.34261298179626465,0,0,0,40000
862864,0.3800080120563507,-1.1993629932403564,-21.0,-21.0,-0.19492769241333008,-0.24952244758605957,0,0,0,40000
862874,0.363561749458313,-1.2201757431030273,-59.0,-42.0,-0.033724308013916016,-0.16196370124816895,0,0,0,40000
862884,0.32956960797309875,-1.247211217880249,-46.0,-31.0,0.1655874252319336,0.03173828125,0,0,0,40000
862894,0.30788588523864746,-1.2657737731933594,-65.0,-11.0,0.31471824645996094,0.15231728553771973,0,0,0,40000
862904,0.26706168055534363,-1.278147578239441,-45.0,-8.0,0.4271841049194336,0.38886070251464844,0,0,0,40000
862914,0.2425624132156372,-1.2858457565307617,-65.0,-25.0,0.5118412971496582,0.5282832384109497,0,0,0,40000
862924,0.2047291398048401,-1.3084356784820557,-61.0,-40.0,0.6863222122192383,0.7486971616744995,0,0,0,40000
862934,0.1814994215965271,-1.3188725709915161,-70.0,-25.0,0.7884273529052734,0.8823459148406982,0,0,0,40000
862944,0.12911519408226013,-1.3312654495239258,-65.0,-17.0,0.9025945663452148,1.192164421081543,0,0,0,40000
862954,0.09800370037555695,-1.3450825214385986,-66.0,-26.0,1.0256757736206055,1.3755042552947998,0,0,0,40000
862964,0.05848469212651253,-1.3735986948013306,-56.0,-45.0,1.237588882446289,1.6104432344436646,0,0,0,40000
862974,0.03389880806207657,-1.4064184427261353,-74.0,-68.0,1.4763002395629883,1.7566438913345337,0,0,0,40000
862984,-0.009475469589233398,-1.4360169172286987,-42.0,-7.0,1.6967272758483887,2.0167369842529297,0,0,0,40000
862994,-0.02841097302734852,-1.4458653926849365,-27.0,-9.0,1.799065113067627,2.1309783458709717,0,0,0,40000
863004,-0.04771581292152405,-1.4444160461425781,-28.0,-6.0,1.833714485168457,2.2479655742645264,0,0,0,40000
863014,-0.06822950392961502,-1.4488152265548706,-30.0,15.0,1.903543472290039,2.3728315830230713,0,0,0,40000
863024,-0.08247904479503632,-1.4306753873825073,-13.0,27.0,1.8378477096557617,2.4606709480285645,0,0,0,40000
863034,-0.09029418975114822,-1.4177381992340088,-11.0,51.0,1.802938461303711,2.510161876678467,0,0,0,40000
863044,-0.0861610695719719,-1.372239589691162,3.0,42.0,1.5715961456298828,2.4880471229553223,0,0,0,40000
863054,-0.07382383942604065,-1.3488881587982178,31.0,89.0,1.4722518920898438,2.416428804397583,0,0,0,40000
863064,-0.05154988542199135,-1.2814805507659912,32.0,95.0,1.1070284843444824,2.28463077545166,0,0,0,40000
863074,-0.045748550444841385,-1.236354947090149,37.0,110.0,0.8739118576049805,2.2512660026550293,0,0,0,40000
863084,-0.01673438586294651,-1.1587328910827637,54.0,101.0,0.4437990188598633,2.078050136566162,0,0,0,40000
863094,0.007634021807461977,-1.1158356666564941,78.0,84.0,0.22041034698486328,1.9319158792495728,0,0,0,40000
863104,0.05733545124530792,-1.0933318138122559,70.0,30.0,0.11831331253051758,1.6325664520263672,0,0,0,40000
863114,0.09296170622110367,-1.0882563591003418,72.0,-22.0,0.12056207656860352,1.4164350032806396,0,0,0,40000
863124,0.14201316237449646,-1.1202744245529175,77.0,-67.0,0.34571361541748047,1.1184587478637695,0,0,0,40000
863134,0.16543185710906982,-1.152082085609436,60.0,-52.0,0.5707621574401855,0.9732592105865479,0,0,0,40000
863144,0.20349344611167908,-1.1931052207946777,44.0,-50.0,0.8522171974182129,0.7391805648803711,0,0,0,40000
863154,0.22464582324028015,-1.211724877357483,46.0,-64.0,1.0000686645507812,0.6057732105255127,0,0,0,40000
863164,0.24921481311321259,-1.2641881704330444,42.0,-62.0,1.3521308898925781,0.4511770009994507,0,0,0,40000
863174,0.26819977164268494,-1.2958163022994995,43.0,-65.0,1.5804080963134766,0.32946348190307617,0,0,0,40000
863184,0.2867668569087982,-1.3343067169189453,27.0,-2.0,1.851058006286621,0.20965349674224854,0,0,0,40000
863194,0.2960122227668762,-1.3364803791046143,33.0,-3.0,1.9041857719421387,0.14540719985961914,0,0,0,40000
863204,0.3044474720954895,-1.3325660228729248,27.0,-13.0,1.9207162857055664,0.08572375774383545,0,0,0,40000
863214,0.30713462829589844,-1.328318476676941,6.0,4.0,1.9351491928100586,0.06041085720062256,0,0,0,40000
863224,0.30360978841781616,-1.3267838954925537,-11.0,12.0,1.965773105621338,0.07237374782562256,0,0,0,40000
863234,0.2897201180458069,-1.322574257850647,-6.0,15.0,1.9802560806274414,0.146875262260437,0,0,0,40000
863244,0.2768586277961731,-1.3033015727996826,-7.0,36.0,1.9039759635925293,0.21559953689575195,0,0,0,40000
863254,0.2608141005039215,-1.297600269317627,-24.0,15.0,1.9087514877319336,0.30383002758026123,0,0,0,40000
863264,0.24817152321338654,-1.2869642972946167,-24.0,37.0,1.8836917877197266,0.3720686435699463,0,0,0,40000
863274,0.24049369990825653,-1.2778825759887695,-19.0,14.0,1.8676786422729492,0.4108494520187378,0,0,0,40000
863284,0.2263067066669464,-1.2702460289001465,-13.0,22.0,1.8600716590881348,0.48903656005859375,0,0,0,40000
863294,0.22141298651695251,-1.2553744316101074,-6.0,34.0,1.8086910247802734,0.5116884708404541,0,0,0,40000
863304,0.2202645093202591,-1.2280776500701904,6.0,64.0,1.6821637153625488,0.5119385719299316,0,0,0,40000
863314,0.22138985991477966,-1.2105118036270142,6.0,12.0,1.6132535934448242,0.4985513687133789,0,0,0,40000
863324,0.23289288580417633,-1.2085729837417603,8.0,3.0,1.6379079818725586,0.4227093458175659,0,0,0,40000
863334,0.24149031937122345,-1.204943060874939,21.0,12.0,1.6523265838623047,0.36399316787719727,0,0,0,40000
863344,0.26982805132865906,-1.1931231021881104,30.0,44.0,1.617441177368164,0.1862170696258545,0,0,0,40000
863354,0.285137802362442,-1.1782556772232056,40.0,47.0,1.563774585723877,0.08599960803985596,0,0,0,40000
863364,0.31900113821029663,-1.1438401937484741,56.0,50.0,1.392045497894287,-0.1263037919998169,0,0,0,40000
863374,0.3452576696872711,-1.1204131841659546,51.0,51.0,1.2853574752807617,-0.2938859462738037,0,0,0,40000
863384,0.38508737087249756,-1.0888551473617554,49.0,59.0,1.129077434539795,-0.5439579486846924,0,0,0,40000
863394,0.406128466129303,-1.068656325340271,56.0,44.0,1.0401897430419922,-0.6821298599243164,0,0,0,40000
863404,0.45059022307395935,-1.0541348457336426,68.0,27.0,0.9848604202270508,-0.9618453979492188,0,0,0,40000
863414,0.47465917468070984,-1.0452585220336914,32.0,15.0,0.9630899429321289,-1.1202372312545776,0,0,0,40000
863424,0.4961777925491333,-1.0553134679794312,26.0,-10.0,1.0548992156982422,-1.264009714126587,0,0,0,40000
863434,0.5092566013336182,-1.050641417503357,31.0,6.0,1.0584840774536133,-1.357600450515747,0,0,0,40000
863444,0.5255686044692993,-1.052135705947876,31.0,2.0,1.098985195159912,-1.4710347652435303,0,0,0,40000
863454,0.5292920470237732,-1.0491060018539429,18.0,9.0,1.1123275756835938,-1.5092309713363647,0,0,0,40000
863464,0.5386314392089844,-1.0451397895812988,2.0,26.0,1.1199979782104492,-1.581350564956665,0,0,0,40000
863474,0.5436923503875732,-1.027649998664856,20.0,36.0,1.046107292175293,-1.6279442310333252,0,0,0,40000
863484,0.547095537185669,-0.9975386261940002,10.0,75.0,0.8957967758178711,-1.664771556854248,0,0,0,40000
863494,0.5410884618759155,-0.9438924789428711,-30.0,127.0,0.6028814315795898,-1.645061731338501,0,0,0,40000
863504,0.5351496338844299,-0.8603761196136475,-13.0,125.0,0.12859678268432617,-1.6255030632019043,0,0,0,40000
863514,0.5238597393035889,-0.8169838190078735,-39.0,90.0,-0.1067509651184082,-1.5736216306686401,0,0,0,40000
863524,0.5004296898841858,-0.7445942759513855,-19.0,80.0,-0.5179433822631836,-1.448244571685791,0,0,0,40000
863534,0.4880531132221222,-0.7110382318496704,-34.0,78.0,-0.6975550651550293,-1.3887736797332764,0,0,0,40000
863544,0.4610864818096161,-0.6767975687980652,-40.0,27.0,-0.8824338912963867,-1.241157054901123,0,0,0,40000
863554,0.4342069923877716,-0.675425112247467,-57.0,9.0,-0.870363712310791,-1.0932461023330688,0,0,0,40000
863564,0.3876023590564728,-0.6756571531295776,-61.0,-15.0,-0.8487968444824219,-0.8258184194564819,0,0,0,40000
863574,0.3532348871231079,-0.6870912313461304,-66.0,-39.0,-0.7597274780273438,-0.6306402683258057,0,0,0,40000
863584,0.30985310673713684,-0.7043002247810364,-62.0,-19.0,-0.6355018615722656,-0.3801701068878174,0,0,0,40000
863594,0.29179081320762634,-0.7316258549690247,-70.0,-71.0,-0.44997692108154297,-0.2807908058166504,0,0,0,40000
863604,0.2583257555961609,-0.7900923490524292,-38.0,-109.0,-0.07630252838134766,-0.08804523944854736,0,0,0,40000
863614,0.23227524757385254,-0.8497644066810608,-37.0,-136.0,0.30648326873779297,0.06098484992980957,0,0,0,40000
863624,0.20375320315361023,-0.9459288716316223,-35.0,-141.0,0.9106554985046387,0.22563457489013672,0,0,0,40000
863634,0.18880784511566162,-1.0066379308700562,-21.0,-103.0,1.3043880462646484,0.3094348907470703,0,0,0,40000
863644,0.17527347803115845,-1.0686503648757935,-32.0,-64.0,1.7078452110290527,0.38518989086151123,0,0,0,40000
863654,0.17556481063365936,-1.0872811079025269,-4.0,-18.0,1.8520607948303223,0.37819337844848633,0,0,0,40000
863664,0.18759627640247345,-1.0737230777740479,41.0,43.0,1.803175449371338,0.30064892768859863,0,0,0,40000
863674,0.19241702556610107,-1.0393435955047607,15.0,93.0,1.628537654876709,0.2659817934036255,0,0,0,40000
863684,0.2097717970609665,-0.9659402966499329,30.0,124.0,1.218064308166504,0.15578556060791016,0,0,0,40000
863694,0.21802526712417603,-0.9099063873291016,12.0,131.0,0.909825325012207,0.0997992753982544,0,0,0,40000
863704,0.23488344252109528,-0.8179134130477905,15.0,138.0,0.38347768783569336,-0.008231759071350098,0,0,0,40000
863714,0.25792574882507324,-0.7654691934585571,36.0,106.0,0.09239578247070312,-0.15396428108215332,0,0,0,40000
863724,0.305626779794693,-0.7007449269294739,84.0,87.0,-0.2741403579711914,-0.4486110210418701,0,0,0,40000
863734,0.33367735147476196,-0.6630752086639404,40.0,93.0,-0.479827880859375,-0.6266077756881714,0,0,0,40000
863744,0.36383944749832153,-0.6196160912513733,63.0,66.0,-0.7215061187744141,-0.8180557489395142,0,0,0,40000
863754,0.37627530097961426,-0.6056180000305176,22.0,14.0,-0.787175178527832,-0.9038362503051758,0,0,0,40000
863764,0.388965904712677,-0.603039562702179,7.0,7.0,-0.7845373153686523,-0.9915568828582764,0,0,0,40000
863774,0.40063756704330444,-0.6200882196426392,19.0,-40.0,-0.663898229598999,-1.0734741687774658,0,0,0,40000
863784,0.4062635898590088,-0.6684518456459045,12.0,-81.0,-0.35434627532958984,-1.1193208694458008,0,0,0,40000
863794,0.4106372594833374,-0.7113497853279114,30.0,-114.0,-0.07614707946777344,-1.1577918529510498,0,0,0,40000
863804,0.42019057273864746,-0.8033813238143921,35.0,-133.0,0.49901247024536133,-1.2275885343551636,0,0,0,40000
863814,0.4246005713939667,-0.8666303157806396,16.0,-94.0,0.9037861824035645,-1.266793966293335,0,0,0,40000
863824,0.4360174834728241,-0.9272088408470154,-9.0,-103.0,1.2942414283752441,-1.3483467102050781,0,0,0,40000
863834,0.44685009121894836,-0.9544661641120911,14.0,-22.0,1.48614501953125,-1.4266307353973389,0,0,0,40000
863844,0.4558470547199249,-0.9321290254592896,16.0,61.0,1.3804664611816406,-1.4941763877868652,0,0,0,40000
863854,0.4572640657424927,-0.895413875579834,10.0,106.0,1.187514305114746,-1.5163671970367432,0,0,0,40000
863864,0.45967212319374084,-0.8369426131248474,15.0,93.0,0.862480640411377,-1.544538140296936,0,0,0,40000
863874,0.4563713073730469,-0.8056798577308655,6.0,72.0,0.6994500160217285,-1.5384618043899536,0,0,0,40000
863884,0.45945748686790466,-0.7847535610198975,-2.0,22.0,0.5975632667541504,-1.5707781314849854,0,0,0,40000
863894,0.4656476080417633,-0.7774215340614319,-6.0,26.0,0.5769810676574707,-1.6218180656433105,0,0,0,40000
863904,0.46101507544517517,-0.7709149122238159,-4.0,7.0,0.5610442161560059,-1.6079211235046387,0,0,0,40000
863914,0.4655304551124573,-0.7513906955718994,19.0,70.0,0.4667215347290039,-1.6488664150238037,0,0,0,40000
863924,0.47608715295791626,-0.695733904838562,18.0,85.0,0.15429258346557617,-1.7263176441192627,0,0,0,40000
863934,0.4806523621082306,-0.6555138826370239,12.0,110.0,-0.06686782836914062,-1.7680623531341553,0,0,0,40000
863944,0.47504815459251404,-0.5932031869888306,-7.0,101.0,-0.42217111587524414,-1.7487611770629883,0,0,0,40000
863954,0.47361335158348083,-0.5537883639335632,-5.0,73.0,-0.6415848731994629,-1.7543795108795166,0,0,0,40000
863964,0.4801211953163147,-0.5148857831954956,7.0,42.0,-0.8591794967651367,-1.8077518939971924,0,0,0,40000
863974,0.482069730758667,-0.5221545696258545,-2.0,-46.0,-0.8000500202178955,-1.833906650543213,0,0,0,40000
863984,0.49458572268486023,-0.5660635828971863,17.0,-63.0,-0.5201525688171387,-1.9236994981765747,0,0,0,40000
863994,0.49754956364631653,-0.596979558467865,13.0,-59.0,-0.31710124015808105,-1.956352710723877,0,0,0,40000
864004,0.5155256390571594,-0.6526084542274475,28.0,-77.0,0.035559654235839844,-2.079422950744629,0,0,0,40000
864014,0.5253490805625916,-0.6860104203224182,38.0,-42.0,0.2561614513397217,-2.1539816856384277,0,0,0,40000
864024,0.5452725887298584,-0.7155289053916931,27.0,-27.0,0.45443248748779297,-2.289639949798584,0,0,0,40000
864034,0.557132363319397,-0.7232155203819275,21.0,-25.0,0.5221397876739502,-2.377370834350586,0,0,0,40000
864044,0.5708453059196472,-0.7360848188400269,20.0,-13.0,0.6212882995605469,-2.4765939712524414,0,0,0,40000
864054,0.5755583047866821,-0.7480323314666748,30.0,-16.0,0.715275764465332,-2.5220656394958496,0,0,0,40000
864064,0.5922911167144775,-0.77546626329422,14.0,-38.0,0.9027576446533203,-2.640089511871338,0,0,0,40000
864074,0.6000033617019653,-0.7933173179626465,8.0,-75.0,1.0334208011627197,-2.704275131225586,0,0,0,40000
864084,0.6050650477409363,-0.8354712724685669,9.0,-36.0,1.3110270500183105,-2.752714157104492,0,0,0,40000
864094,0.6153399348258972,-0.8528683185577393,44.0,7.0,1.440805435180664,-2.8326735496520996,0,0,0,40000
864104,0.6392615437507629,-0.8440331816673279,2.0,35.0,1.4133286476135254,-2.9952046871185303,0,0,0,40000
864114,0.6394569277763367,-0.8150221109390259,-4.0,93.0,1.2641031742095947,-3.0155656337738037,0,0,0,40000
864124,0.6387044787406921,-0.7339733839035034,2.0,132.0,0.8009216785430908,-3.030193328857422,0,0,0,40000
864134,0.6335558891296387,-0.6609603762626648,-22.0,183.0,0.3835883140563965,-3.0183768272399902,0,0,0,40000
864144,0.6221153140068054,-0.5140581130981445,-8.0,235.0,-0.4804987907409668,-2.9685091972351074,0,0,0,40000
864154,0.6149994134902954,-0.40805548429489136,-16.0,240.0,-1.1030056476593018,-2.944354295730591,0,0,0,40000
864164,0.5965580940246582,-0.2509101629257202,-39.0,225.0,-2.036494016647339,-2.85190486907959,0,0,0,40000
864174,0.5827711224555969,-0.16350330412387848,-42.0,186.0,-2.5550084114074707,-2.786851406097412,0,0,0,40000
864184,0.5544028878211975,-0.07604075968265533,-57.0,94.0,-3.076674699783325,-2.633667469024658,0,0,0,40000
864194,0.5351149439811707,-0.04671169072389603,-36.0,20.0,-3.2509517669677734,-2.534191370010376,0,0,0,40000
864204,0.4950628876686096,-0.06034797057509422,-60.0,-46.0,-3.167654275894165,-2.3092498779296875,0,0,0,40000
864214,0.48053035140037537,-0.10153762996196747,-49.0,-143.0,-2.918027877807617,-2.2366514205932617,0,0,0,40000
864224,0.449765682220459,-0.23670341074466705,-52.0,-215.0,-2.1017441749572754,-2.0659520626068115,0,0,0,40000
864234,0.4330698847770691,-0.3438853621482849,-36.0,-251.0,-1.449632167816162,-1.9789419174194336,0,0,0,40000
864244,0.41190555691719055,-0.5011588335037231,-13.0,-207.0,-0.4927940368652344,-1.864438772201538,0,0,0,40000
864254,0.3985324203968048,-0.5882325768470764,-18.0,-180.0,0.046285390853881836,-1.7963230609893799,0,0,0,40000
864264,0.3673935830593109,-0.6992781162261963,-58.0,-153.0,0.7322044372558594,-1.6209909915924072,0,0,0,40000
864274,0.34288880228996277,-0.7582384943962097,-39.0,-90.0,1.1080808639526367,-1.4845240116119385,0,0,0,40000
864284,0.3155704438686371,-0.7822424173355103,-46.0,-11.0,1.275397777557373,-1.3304153680801392,0,0,0,40000
864294,0.2909444272518158,-0.7679035067558289,-36.0,77.0,1.2126412391662598,-1.1916624307632446,0,0,0,40000
864304,0.2571488618850708,-0.7080379724502563,-49.0,106.0,0.8754549026489258,-0.9970589876174927,0,0,0,40000
864314,0.24783450365066528,-0.6433709263801575,-22.0,164.0,0.507575273513794,-0.9486936330795288,19.99999994048117,0.0015429689550340636,0,40000
864324,0.22999873757362366,-0.5348955392837524,-50.0,170.0,-0.13520312309265137,119.51107788085938,19.989641101526175,0.64362149760198,0,40000
864334,0.2210514396429062,-0.4669433534145355,-6.0,158.0,-4.396024703979492,120.09563446044922,19.95881570279709,1.282838938362987,0,40000
864344,0.2438671886920929,-0.3812030851840973,70.0,119.0,-8.764142990112305,120.36607360839844,19.90067890011806,1.9907233143749123,0,40000
864354,0.29608574509620667,-0.32464006543159485,162.0,103.0,-13.391672134399414,120.2934341430664,19.90067890011806,1.9907233143749123,0,40000
864364,0.4677791893482208,-0.27893662452697754,296.0,41.0,-17.61794662475586,119.39387512207031,19.825046730854737,2.6396064326762585,0,40000
864374,0.6628855466842651,-0.2795363962650299,471.0,-8.0,-21.641202926635742,118.20669555664062,19.60987686258395,3.9309959850265215,0,40000
864384,1.0793968439102173,-0.3176678717136383,703.0,-51.0,-25.30636215209961,115.57353973388672,19.60987686258395,3.9309959850265215,0,40000
864394,1.4427162408828735,-0.36489537358283997,923.0,-100.0,-28.903011322021484,113.12372589111328,19.473578334451826,4.558480761390626,0,40000
864404,2.146228551864624,-0.46400585770606995,1105.0,-149.0,-32.166175842285156,108.49400329589844,19.317672335742213,5.179530435174598,0,40000
864414,2.7144405841827393,-0.5672017335891724,1301.0,-284.0,-35.39762496948242,104.53057861328125,19.14150509128833,5.796790736276661,0,40000
864424,3.711561441421509,-0.811453640460968,1535.0,-410.0,-37.75450897216797,97.84742736816406,18.9459270963896,6.407171486568023,0,40000
864434,4.468912124633789,-1.0443397760391235,1749.0,-578.0,-40.1568489074707,92.45189666748047,18.73052853850662,7.011939864844044,0,40000
864444,5.736883163452148,-1.4930224418640137,1933.0,-700.0,-41.248779296875,83.83015441894531,18.494434202371586,7.612877480568572,0,40000
864454,6.6486735343933105,-1.8377821445465088,2062.0,-781.0,-42.894195556640625,77.20333862304688,18.240939740379904,8.201714295671916,0,40000
864464,8.105559349060059,-2.407371759414673,2167.0,-883.0,-43.14708709716797,67.14697265625,17.968407231967337,8.782729732047086,0,40000
864474,9.111861228942871,-2.805598258972168,2214.0,-906.0,-44.382293701171875,59.63623046875,17.67691840856942,9.355562814538711,0,40000
864484,10.66045093536377,-3.400986671447754,2210.0,-919.0,-44.372215270996094,48.716773986816406,17.367738190599336,9.91774521465425,0,40000
864494,11.696640968322754,-3.791652202606201,2232.0,-889.0,-45.52516174316406,40.7220344543457,17.041366985010843,10.468610761805145,0,40000
864504,13.231842041015625,-4.359352111816406,2183.0,-882.0,-45.57606506347656,29.563199996948242,16.69499773994423,11.012586002536239,0,40000
864514,14.206169128417969,-4.715088844299316,2064.0,-834.0,-46.839874267578125,21.614280700683594,16.330483719870394,11.546224555024384,0,40000
864524,15.608235359191895,-5.183964729309082,1961.0,-713.0,-44.22283935546875,13.240163803100586,15.947373225685626,12.069850338785699,0,40000
864534,16.484357833862305,-5.466962814331055,1799.0,-686.0,-45.868045806884766,5.679059028625488,15.547866154021477,12.580296421652132,0,40000
864544,17.300010681152344,-5.725362300872803,1663.0,-632.0,-47.546356201171875,-1.6491317749023438,15.134985339907407,13.074104893291468,0,40000
864554,18.375986099243164,-6.097938060760498,1428.0,-608.0,-48.48456954956055,-10.664624214172363,14.70906715627985,13.551507052429606,0,40000
864564,19.2725830078125,-6.442447185516357,1162.0,-601.0,-49.541175842285156,-18.745834350585938,14.262175374221862,14.021068204489255,0,40000
864574,19.76707649230957,-6.7072062492370605,969.0,-678.0,-50.94880676269531,-24.520462036132812,13.804388308890662,14.472002743827918,0,40000
864584,20.18559455871582,-6.996264457702637,675.0,-753.0,-52.14513397216797,-29.96213722229004,13.331167615788127,14.909056643522485,0,40000
864594,20.626760482788086,-7.482384204864502,466.0,-833.0,-52.07703399658203,-35.65963363647461,12.83951216218777,15.334501212528316,0,40000
864604,20.802186965942383,-7.857723236083984,234.0,-932.0,-52.60138702392578,-39.893089294433594,12.339475584390343,15.739674148540516,0,40000
864614,20.908416748046875,-8.48072624206543,-15.0,-1030.0,-51.51504135131836,-43.78107452392578,11.82133327774654,16.132454231654968,0,40000
864624,20.8677978515625,-8.943724632263184,-262.0,-1097.0,-51.31026077270508,-46.91199493408203,11.289089883527462,16.509283739812513,0,40000
864634,20.645015716552734,-9.690847396850586,-484.0,-1167.0,-49.29777526855469,-49.04625701904297,10.747686504811318,16.86674938434483,0,40000
864644,20.396015167236328,-10.222867965698242,-700.0,-1188.0,-48.44975280761719,-51.08351135253906,10.202009824453928,17.202296228752296,0,40000
864654,19.89662742614746,-11.02267837524414,-860.0,-1172.0,-45.85523223876953,-51.65192794799805,9.642625522165906,17.521979712329163,0,40000
864664,19.486783981323242,-11.556723594665527,-993.0,-1120.0,-44.750587463378906,-52.842750549316406,9.07504994239947,17.822555050916673,0,40000
864674,18.766904830932617,-12.32253646850586,-1129.0,-1033.0,-42.12954330444336,-52.221824645996094,8.498129560031925,18.10474506810056,0,40000
864684,18.208271026611328,-12.813824653625488,-1236.0,-964.0,-41.03448486328125,-52.6192626953125,7.910630047848227,18.369048212851986,0,40000
864694,17.315134048461914,-13.48085880279541,-1326.0,-852.0,-38.76776123046875,-51.06795883178711,7.318575782343345,18.612857075637194,0,40000
864704,16.680709838867188,-13.88911247253418,-1417.0,-789.0,-37.92330551147461,-51.09162902832031,6.716254949260386,18.83857530325835,0,40000
864714,15.676339149475098,-14.466175079345703,-1449.0,-694.0,-35.949073791503906,-48.949378967285156,6.109540522372747,19.04398893628867,0,40000
864724,14.978760719299316,-14.812837600708008,-1441.0,-607.0,-35.22895050048828,-48.667694091796875,5.492526193202893,19.231020670182332,0,40000
864734,13.916142463684082,-15.277767181396484,-1450.0,-553.0,-33.68221664428711,-46.248416900634766,4.870152632528341,19.397979619946952,0,40000
