timestamp,stabilizer.roll,stabilizer.pitch,stateEstimateZ.rateRoll,stateEstimateZ.ratePitch,controller.pitchRate,controller.rollRate,roll,pitch,yawdot,thrust
712522,-39.762821197509766,63.80970001220703,1.0,4.0,-1533.34716796875,239.769775390625,0,0,0,40000
712532,-39.7828483581543,63.79841995239258,-14.0,-10.0,-1534.9906005859375,241.0830841064453,0,0,0,40000
712542,-39.8167839050293,63.78321838378906,-3.0,-30.0,-1536.539306640625,242.4807891845703,0,0,0,40000
712552,-39.830013275146484,63.710811614990234,-12.0,-81.0,-1536.7138671875,243.75491333007812,0,0,0,40000
712562,-39.8007698059082,63.62507629394531,-24.0,-221.0,-1536.5660400390625,244.77378845214844,0,0,0,40000
712572,-39.51353454589844,63.35084915161133,-17.0,-578.0,-1531.8890380859375,244.24002075195312,0,0,0,40000
712582,-39.1647834777832,63.0766716003418,-45.0,-833.0,-1527.2044677734375,243.3268280029297,0,0,0,40000
712592,-38.24445724487305,62.43064880371094,32.0,-1384.0,-1513.58154296875,238.96478271484375,0,0,0,40000
712602,-37.34668731689453,61.80097961425781,65.0,-1946.0,-1500.331298828125,234.7097625732422,0,0,0,40000
712612,-35.55535888671875,60.50147247314453,18.0,-2656.0,-1470.97509765625,225.0511932373047,0,0,0,40000
712622,-34.077476501464844,59.353057861328125,32.0,-3421.0,-1445.207763671875,217.22418212890625,0,0,0,40000
712632,-31.55204963684082,57.14391326904297,105.0,-4272.0,-1393.9307861328125,203.04937744140625,0,0,0,40000
712642,-29.69659996032715,55.303897857666016,180.0,-5181.0,-1351.4521484375,192.830078125,0,0,0,40000
712652,-26.808813095092773,51.91057586669922,272.0,-6105.0,-1271.6124267578125,176.3424530029297,0,0,0,40000
712662,-24.89017105102539,49.220069885253906,342.0,-7113.0,-1208.5498046875,165.6002960205078,0,0,0,40000
712672,-22.087894439697266,44.4747428894043,418.0,-8165.0,-1096.055419921875,149.4824676513672,0,0,0,40000
712682,-20.31223487854004,40.815792083740234,581.0,-9235.0,-1009.5095825195312,139.45904541015625,0,0,0,40000
712692,-17.81744956970215,34.542232513427734,843.0,-10295.0,-860.0581665039062,125.0543212890625,0,0,0,40000
712702,-16.271804809570312,29.839326858520508,1124.0,-11415.0,-748.1407470703125,116.28707885742188,0,0,0,40000
712712,-14.105002403259277,22.022369384765625,1427.0,-12393.0,-561.2904052734375,103.73487854003906,0,0,0,40000
712722,-12.757729530334473,16.354705810546875,1823.0,-13221.0,-425.82562255859375,96.05000305175781,0,0,0,40000
712732,-10.83062744140625,7.3718485832214355,2234.0,-13683.0,-210.5671844482422,84.83502960205078,0,0,0,40000
712742,-9.591474533081055,1.2121003866195679,2602.0,-13811.0,-62.843650817871094,77.70274353027344,0,0,0,40000
712752,-7.7687668800354,-8.092548370361328,2882.0,-13714.0,160.59909057617188,67.02155303955078,0,0,0,40000
712762,-6.545287609100342,-14.213778495788574,3028.0,-13275.0,307.8617858886719,59.891807556152344,0,0,0,40000
712772,-4.607746124267578,-23.06692123413086,2981.0,-12706.0,520.9241333007812,48.428253173828125,0,0,0,40000
712782,-3.2273974418640137,-28.667694091796875,2854.0,-11920.0,656.135986328125,40.25963592529297,0,0,0,40000
712792,-0.9391799569129944,-36.43403244018555,2700.0,-10929.0,843.5300903320312,26.586984634399414,0,0,0,40000
712802,0.8017096519470215,-41.1328239440918,2488.0,-9851.0,957.4793090820312,16.138771057128906,0,0,0,40000
712812,3.770212173461914,-47.37360382080078,2136.0,-8734.0,1108.6070556640625,-1.7484874725341797,0,0,0,40000
712822,6.046140193939209,-50.94303512573242,1858.0,-7500.0,1195.7596435546875,-15.557823181152344,0,0,0,40000
712832,9.857998847961426,-55.31342315673828,1610.0,-6242.0,1302.259033203125,-38.677677154541016,0,0,0,40000
712842,12.591288566589355,-57.57500457763672,1411.0,-4918.0,1358.2379150390625,-55.422027587890625,0,0,0,40000
712852,16.798919677734375,-59.933162689208984,1167.0,-3564.0,1416.6065673828125,-81.12152099609375,0,0,0,40000
712862,19.46906280517578,-60.84225845336914,950.0,-2186.0,1440.2401123046875,-97.69481658935547,0,0,0,40000
712872,22.920413970947266,-61.245853424072266,852.0,-803.0,1451.7618408203125,-119.05143737792969,0,0,0,40000
712882,24.679744720458984,-60.91569900512695,763.0,550.0,1445.6702880859375,-130.32745361328125,0,0,0,40000
712892,26.33475685119629,-59.550777435302734,641.0,1949.0,1414.7176513671875,-141.03077697753906,0,0,0,40000
712902,26.816781997680664,-58.10257339477539,592.0,3308.0,1381.721923828125,-144.72235107421875,0,0,0,40000
712912,26.723176956176758,-55.10709762573242,593.0,4706.0,1311.522216796875,-144.96583557128906,0,0,0,40000
712922,26.22759246826172,-52.555484771728516,579.0,6130.0,1251.8914794921875,-142.78555297851562,0,0,0,40000
712932,25.080116271972656,-47.873897552490234,517.0,7560.0,1141.0284423828125,-136.66795349121094,0,0,0,40000
712942,24.175575256347656,-44.1754035949707,482.0,8979.0,1053.635009765625,-131.97695922851562,0,0,0,40000
712952,22.740880966186523,-37.71747970581055,460.0,10433.0,899.8567504882812,-124.0682373046875,0,0,0,40000
712962,21.79393196105957,-32.78507614135742,371.0,11873.0,782.5225219726562,-119.0516357421875,0,0,0,40000
712972,20.50592803955078,-24.50638198852539,201.0,13244.0,584.6713256835938,-111.95370483398438,0,0,0,40000
712982,19.77472496032715,-18.415714263916016,12.0,14431.0,439.1214599609375,-108.1683120727539,0,0,0,40000
712992,18.90766143798828,-8.628793716430664,-271.0,15287.0,204.6134796142578,-103.54273986816406,0,0,0,40000
713002,18.511859893798828,-1.7920352220535278,-597.0,15806.0,40.66734313964844,-101.72789001464844,0,0,0,40000
713012,18.174964904785156,8.719273567199707,-884.0,16092.0,-211.73898315429688,-100.25494384765625,0,0,0,40000
713022,18.167221069335938,15.821269035339355,-1092.0,16173.0,-382.5762023925781,-100.75331115722656,0,0,0,40000
713032,18.463266372680664,26.427709579467773,-1308.0,15981.0,-637.7966918945312,-103.07881164550781,0,0,0,40000
713042,18.924848556518555,33.39521026611328,-1395.0,15665.0,-805.9351196289062,-106.41014099121094,0,0,0,40000
713052,20.12594223022461,43.574951171875,-1464.0,15144.0,-1051.4351806640625,-114.20428466796875,0,0,0,40000
713062,21.35885238647461,50.081539154052734,-1362.0,14481.0,-1209.0179443359375,-122.22692108154297,0,0,0,40000
713072,24.287931442260742,59.33594512939453,-1250.0,13741.0,-1432.794677734375,-140.49081420898438,0,0,0,40000
713082,27.358203887939453,65.08462524414062,-1132.0,12910.0,-1572.64697265625,-159.6945343017578,0,0,0,40000
713092,35.44498062133789,72.84772491455078,-968.0,11993.0,-1761.0570068359375,-209.1661834716797,0,0,0,40000
713102,45.690982818603516,77.21296691894531,-795.0,11072.0,-1868.087890625,-271.880859375,0,0,0,40000
713112,80.13130950927734,81.46479797363281,-638.0,10100.0,-1972.53466796875,-480.4294128417969,0,0,0,40000
713122,116.88851928710938,81.73370361328125,-507.0,9099.0,-1981.440673828125,-704.0374755859375,0,0,0,40000
713132,152.0277557373047,78.94000244140625,-402.0,8055.0,-1916.7999267578125,-919.0972290039062,0,0,0,40000
713142,162.6033935546875,76.35921478271484,-314.0,7022.0,-1857.182861328125,-987.311279296875,0,0,0,40000
713152,171.13034057617188,72.57412719726562,-291.0,5969.0,-1768.5625,-1043.51953125,0,0,0,40000
713162,174.54733276367188,70.33623504638672,-285.0,4890.0,-1716.9896240234375,-1069.2186279296875,0,0,0,40000
713172,178.08340454101562,67.60266876220703,-306.0,3765.0,-1653.44287109375,-1095.7388916015625,0,0,0,40000
713182,179.82769775390625,66.22881317138672,-365.0,2638.0,-1622.4730224609375,-1111.5789794921875,0,0,0,40000
713192,-178.08477783203125,64.92074584960938,-443.0,1460.0,-1593.040283203125,1041.2620849609375,0,0,0,40000
713202,-176.9109344482422,64.56531524658203,-525.0,251.0,-1586.45068359375,1039.540283203125,0,0,0,40000
713212,-175.2231903076172,64.8263168334961,-560.0,-976.0,-1594.6536865234375,1034.6907958984375,0,0,0,40000
713222,-174.0261688232422,65.54386901855469,-635.0,-2231.0,-1613.83203125,1032.7440185546875,0,0,0,40000
713232,-171.94398498535156,67.45067596435547,-663.0,-3519.0,-1661.59326171875,1025.435791015625,0,0,0,40000
713242,-170.09759521484375,69.25015258789062,-702.0,-4770.0,-1706.8360595703125,1019.4830932617188,0,0,0,40000
713252,-165.94908142089844,72.71171569824219,-738.0,-6048.0,-1792.0511474609375,999.6262817382812,0,0,0,40000
713262,-161.2992401123047,75.43612670898438,-752.0,-7172.0,-1859.21435546875,975.65771484375,0,0,0,40000
713272,-146.73837280273438,79.75707244873047,-762.0,-8493.0,-1965.7108154296875,893.8756713867188,0,0,0,40000
713282,-122.52079010009766,82.05648803710938,-801.0,-9558.0,-2022.84033203125,751.8305053710938,0,0,0,40000
713292,-59.0646858215332,81.536376953125,-876.0,-10860.0,-2013.3194580078125,374.3521423339844,0,0,0,40000
713302,-36.3463249206543,78.05144500732422,-942.0,-11895.0,-1931.5987548828125,239.15890502929688,0,0,0,40000
713312,-22.736862182617188,70.51869201660156,-979.0,-13110.0,-1752.4486083984375,158.5303955078125,0,0,0,40000
713322,-18.50767707824707,64.61995697021484,-1049.0,-14086.0,-1610.87890625,133.6470184326172,0,0,0,40000
713332,-14.941704750061035,54.841041564941406,-1132.0,-15273.0,-1376.18505859375,112.84703826904297,0,0,0,40000
713342,-13.534193992614746,47.7722282409668,-1184.0,-16206.0,-1206.533447265625,104.74282836914062,0,0,0,40000
713352,-12.269399642944336,36.44252014160156,-1212.0,-17258.0,-934.6204833984375,97.6163101196289,0,0,0,40000
713362,-11.839030265808105,28.5194091796875,-1270.0,-17921.0,-744.4658203125,95.32296752929688,0,0,0,40000
713372,-11.646697044372559,16.252365112304688,-1222.0,-18448.0,-450.0567626953125,94.59031677246094,0,0,0,40000
713382,-11.771808624267578,7.959033012390137,-1082.0,-18610.0,-251.01678466796875,95.6217041015625,0,0,0,40000
713392,-12.356274604797363,-4.417162895202637,-889.0,-18469.0,46.042213439941406,99.56169891357422,0,0,0,40000
713402,-13.008106231689453,-12.525144577026367,-696.0,-18210.0,240.83729553222656,103.7767333984375,0,0,0,40000
713412,-14.461825370788574,-24.353931427001953,-477.0,-17672.0,525.3933715820312,112.99179077148438,0,0,0,40000
713422,-15.833664894104004,-31.926313400268555,-310.0,-17096.0,707.8062744140625,121.58584594726562,0,0,0,40000
713432,-18.722230911254883,-42.692684173583984,-177.0,-16276.0,967.5443115234375,139.53599548339844,0,0,0,40000
713442,-21.406970977783203,-49.395416259765625,15.0,-15509.0,1129.515625,156.12481689453125,0,0,0,40000
713452,-27.340164184570312,-58.618980407714844,108.0,-14549.0,1352.828369140625,192.5940399169922,0,0,0,40000
713462,-33.32133483886719,-64.05477142333984,163.0,-13679.0,1484.7603759765625,229.20603942871094,0,0,0,40000
713472,-41.86277770996094,-68.75990295410156,120.0,-12680.0,1599.691162109375,281.60345458984375,0,0,0,40000
713482,-61.89326477050781,-73.83201599121094,93.0,-11606.0,1723.58349609375,403.3761901855469,0,0,0,40000
713492,-80.22444915771484,-75.44503021240234,17.0,-10533.0,1764.542236328125,515.545654296875,0,0,0,40000
713502,-107.85980224609375,-75.00988006591797,74.0,-9399.0,1756.3623046875,684.2774047851562,0,0,0,40000
713512,-121.5023422241211,-73.38130950927734,78.0,-8265.0,1719.4986572265625,769.6207275390625,0,0,0,40000
713522,-134.5633544921875,-70.17493438720703,70.0,-7128.0,1644.6905517578125,851.8865356445312,0,0,0,40000
713532,-139.87384033203125,-67.9808578491211,98.0,-5957.0,1594.0982666015625,887.8851318359375,0,0,0,40000
713542,-144.7801971435547,-65.03894805908203,200.0,-4745.0,1525.4775390625,921.6156005859375,0,0,0,40000
713552,-146.7221221923828,-63.41288375854492,245.0,-3551.0,1488.373291015625,937.6467895507812,0,0,0,40000
713562,-148.20933532714844,-61.60053253173828,260.0,-2290.0,1446.7445068359375,949.2559814453125,0,0,0,40000
713572,-148.45628356933594,-60.84929656982422,336.0,-1039.0,1430.5487060546875,950.7376708984375,0,0,0,40000
713582,-147.87347412109375,-60.41518020629883,501.0,208.0,1421.9453125,947.2408447265625,0,0,0,40000
713592,-146.82040405273438,-60.57196807861328,496.0,1513.0,1427.523193359375,940.9224243164062,0,0,0,40000
713602,-144.19517517089844,-61.4876594543457,548.0,2799.0,1451.3311767578125,925.1710205078125,0,0,0,40000
713612,-141.54539489746094,-62.499656677246094,585.0,4080.0,1477.4813232421875,909.2723388671875,0,0,0,40000
713622,-135.79830932617188,-64.52149963378906,616.0,5419.0,1527.9156494140625,874.7898559570312,0,0,0,40000
713632,-130.34317016601562,-66.06906127929688,524.0,6746.0,1567.0205078125,842.0590209960938,0,0,0,40000
713642,-118.73021697998047,-68.32791137695312,500.0,8074.0,1623.2564697265625,772.3812866210938,0,0,0,40000
713652,-108.18766784667969,-69.4533462524414,402.0,9462.0,1652.3377685546875,709.1259765625,0,0,0,40000
713662,-88.4981918334961,-69.7176513671875,311.0,10780.0,1660.775390625,590.9891357421875,0,0,0,40000
713672,-74.54339599609375,-68.48428344726562,215.0,12158.0,1633.2457275390625,507.2603759765625,0,0,0,40000
713682,-56.32596969604492,-64.21085357666016,54.0,13544.0,1532.668701171875,397.955810546875,0,0,0,40000
713692,-47.0263557434082,-59.87129211425781,-55.0,14899.0,1430.3690185546875,342.15814208984375,0,0,0,40000
713702,-37.02273178100586,-51.545345306396484,-168.0,16392.0,1232.1978759765625,282.1363830566406,0,0,0,40000
713712,-32.34318542480469,-44.9616584777832,-223.0,17810.0,1075.6185302734375,254.05911254882812,0,0,0,40000
713722,-27.490676879882812,-33.83929443359375,-255.0,19070.0,809.8339233398438,224.94406127929688,0,0,0,40000
713732,-25.344877243041992,-25.73562240600586,-151.0,20209.0,616.2158203125,212.0692596435547,0,0,0,40000
713742,-23.370458602905273,-12.81924819946289,-14.0,21046.0,306.7646179199219,200.22274780273438,0,0,0,40000
713752,-22.760860443115234,-3.8582568168640137,169.0,21655.0,91.92452239990234,196.56515502929688,0,0,0,40000
713762,-22.86962127685547,9.921257019042969,357.0,21995.0,-238.91537475585938,197.2177276611328,0,0,0,40000
713772,-23.68668556213379,19.213109970092773,533.0,22232.0,-462.38470458984375,202.1201171875,0,0,0,40000
713782,-26.443510055541992,33.0585823059082,646.0,22255.0,-795.5025024414062,218.6610565185547,0,0,0,40000
713792,-29.767257690429688,42.04307174682617,652.0,22171.0,-1012.2840576171875,238.60354614257812,0,0,0,40000
713802,-38.78585433959961,54.65243911743164,570.0,21840.0,-1316.4012451171875,292.7151184082031,0,0,0,40000
713812,-49.603248596191406,61.89336395263672,431.0,21466.0,-1491.955322265625,357.6195068359375,0,0,0,40000
713822,-78.56136322021484,68.73967742919922,239.0,21004.0,-1658.2642822265625,531.3681640625,0,0,0,40000
713832,-103.7862319946289,68.80928039550781,52.0,20336.0,-1662.00439453125,682.7174072265625,0,0,0,40000
713842,-131.96487426757812,62.604732513427734,-32.0,19608.0,-1515.0628662109375,851.7892456054688,0,0,0,40000
713852,-142.4622802734375,56.3227653503418,-107.0,18736.0,-1366.06201171875,914.773681640625,0,0,0,40000
713862,-151.2516326904297,45.982582092285156,-57.0,17720.0,-1119.4024658203125,967.509765625,0,0,0,40000
713872,-154.59288024902344,39.02220916748047,66.0,16654.0,-953.6075439453125,987.5572509765625,0,0,0,40000
713882,-157.54212951660156,28.95619010925293,206.0,15528.0,-713.0110473632812,1005.2528076171875,0,0,0,40000
713892,-158.63510131835938,22.63087272644043,391.0,14315.0,-561.9577026367188,1011.8106079101562,0,0,0,40000
713902,-159.374755859375,13.830538749694824,628.0,13094.0,-351.26788330078125,1016.24853515625,0,0,0,40000
713912,-159.40634155273438,8.48436450958252,870.0,11831.0,-223.27772521972656,1016.4380493164062,0,0,0,40000
713922,-158.9245147705078,1.318035364151001,1173.0,10530.0,-51.40850830078125,1013.547119140625,0,0,0,40000
713932,-158.30230712890625,-2.903423547744751,1437.0,9236.0,49.94366455078125,1009.8138427734375,0,0,0,40000
713942,-156.99545288085938,-8.324529647827148,1683.0,7943.0,180.23785400390625,1001.9727172851562,0,0,0,40000
713952,-155.91688537597656,-11.363186836242676,1917.0,6693.0,253.47079467773438,995.5013427734375,0,0,0,40000
713962,-154.07073974609375,-15.024999618530273,2106.0,5464.0,341.76397705078125,984.4244384765625,0,0,0,40000
713972,-152.69229125976562,-16.942731857299805,2320.0,4503.0,388.275390625,976.1537475585938,0,0,0,40000
713982,-150.44346618652344,-19.17252540588379,2518.0,3720.0,442.3408203125,962.6607666015625,0,0,0,40000
713992,-148.83184814453125,-20.315074920654297,2680.0,3236.0,470.35809326171875,952.9910888671875,0,0,0,40000
714002,-146.2410125732422,-21.702335357666016,2852.0,2996.0,504.2876281738281,937.446044921875,0,0,0,40000
714012,-144.3870086669922,-22.481159210205078,2947.0,2989.0,523.6445922851562,926.322021484375,0,0,0,40000
714022,-141.41854858398438,-23.548276901245117,3058.0,3164.0,549.9492797851562,908.5112915039062,0,0,0,40000
714032,-139.29527282714844,-24.23466682434082,3169.0,3512.0,567.1414794921875,895.7716064453125,0,0,0,40000
714042,-135.86851501464844,-25.26080322265625,3228.0,3968.0,592.51416015625,875.2110595703125,0,0,0,40000
714052,-133.40347290039062,-25.964475631713867,3223.0,4573.0,610.1726684570312,860.4208374023438,0,0,0,40000
714062,-129.427978515625,-27.003067016601562,3137.0,5204.0,635.896484375,836.56787109375,0,0,0,40000
714072,-126.58929443359375,-27.683713912963867,3036.0,5937.0,653.0543823242188,819.5357666015625,0,0,0,40000
714082,-122.05905151367188,-28.600868225097656,2870.0,6744.0,675.91357421875,792.3543090820312,0,0,0,40000
714092,-118.85440826416016,-29.143404006958008,2642.0,7618.0,689.8023681640625,773.12646484375,0,0,0,40000
714102,-113.81019592285156,-29.711193084716797,2345.0,8503.0,704.3146362304688,742.8612060546875,0,0,0,40000
714112,-110.31044006347656,-29.889829635620117,2001.0,9420.0,709.4967651367188,721.8626708984375,0,0,0,40000
714122,-104.9435043334961,-29.776376724243164,1614.0,10303.0,707.6700439453125,689.6610107421875,0,0,0,40000
714132,-101.36506652832031,-29.390836715698242,1177.0,11200.0,699.3037109375,668.1904296875,0,0,0,40000
714142,-96.12139129638672,-28.302947998046875,747.0,11993.0,674.058349609375,636.7283325195312,0,0,0,40000
714152,-92.83792114257812,-27.224735260009766,276.0,12692.0,649.0112915039062,617.0275268554688,0,0,0,40000
714162,-88.39058685302734,-25.11183738708496,-178.0,13147.0,599.08203125,590.343505859375,0,0,0,40000
714172,-85.83682250976562,-23.395715713500977,-622.0,13494.0,558.617919921875,575.0209350585938,0,0,0,40000
714182,-82.68104553222656,-20.49847984313965,-979.0,13628.0,489.7350769042969,556.0863037109375,0,0,0,40000
714192,-81.08660888671875,-18.44880485534668,-1334.0,13628.0,441.12103271484375,546.5196533203125,0,0,0,40000
714202,-79.3696517944336,-15.26787281036377,-1605.0,13504.0,365.2747802734375,536.2178955078125,0,0,0,40000
714212,-78.6696548461914,-13.178564071655273,-1817.0,13208.0,315.5516662597656,532.0179443359375,0,0,0,40000
714222,-78.20751953125,-10.232444763183594,-1938.0,12821.0,245.1868896484375,529.2451171875,0,0,0,40000
714232,-78.21851348876953,-8.419225692749023,-2069.0,12315.0,201.9437255859375,529.3110961914062,0,0,0,40000
714242,-78.6097640991211,-6.020783424377441,-2101.0,11679.0,144.58941650390625,531.6585693359375,0,0,0,40000
714252,-79.06294250488281,-4.654277324676514,-2032.0,10924.0,111.94898986816406,534.377685546875,0,0,0,40000
714262,-79.94844055175781,-2.992328643798828,-1914.0,10085.0,72.17093658447266,539.690673828125,0,0,0,40000
714272,-80.60736083984375,-2.102609157562256,-1725.0,9137.0,50.89110565185547,543.6441650390625,0,0,0,40000
714282,-81.58464050292969,-1.1220662593841553,-1543.0,8128.0,27.402603149414062,549.5078125,0,0,0,40000
714292,-82.19529724121094,-0.6298218369483948,-1310.0,7061.0,15.613338470458984,553.1717529296875,0,0,0,40000
714302,-82.9694595336914,-0.11336812376976013,-1034.0,5991.0,3.2274670600891113,557.8167724609375,0,0,0,40000
714312,-83.37084197998047,0.14939546585083008,-765.0,4911.0,-3.0802745819091797,560.2250366210938,0,0,0,40000
714322,-83.78743743896484,0.3946828842163086,-437.0,3809.0,-8.976466178894043,562.724609375,0,0,0,40000
714332,-83.9366683959961,0.5192427039146423,-145.0,2716.0,-11.979990005493164,563.6199951171875,0,0,0,40000
714342,-83.95401000976562,0.6316418647766113,98.0,1707.0,-14.6953706741333,563.7240600585938,0,0,0,40000
714352,-83.8338623046875,0.7015488147735596,406.0,480.0,-16.393390655517578,563.003173828125,0,0,0,40000
714362,-83.44618225097656,0.771747350692749,700.0,-526.0,-18.100791931152344,560.6771240234375,0,0,0,40000
714372,-83.03541564941406,0.8051992058753967,1011.0,-1538.0,-18.927322387695312,558.2125244140625,0,0,0,40000
714382,-82.19034576416016,0.8387166857719421,1347.0,-2350.0,-19.756710052490234,553.14208984375,0,0,0,40000
714392,-81.45116424560547,0.8022361993789673,1689.0,-2973.0,-18.90574836730957,548.7069702148438,0,0,0,40000
714402,-80.09889221191406,0.6981908082962036,2064.0,-3326.0,-16.43097686767578,540.5933837890625,0,0,0,40000
714412,-79.0307388305664,0.5704102516174316,2438.0,-3442.0,-13.382919311523438,534.1844482421875,0,0,0,40000
714422,-77.1903305053711,0.2802470326423645,2803.0,-3313.0,-6.431336402893066,523.1419677734375,0,0,0,40000
714432,-75.80877685546875,0.0296403169631958,3148.0,-3028.0,-0.420737087726593,514.8526611328125,0,0,0,40000
714442,-73.51518249511719,-0.3794511556625366,3479.0,-2630.0,9.4036283493042,501.0910949707031,0,0,0,40000
714452,-71.84092712402344,-0.6852332353591919,3821.0,-2068.0,16.759315490722656,491.0455627441406,0,0,0,40000
714462,-69.10697174072266,-1.087139368057251,4127.0,-1435.0,26.433151245117188,474.641845703125,0,0,0,40000
714472,-67.12997436523438,-1.3210703134536743,4435.0,-762.0,32.084381103515625,462.77984619140625,0,0,0,40000
714482,-63.92420196533203,-1.5224285125732422,4792.0,-121.0,36.96074676513672,443.54522705078125,0,0,0,40000
714492,-61.61698532104492,-1.5551159381866455,5160.0,451.0,37.79164505004883,429.701904296875,0,0,0,40000
714502,-57.92494201660156,-1.4036809206008911,5525.0,962.0,34.20198440551758,407.5496520996094,0,0,0,40000
714512,-55.306556701660156,-1.151784896850586,5881.0,1350.0,28.194120407104492,391.83935546875,0,0,0,40000
714522,-51.130516052246094,-0.595115602016449,6190.0,1562.0,14.859212875366211,366.7830810546875,0,0,0,40000
714532,-48.203575134277344,-0.09112653136253357,6513.0,1695.0,2.7724339962005615,349.221435546875,0,0,0,40000
714542,-43.60823059082031,0.7598170042037964,6750.0,1638.0,-17.662586212158203,321.6493835449219,0,0,0,40000
714552,-40.43159866333008,1.3609970808029175,6998.0,1488.0,-32.12452697753906,302.589599609375,0,0,0,40000
714562,-35.544273376464844,2.222910165786743,7219.0,1261.0,-52.86699676513672,273.265625,0,0,0,40000
714572,-32.21746063232422,2.7325801849365234,7323.0,925.0,-65.17507934570312,253.3047637939453,0,0,0,40000
714582,-27.165916442871094,3.3113136291503906,7363.0,528.0,-79.15782928466797,222.99549865722656,0,0,0,40000
714592,-23.776395797729492,3.5290071964263916,7389.0,88.0,-84.48593139648438,202.6583709716797,0,0,0,40000
714602,-18.704818725585938,3.5587780475616455,7340.0,-347.0,-85.30791473388672,172.22891235351562,0,0,0,40000
714612,-15.341071128845215,3.3548567295074463,7259.0,-803.0,-80.51715850830078,152.04641723632812,0,0,0,40000
714622,-10.383136749267578,2.709533214569092,7118.0,-1252.0,-65.11947631835938,122.29882049560547,0,0,0,40000
714632,-7.147397994995117,2.0580062866210938,6939.0,-1666.0,-49.552669525146484,102.88438415527344,0,0,0,40000
714642,-2.468082904815674,0.8377528190612793,6671.0,-1911.0,-20.306964874267578,74.8084945678711,0,0,0,40000
714652,0.5364118218421936,-0.07583914697170258,6459.0,-1998.0,1.610480546951294,56.77509689331055,0,0,0,40000
714662,4.825953006744385,-1.4142085313796997,6162.0,-1892.0,33.75807189941406,30.94399642944336,0,0,0,40000
714672,7.535472393035889,-2.1965250968933105,5824.0,-1623.0,52.590370178222656,14.493156433105469,0,0,0,40000
714682,11.380126953125,-3.0730016231536865,5428.0,-1156.0,73.70860290527344,-8.870918273925781,0,0,0,40000
714692,13.781145095825195,-3.40718412399292,5003.0,-603.0,81.82750701904297,-23.661945343017578,0,0,0,40000
714702,17.086740493774414,-3.464331865310669,4582.0,65.0,83.3037109375,-43.969505310058594,0,0,0,40000
714712,19.092117309570312,-3.212540864944458,4196.0,750.0,77.36048126220703,-56.550636291503906,0,0,0,40000
714722,21.784503936767578,-2.390615463256836,3786.0,1437.0,57.717201232910156,-73.3270492553711,0,0,0,40000
714732,23.35533905029297,-1.6296286582946777,3286.0,1900.0,39.5117073059082,-83.43415832519531,0,0,0,40000
714742,25.406396865844727,-0.2911769151687622,2813.0,2202.0,7.414122104644775,-96.4791488647461,0,0,0,40000
714752,26.58136558532715,0.6521031856536865,2325.0,2287.0,-15.232844352722168,-104.31260681152344,0,0,0,40000
714762,28.026020050048828,2.0074381828308105,1874.0,2178.0,-47.80517578125,-113.80494689941406,0,0,0,40000
714772,28.788284301757812,2.821258068084717,1423.0,1961.0,-67.41185760498047,-119.23322296142578,0,0,0,40000
714782,29.61444664001465,3.842369318008423,966.0,1612.0,-92.02227020263672,-125.0696792602539,0,0,0,40000
714792,29.93011474609375,4.371964931488037,506.0,1188.0,-104.8575668334961,-127.8580322265625,0,0,0,40000
714802,30.106582641601562,4.870675086975098,16.0,661.0,-116.96769714355469,-129.81912231445312,0,0,0,40000
714812,30.02025604248047,4.973230838775635,-404.0,43.0,-119.57728576660156,-130.2030792236328,0,0,0,40000
714822,29.572114944458008,4.765767574310303,-807.0,-635.0,-114.7448501586914,-128.40771484375,0,0,0,40000
714832,29.058700561523438,4.358061790466309,-1231.0,-1335.0,-105.09590911865234,-126.20535278320312,0,0,0,40000
714842,27.97926139831543,3.3446173667907715,-1673.0,-1988.0,-80.88690185546875,-120.58200073242188,0,0,0,40000
714852,27.058109283447266,2.4050843715667725,-2159.0,-2583.0,-58.421844482421875,-115.878173828125,0,0,0,40000
714862,25.390090942382812,0.669865608215332,-2543.0,-3000.0,-16.818349838256836,-106.652587890625,0,0,0,40000
714872,24.105714797973633,-0.6308892369270325,-2954.0,-3177.0,14.402974128723145,-99.68509674072266,0,0,0,40000
714882,21.941423416137695,-2.6379427909851074,-3308.0,-3096.0,62.6274299621582,-87.38423156738281,0,0,0,40000
714892,20.360191345214844,-3.912655830383301,-3612.0,-2799.0,93.3227310180664,-78.52676391601562,0,0,0,40000
714902,17.812522888183594,-5.612578392028809,-3852.0,-2321.0,134.26974487304688,-63.80622863769531,0,0,0,40000
714912,16.000789642333984,-6.535900592803955,-4030.0,-1740.0,156.61477661132812,-53.43772888183594,0,0,0,40000
714922,13.144877433776855,-7.49551248550415,-4211.0,-1048.0,179.86026000976562,-36.7314453125,0,0,0,40000
714932,11.175734519958496,-7.804785251617432,-4262.0,-264.0,187.513671875,-25.275516510009766,0,0,0,40000
714942,8.158692359924316,-7.710316181182861,-4304.0,596.0,185.48081970214844,-7.4543609619140625,0,0,0,40000
714952,6.120338439941406,-7.225472450256348,-4317.0,1511.0,174.06765747070312,4.567691802978516,0,0,0,40000
714962,3.0959744453430176,-5.869811058044434,-4308.0,2373.0,141.72613525390625,22.58480453491211,0,0,0,40000
714972,1.110998272895813,-4.57254695892334,-4251.0,3155.0,110.74498748779297,34.43751525878906,0,0,0,40000
714982,-1.784374713897705,-2.169229030609131,-4171.0,3714.0,53.16047668457031,51.82875442504883,0,0,0,40000
714992,-3.672139883041382,-0.35774359107017517,-4069.0,4110.0,9.717496871948242,63.24291229248047,0,0,0,40000
715002,-6.428412437438965,2.505800485610962,-3917.0,4268.0,-59.0480842590332,79.94065856933594,0,0,0,40000
715012,-8.203661918640137,4.443033218383789,-3728.0,4279.0,-105.65172576904297,90.81709289550781,0,0,0,40000
715022,-10.796720504760742,7.243538856506348,-3572.0,4154.0,-173.048095703125,106.66845703125,0,0,0,40000
715032,-12.453776359558105,8.993678092956543,-3389.0,3928.0,-215.30038452148438,116.96456909179688,0,0,0,40000
715042,-14.854239463806152,11.360481262207031,-3122.0,3579.0,-272.4169921875,131.78460693359375,0,0,0,40000
715052,-16.37504768371582,12.734532356262207,-2870.0,3143.0,-305.7600402832031,141.38259887695312,0,0,0,40000
715062,-18.523090362548828,14.4238920211792,-2630.0,2596.0,-346.7184753417969,154.80123901367188,0,0,0,40000
715072,-19.84563446044922,15.280503273010254,-2399.0,1992.0,-367.7256164550781,163.31613159179688,0,0,0,40000
715082,-21.655698776245117,16.120494842529297,-2172.0,1326.0,-388.36041259765625,174.80511474609375,0,0,0,40000
715092,-22.703401565551758,16.384416580200195,-1901.0,655.0,-395.18328857421875,181.76004028320312,0,0,0,40000
715102,-24.049514770507812,16.3522891998291,-1677.0,-71.0,-394.90460205078125,190.5428466796875,0,0,0,40000
715112,-24.776247024536133,16.040447235107422,-1435.0,-794.0,-387.9056396484375,195.6379852294922,0,0,0,40000
715122,-25.648387908935547,15.14834976196289,-1225.0,-1548.0,-366.9618225097656,201.630615234375,0,0,0,40000
715132,-26.076810836791992,14.264572143554688,-986.0,-2297.0,-346.1900634765625,204.97850036621094,0,0,0,40000
715142,-26.488176345825195,12.483369827270508,-760.0,-3130.0,-303.8385314941406,208.2371063232422,0,0,0,40000
715152,-26.619600296020508,10.972637176513672,-480.0,-3975.0,-267.9286193847656,209.8228759765625,0,0,0,40000
715162,-26.608152389526367,8.268749237060547,-210.0,-4721.0,-203.31719970703125,210.55313110351562,0,0,0,40000
715172,-26.479534149169922,6.19374942779541,77.0,-5355.0,-153.7282257080078,210.5774383544922,0,0,0,40000
715182,-26.154069900512695,2.8086633682250977,377.0,-5699.0,-72.61167907714844,209.41360473632812,0,0,0,40000
715192,-25.848485946655273,0.4775884747505188,711.0,-5751.0,-16.708202362060547,208.35934448242188,0,0,0,40000
715202,-25.28466033935547,-2.9989261627197266,984.0,-5579.0,66.7767105102539,205.74200439453125,0,0,0,40000
715212,-24.83401107788086,-5.209943771362305,1247.0,-5230.0,119.97103118896484,203.78858947753906,0,0,0,40000
715222,-24.299360275268555,-7.289726734161377,1494.0,-4711.0,170.0485382080078,201.16722106933594,0,0,0,40000
715232,-23.35647201538086,-10.070746421813965,1754.0,-4027.0,237.06298828125,196.2224884033203,0,0,0,40000
715242,-22.604822158813477,-11.64159107208252,1978.0,-3179.0,275.09405517578125,192.3999481201172,0,0,0,40000
715252,-21.245542526245117,-13.472082138061523,2213.0,-2241.0,319.4097900390625,184.89869689941406,0,0,0,40000
715262,-20.189346313476562,-14.299908638000488,2425.0,-1164.0,339.69720458984375,179.18008422851562,0,0,0,40000
715272,-18.358919143676758,-14.81591510772705,2659.0,16.0,352.5220947265625,168.77108764648438,0,0,0,40000
715282,-17.007755279541016,-14.636115074157715,2846.0,1285.0,348.6488037109375,161.19076538085938,0,0,0,40000
715292,-14.765456199645996,-13.477005958557129,3064.0,2670.0,321.25146484375,148.20751953125,0,0,0,40000
715302,-13.164819717407227,-12.064709663391113,3245.0,4129.0,287.736083984375,138.98892211914062,0,0,0,40000
715312,-10.662083625793457,-8.92928409576416,3408.0,5493.0,212.79443359375,123.97250366210938,0,0,0,40000
715322,-8.960115432739258,-6.235672950744629,3583.0,6647.0,148.36781311035156,113.76069641113281,0,0,0,40000
715332,-6.394369125366211,-1.4573211669921875,3690.0,7481.0,33.79033279418945,98.3662109375,0,0,0,40000
715342,-4.689306259155273,2.0805742740631104,3721.0,8073.0,-51.13874816894531,88.13583374023438,0,0,0,40000
715352,-2.136672019958496,7.760763168334961,3714.0,8482.0,-187.6269989013672,72.82003021240234,0,0,0,40000
715362,-0.43516114354133606,11.69854736328125,3639.0,8685.0,-282.4374084472656,62.610965728759766,0,0,0,40000
715372,2.1307873725891113,17.66051483154297,3442.0,8718.0,-425.9829406738281,47.18217849731445,0,0,0,40000
715382,3.8636674880981445,21.58460807800293,3139.0,8566.0,-520.76171875,36.68977355957031,0,0,0,40000
715392,6.532700061798096,27.254003524780273,2820.0,8267.0,-657.5776977539062,20.511825561523438,0,0,0,40000
715402,8.358939170837402,30.826740264892578,2501.0,7861.0,-744.2056274414062,9.325672149658203,0,0,0,40000
715412,11.18476676940918,35.772178649902344,2166.0,7309.0,-863.9114379882812,-7.93060302734375,0,0,0,40000
715422,13.106021881103516,38.75796127319336,1826.0,6720.0,-936.697509765625,-19.828136444091797,0,0,0,40000
715432,16.066848754882812,42.739261627197266,1518.0,6042.0,-1033.48486328125,-38.039695739746094,0,0,0,40000
715442,18.04109764099121,45.032440185546875,1218.0,5367.0,-1089.8450927734375,-50.40276336669922,0,0,0,40000
715452,20.948205947875977,47.907291412353516,970.0,4558.0,-1160.24609375,-68.43962097167969,0,0,0,40000
715462,22.776288986206055,49.44980239868164,744.0,3742.0,-1198.7318115234375,-80.069580078125,0,0,0,40000
715472,25.220867156982422,51.20277404785156,620.0,2884.0,-1242.3199462890625,-95.46525573730469,0,0,0,40000
715482,26.57603645324707,52.006439208984375,457.0,1982.0,-1263.1588134765625,-104.37774658203125,0,0,0,40000
715492,28.107479095458984,52.662506103515625,288.0,1048.0,-1280.478271484375,-114.39299011230469,0,0,0,40000
715502,28.731992721557617,52.7518424987793,202.0,81.0,-1284.2042236328125,-118.99505615234375,0,0,0,40000
715512,29.059953689575195,52.34088134765625,115.0,-920.0,-1275.9180908203125,-121.83256530761719,0,0,0,40000
715522,28.84613037109375,51.716392517089844,-11.0,-1888.0,-1262.4896240234375,-121.41808319091797,0,0,0,40000
715532,27.969953536987305,50.20838928222656,-130.0,-2883.0,-1227.82373046875,-117.01263427734375,0,0,0,40000
715542,27.06147575378418,48.82268142700195,-225.0,-3881.0,-1196.048583984375,-112.38479614257812,0,0,0,40000
715552,25.331911087036133,46.161460876464844,-325.0,-4923.0,-1133.5980224609375,-102.78901672363281,0,0,0,40000
715562,23.97024917602539,43.955230712890625,-461.0,-5975.0,-1081.9942626953125,-95.35469818115234,0,0,0,40000
715572,21.776058197021484,39.9407844543457,-664.0,-7087.0,-986.8963012695312,-82.86962890625,0,0,0,40000
715582,20.262962341308594,36.76936721801758,-894.0,-8216.0,-911.9240112304688,-74.41722869873047,0,0,0,40000
715592,17.994260787963867,31.21079444885254,-1120.0,-9370.0,-779.5238037109375,-61.37200927734375,0,0,0,40000
715602,16.53337287902832,26.963848114013672,-1348.0,-10492.0,-678.4575805664062,-53.12007141113281,0,0,0,40000
715612,14.470611572265625,19.812772750854492,-1618.0,-11468.0,-507.51422119140625,-41.201847076416016,0,0,0,40000
715622,13.181266784667969,14.603477478027344,-1835.0,-12194.0,-382.9921875,-33.876487731933594,0,0,0,40000
715632,11.440503120422363,6.37562370300293,-2058.0,-12528.0,-185.81471252441406,-23.79552459716797,0,0,0,40000
715642,10.377650260925293,0.7582659721374512,-2214.0,-12556.0,-51.08838653564453,-17.742420196533203,0,0,0,40000
715652,8.910493850708008,-7.686160564422607,-2309.0,-12402.0,151.70729064941406,-9.224117279052734,0,0,0,40000
715662,7.996087074279785,-13.2382173538208,-2244.0,-12091.0,285.287353515625,-3.9884185791015625,0,0,0,40000
715672,6.679248332977295,-21.340072631835938,-2132.0,-11609.0,480.2757873535156,3.6965904235839844,0,0,0,40000
715682,5.803652286529541,-26.500946044921875,-1976.0,-10961.0,604.8702392578125,8.765552520751953,0,0,0,40000
715692,4.498348712921143,-33.77275085449219,-1742.0,-10167.0,780.3211059570312,16.44662094116211,0,0,0,40000
715702,3.6026830673217773,-38.27064895629883,-1533.0,-9378.0,889.3652954101562,21.701765060424805,0,0,0,40000
715712,2.164964437484741,-44.383880615234375,-1254.0,-8458.0,1037.343017578125,30.245641708374023,0,0,0,40000
715722,1.1482688188552856,-48.033119201660156,-1043.0,-7495.0,1126.322509765625,36.29904556274414,0,0,0,40000
715732,-0.4993229806423187,-52.784156799316406,-841.0,-6439.0,1241.8763427734375,46.179466247558594,0,0,0,40000
715742,-1.6814366579055786,-55.46440887451172,-658.0,-5418.0,1307.8345947265625,53.308250427246094,0,0,0,40000
715752,-3.553494691848755,-58.714454650878906,-472.0,-4294.0,1387.560791015625,64.62466430664062,0,0,0,40000
715762,-4.831862926483154,-60.35629653930664,-353.0,-3146.0,1428.756591796875,72.42462158203125,0,0,0,40000
715772,-6.641630172729492,-62.02710723876953,-308.0,-2023.0,1470.6993408203125,83.46088409423828,0,0,0,40000
715782,-7.713988780975342,-62.62596130371094,-281.0,-860.0,1486.9439697265625,90.11384582519531,0,0,0,40000
715792,-9.013023376464844,-62.726707458496094,-193.0,344.0,1491.2449951171875,98.16409301757812,0,0,0,40000
715802,-9.592565536499023,-62.25023651123047,-155.0,1578.0,1481.68359375,101.92253112792969,0,0,0,40000
715812,-9.999095916748047,-60.705413818359375,-215.0,2843.0,1446.4503173828125,104.65812683105469,0,0,0,40000
715822,-10.007072448730469,-59.12442398071289,-192.0,4060.0,1410.2999267578125,105.00636291503906,0,0,0,40000
715832,-9.693108558654785,-55.91975021362305,-169.0,5362.0,1335.1064453125,103.41815948486328,0,0,0,40000
715842,-9.32103443145752,-53.206260681152344,-140.0,6729.0,1271.6121826171875,101.47000885009766,0,0,0,40000
715852,-8.577320098876953,-48.196495056152344,-108.0,8103.0,1152.88671875,97.27442169189453,0,0,0,40000
715862,-8.02722454071045,-44.220245361328125,-81.0,9531.0,1058.8319091796875,94.22124481201172,0,0,0,40000
715872,-7.186881065368652,-37.296592712402344,6.0,10974.0,893.8693237304688,89.40489196777344,0,0,0,40000
715882,-6.635587692260742,-31.99989128112793,161.0,12459.0,767.7728881835938,86.30281066894531,0,0,0,40000
715892,-5.838943958282471,-23.060932159423828,301.0,13823.0,554.0399169921875,81.7074966430664,0,0,0,40000
715902,-5.334685802459717,-16.524568557739258,587.0,14995.0,397.7419738769531,78.84805297851562,0,0,0,40000
715912,-4.62850284576416,-6.034810543060303,843.0,15796.0,146.29638671875,74.75809478759766,0,0,0,40000
715922,-4.188690185546875,1.2730419635772705,991.0,16367.0,-29.04227066040039,72.24999237060547,0,0,0,40000
715932,-3.55621075630188,12.573502540588379,1143.0,16683.0,-300.4941711425781,68.56925964355469,0,0,0,40000
715942,-3.1450934410095215,20.225566864013672,1187.0,16849.0,-484.6585693359375,66.2018051147461,0,0,0,40000
715952,-2.523235559463501,31.749826431274414,1165.0,16844.0,-762.054931640625,62.55390167236328,0,0,0,40000
715962,-2.0885231494903564,39.38660430908203,1094.0,16619.0,-946.4276733398438,60.01364517211914,0,0,0,40000
715972,-1.3258171081542969,50.612483978271484,957.0,16258.0,-1217.2332763671875,55.48676300048828,0,0,0,40000
715982,-0.6903057098388672,57.85520935058594,687.0,15676.0,-1392.7078857421875,51.70224380493164,0,0,0,40000
715992,0.8302751779556274,68.24126434326172,505.0,15074.0,-1643.8973388671875,42.57447052001953,0,0,0,40000
716002,2.7911224365234375,74.72171020507812,382.0,14296.0,-1801.5926513671875,30.751361846923828,0,0,0,40000
716012,13.832947731018066,83.01407623291016,146.0,13400.0,-2003.007568359375,-35.72682189941406,0,0,0,40000
716022,120.24031066894531,84.96222686767578,5.0,12440.0,-2052.297119140625,-676.114990234375,0,0,0,40000
716032,167.72482299804688,79.59439849853516,-83.0,11371.0,-1925.9337158203125,-965.8634033203125,0,0,0,40000
716042,170.84481811523438,75.03253173828125,-112.0,10317.0,-1818.7545166015625,-989.6758422851562,0,0,0,40000
716052,172.66697692871094,68.58759307861328,-314.0,9239.0,-1666.209228515625,-1005.7723388671875,0,0,0,40000
716062,173.22384643554688,64.716064453125,-427.0,8135.0,-1575.2799072265625,-1014.3040771484375,0,0,0,40000
716072,173.55709838867188,59.611602783203125,-442.0,7007.0,-1454.6199951171875,-1021.507080078125,0,0,0,40000
716082,173.56411743164062,56.715450286865234,-447.0,5838.0,-1386.847900390625,-1026.75634765625,0,0,0,40000
716092,173.38272094726562,53.13377380371094,-609.0,4673.0,-1302.5220947265625,-1030.872314453125,0,0,0,40000
716102,173.14491271972656,51.27510452270508,-706.0,3462.0,-1259.4739990234375,-1034.642822265625,0,0,0,40000
716112,172.59913635253906,49.29597473144531,-709.0,2383.0,-1213.4749755859375,-1036.5531005859375,0,0,0,40000
716122,172.0991973876953,48.53636932373047,-746.0,1099.0,-1196.7088623046875,-1038.7225341796875,0,0,0,40000
716132,171.12158203125,48.2441291809082,-885.0,-149.0,-1191.1434326171875,-1038.0029296875,0,0,0,40000
716142,170.30560302734375,48.602054595947266,-944.0,-1409.0,-1201.186767578125,-1038.226318359375,0,0,0,40000
716152,168.75735473632812,49.96289825439453,-963.0,-2672.0,-1235.3270263671875,-1034.019287109375,0,0,0,40000
716162,167.46372985839844,51.40896987915039,-1028.0,-3910.0,-1271.556884765625,-1031.2972412109375,0,0,0,40000
716172,164.93258666992188,54.3557243347168,-1045.0,-5187.0,-1343.871826171875,-1021.0909423828125,0,0,0,40000
716182,162.69837951660156,56.80936050415039,-999.0,-6424.0,-1404.4334716796875,-1012.5942993164062,0,0,0,40000
716192,158.03289794921875,61.15378952026367,-1012.0,-7677.0,-1510.480224609375,-989.40380859375,0,0,0,40000
716202,153.4945068359375,64.40028381347656,-968.0,-8861.0,-1590.288818359375,-966.8349609375,0,0,0,40000
716212,142.80426025390625,69.45850372314453,-856.0,-10033.0,-1713.7093505859375,-907.1221313476562,0,0,0,40000
716222,131.058837890625,72.56970977783203,-766.0,-11182.0,-1790.518798828125,-840.7296752929688,0,0,0,40000
716232,102.25373840332031,75.40757751464844,-706.0,-12282.0,-1860.864501953125,-671.350830078125,0,0,0,40000
716242,78.17585754394531,74.89761352539062,-592.0,-13378.0,-1850.8819580078125,-529.05517578125,0,0,0,40000
716252,50.13902282714844,70.0304946899414,-429.0,-14403.0,-1736.24169921875,-360.8341369628906,0,0,0,40000
716262,38.899375915527344,64.88899230957031,-345.0,-15372.0,-1614.855712890625,-293.396240234375,0,0,0,40000
716272,28.75398826599121,55.49009704589844,-348.0,-16383.0,-1391.0640869140625,-232.52392578125,0,0,0,40000
716282,24.541215896606445,48.42974853515625,-362.0,-17335.0,-1222.31396484375,-207.24729919433594,0,0,0,40000
716292,20.303592681884766,36.94208526611328,-446.0,-18215.0,-946.6100463867188,-181.82156372070312,0,0,0,40000
716302,18.36285972595215,28.817041397094727,-618.0,-18927.0,-751.6090087890625,-170.17715454101562,0,0,0,40000
716312,16.320751190185547,16.1931095123291,-893.0,-19266.0,-448.6346435546875,-157.92449951171875,0,0,0,40000
716322,15.360904693603516,7.629567623138428,-1165.0,-19360.0,-243.109619140625,-152.16543579101562,0,0,0,40000
716332,14.373861312866211,-5.218493461608887,-1449.0,-19208.0,65.28646087646484,-146.2431640625,0,0,0,40000
716342,13.942936897277832,-13.688971519470215,-1692.0,-18775.0,268.88720703125,-143.65762329101562,0,0,0,40000
716352,13.572030067443848,-26.093158721923828,-1839.0,-18201.0,567.2227783203125,-141.43218994140625,0,0,0,40000
716362,13.48690128326416,-34.0775260925293,-1905.0,-17430.0,759.7744750976562,-140.92141723632812,0,0,0,40000
716372,13.624713897705078,-45.54192352294922,-1845.0,-16549.0,1036.150390625,-141.748291015625,0,0,0,40000
716382,13.932969093322754,-52.7841911315918,-1717.0,-15593.0,1211.4619140625,-143.59780883789062,0,0,0,40000
716392,14.861949920654297,-62.998497009277344,-1537.0,-14639.0,1458.3748779296875,-149.17169189453125,0,0,0,40000
716402,16.063234329223633,-69.32566833496094,-1241.0,-13614.0,1612.2314453125,-156.37940979003906,0,0,0,40000
716412,20.23578643798828,-77.85423278808594,-1033.0,-12568.0,1819.1539306640625,-181.4147186279297,0,0,0,40000
716422,29.13872718811035,-82.5341567993164,-884.0,-11562.0,1933.893798828125,-234.83236694335938,0,0,0,40000
716432,150.4717559814453,-84.55355834960938,-650.0,-10486.0,1984.8963623046875,-962.83056640625,0,0,0,40000
716442,176.3516387939453,-81.66141510009766,-485.0,-9393.0,1917.971923828125,-1118.10986328125,0,0,0,40000
716452,-176.2202911376953,-76.26830291748047,-453.0,-8298.0,1790.889892578125,1002.6718139648438,0,0,0,40000
716462,-174.217041015625,-72.85250091552734,-415.0,-7262.0,1711.1368408203125,995.901123046875,0,0,0,40000
716472,-172.40713500976562,-68.29686737060547,-308.0,-6248.0,1603.9033203125,990.2338256835938,0,0,0,40000
716482,-171.51881408691406,-65.69801330566406,-225.0,-5204.0,1543.532470703125,990.0599365234375,0,0,0,40000
716492,-170.34521484375,-62.485694885253906,-147.0,-4147.0,1468.3477783203125,988.1423950195312,0,0,0,40000
716502,-169.58726501464844,-60.81370162963867,-110.0,-3071.0,1430.063720703125,988.69140625,0,0,0,40000
716512,-168.4064483642578,-59.011192321777344,-16.0,-1994.0,1388.5931396484375,986.6729736328125,0,0,0,40000
716522,-167.55123901367188,-58.250675201416016,-14.0,-944.0,1372.096923828125,986.57861328125,0,0,0,40000
716532,-166.11048889160156,-57.81989288330078,19.0,107.0,1363.4957275390625,982.9354248046875,0,0,0,40000
716542,-165.0006561279297,-57.97931671142578,77.0,1143.0,1369.058837890625,981.239990234375,0,0,0,40000
716552,-162.9780731201172,-58.91214370727539,104.0,2258.0,1393.2005615234375,974.01953125,0,0,0,40000
716562,-161.32626342773438,-59.995941162109375,78.0,3353.0,1420.9979248046875,968.96875,0,0,0,40000
716572,-158.04611206054688,-62.2597541809082,95.0,4440.0,1477.1680908203125,954.0712280273438,0,0,0,40000
716582,-155.08798217773438,-64.16703033447266,116.0,5563.0,1524.844482421875,941.0118408203125,0,0,0,40000
716592,-148.835205078125,-67.50556945800781,145.0,6688.0,1606.953125,908.0426025390625,0,0,0,40000
716602,-142.64651489257812,-69.93595886230469,106.0,7828.0,1667.3511962890625,875.2673950195312,0,0,0,40000
716612,-128.03501892089844,-73.45481872558594,72.0,8940.0,1753.9666748046875,791.63623046875,0,0,0,40000
716622,-112.82147979736328,-75.18280029296875,31.0,10057.0,1797.6741943359375,703.9298095703125,0,0,0,40000
716632,-82.49250793457031,-75.4383773803711,-31.0,11216.0,1806.0777587890625,524.8085327148438,0,0,0,40000
716642,-63.16521453857422,-73.44789123535156,-103.0,12413.0,1760.5360107421875,410.96575927734375,0,0,0,40000
716652,-43.13870620727539,-67.57734680175781,-193.0,13643.0,1621.7486572265625,292.312255859375,0,0,0,40000
716662,-34.858551025390625,-62.269691467285156,-285.0,14909.0,1496.298095703125,243.771728515625,0,0,0,40000
716672,-26.972946166992188,-52.838356018066406,-407.0,16145.0,1271.6484375,197.3506317138672,0,0,0,40000
716682,-23.59286880493164,-45.75187683105469,-462.0,17461.0,1103.0313720703125,177.81686401367188,0,0,0,40000
716692,-20.26034927368164,-34.11109161376953,-573.0,18645.0,824.8185424804688,158.46484375,0,0,0,40000
716702,-18.868032455444336,-25.783302307128906,-598.0,19674.0,625.82568359375,150.69277954101562,0,0,0,40000
716712,-17.73100471496582,-12.648833274841309,-542.0,20444.0,311.1371765136719,144.41336059570312,0,0,0,40000
716722,-17.521982192993164,-3.5963306427001953,-414.0,21031.0,94.09387969970703,143.68682861328125,0,0,0,40000
716732,-18.00850486755371,10.224221229553223,-239.0,21366.0,-237.7397918701172,147.1377716064453,0,0,0,40000
716742,-18.97539710998535,19.472003936767578,-110.0,21515.0,-460.1598205566406,153.49600219726562,0,0,0,40000
716752,-21.682132720947266,33.22883224487305,-12.0,21560.0,-791.1560668945312,170.34942626953125,0,0,0,40000
716762,-24.76747703552246,42.18149948120117,44.0,21358.0,-1007.1785278320312,189.56544494628906,0,0,0,40000
716772,-32.87656021118164,54.788204193115234,94.0,21009.0,-1311.235107421875,239.09445190429688,0,0,0,40000
716782,-42.55115509033203,62.198448181152344,118.0,20540.0,-1490.859619140625,298.29522705078125,0,0,0,40000
716792,-69.48301696777344,69.95942687988281,118.0,19957.0,-1679.143798828125,461.5993347167969,0,0,0,40000
716802,-95.66641998291016,71.04348754882812,92.0,19276.0,-1707.2855224609375,621.2518920898438,0,0,0,40000
716812,-127.41110229492188,66.07717895507812,63.0,18510.0,-1590.1527099609375,815.208740234375,0,0,0,40000
716822,-139.26144409179688,60.3907356262207,79.0,17615.0,-1455.5595703125,890.3552856445312,0,0,0,40000
716832,-148.980712890625,50.811588287353516,267.0,16696.0,-1227.30078125,953.0421752929688,0,0,0,40000
716842,-152.59927368164062,44.31995391845703,394.0,15676.0,-1072.908935546875,975.5956420898438,0,0,0,40000
716852,-155.7504425048828,34.90242385864258,557.0,14615.0,-848.0469970703125,994.502685546875,0,0,0,40000
716862,-156.90817260742188,28.99630355834961,781.0,13469.0,-707.2403564453125,1001.4490356445312,0,0,0,40000
716872,-157.70372009277344,20.75729751586914,966.0,12352.0,-510.2237548828125,1006.2222900390625,0,0,0,40000
716882,-157.76148986816406,15.7681245803833,1298.0,11179.0,-391.0158386230469,1006.5689697265625,0,0,0,40000
716892,-157.30715942382812,9.03359317779541,1546.0,9948.0,-229.7364044189453,1003.8429565429688,0,0,0,40000
716902,-156.705078125,5.094435691833496,1840.0,8767.0,-135.39601135253906,1000.23046875,0,0,0,40000
716912,-155.43109130859375,0.019537637010216713,2099.0,7520.0,-13.657362937927246,992.5865478515625,0,0,0,40000
716922,-154.3638916015625,-2.825566053390503,2361.0,6327.0,54.67640686035156,986.183349609375,0,0,0,40000
716932,-152.48960876464844,-6.213046073913574,2608.0,5047.0,136.12449645996094,974.9376220703125,0,0,0,40000
716942,-151.09812927246094,-7.896785259246826,2834.0,3858.0,176.75157165527344,966.5887451171875,0,0,0,40000
716952,-149.61280822753906,-9.159610748291016,3064.0,2811.0,207.27224731445312,957.6768798828125,0,0,0,40000
716962,-147.224853515625,-10.328165054321289,3298.0,1876.0,235.61546325683594,943.34912109375,0,0,0,40000
716972,-145.53372192382812,-10.725119590759277,3550.0,1177.0,245.459716796875,933.2023315429688,0,0,0,40000
716982,-142.85302734375,-10.921113967895508,3783.0,725.0,250.48995971679688,917.1181640625,0,0,0,40000
716992,-140.97219848632812,-10.885433197021484,3992.0,539.0,249.96075439453125,905.8331909179688,0,0,0,40000
717002,-137.99803161621094,-10.709699630737305,4200.0,558.0,246.06675720214844,887.9881591796875,0,0,0,40000
717012,-135.89036560058594,-10.57480239868164,4435.0,748.0,243.14810180664062,875.3421630859375,0,0,0,40000
717022,-132.5590057373047,-10.419990539550781,4681.0,1088.0,239.74688720703125,855.35400390625,0,0,0,40000
717032,-130.22891235351562,-10.332883834838867,4852.0,1570.0,237.9673309326172,841.3734741210938,0,0,0,40000
717042,-126.53700256347656,-10.328177452087402,5023.0,2150.0,238.16404724121094,819.2220458984375,0,0,0,40000
717052,-123.96881866455078,-10.335306167602539,5122.0,2722.0,238.6451873779297,803.8129272460938,0,0,0,40000
717062,-119.95113372802734,-10.362152099609375,5220.0,3368.0,239.6000518798828,779.706787109375,0,0,0,40000
717072,-117.16641235351562,-10.335884094238281,5282.0,3966.0,239.28012084960938,762.9984741210938,0,0,0,40000
717082,-112.9063949584961,-10.096535682678223,5296.0,4559.0,233.842041015625,737.4383544921875,0,0,0,40000
717092,-110.02734375,-9.770133018493652,5254.0,5061.0,226.30563354492188,720.1640625,0,0,0,40000
717102,-105.78184509277344,-8.915613174438477,5157.0,5429.0,206.07595825195312,694.6910400390625,0,0,0,40000
717112,-103.0322494506836,-8.089110374450684,4963.0,5667.0,186.49285888671875,678.1934814453125,0,0,0,40000
717122,-99.13416290283203,-6.418094635009766,4752.0,5787.0,146.6023406982422,654.8049926757812,0,0,0,40000
717132,-96.71253967285156,-5.067559242248535,4521.0,5785.0,114.35803985595703,640.2752685546875,0,0,0,40000
717142,-93.43524932861328,-2.6368682384490967,4219.0,5686.0,56.130897521972656,620.6115112304688,0,0,0,40000
717152,-91.46554565429688,-0.8358921408653259,3938.0,5545.0,12.954339981079102,608.7932739257812,0,0,0,40000
717162,-88.90402221679688,2.1425373554229736,3575.0,5277.0,-58.55564498901367,593.4241333007812,0,0,0,40000
717172,-87.42650604248047,4.2493743896484375,3335.0,5012.0,-109.22181701660156,584.5590209960938,0,0,0,40000
717182,-85.57373809814453,7.530948162078857,2983.0,4598.0,-188.16592407226562,573.4424438476562,0,0,0,40000
717192,-84.54055786132812,9.772899627685547,2718.0,4183.0,-242.239013671875,567.2433471679688,0,0,0,40000
717202,-83.2338638305664,13.14399528503418,2479.0,3692.0,-323.4991760253906,559.4031982421875,0,0,0,40000
717212,-82.48119354248047,15.382312774658203,2237.0,3164.0,-377.6534729003906,554.8871459960938,0,0,0,40000
717222,-81.4604721069336,18.67437171936035,2064.0,2593.0,-457.18377685546875,548.7628173828125,0,0,0,40000
717232,-80.81267547607422,20.809736251831055,1925.0,2032.0,-509.0312805175781,544.8760375976562,0,0,0,40000
717242,-79.81378173828125,23.917978286743164,1772.0,1434.0,-584.3097534179688,538.8826904296875,0,0,0,40000
717252,-79.07874298095703,25.894187927246094,1695.0,841.0,-632.4920043945312,534.4724731445312,0,0,0,40000
717262,-77.8014907836914,28.733448028564453,1667.0,224.0,-701.4627075195312,526.8089599609375,0,0,0,40000
717272,-76.80776977539062,30.514244079589844,1645.0,-380.0,-745.095947265625,520.8466186523438,0,0,0,40000
717282,-74.99403381347656,32.98780059814453,1619.0,-943.0,-805.4218139648438,509.9642028808594,0,0,0,40000
717292,-73.5413589477539,34.5100212097168,1640.0,-1531.0,-842.9722900390625,501.2481689453125,0,0,0,40000
717302,-70.95450592041016,36.54281997680664,1712.0,-2143.0,-892.8323364257812,485.72705078125,0,0,0,40000
717312,-68.93089294433594,37.725624084472656,1761.0,-2761.0,-922.33740234375,473.5853576660156,0,0,0,40000
717322,-65.371337890625,39.1409912109375,1833.0,-3377.0,-957.464599609375,452.22802734375,0,0,0,40000
717332,-62.64680862426758,39.824745178222656,1912.0,-4041.0,-975.0616455078125,435.880859375,0,0,0,40000
717342,-58.06550598144531,40.35562515258789,2104.0,-4678.0,-989.0087280273438,408.3930358886719,0,0,0,40000
717352,-54.719451904296875,40.32624435424805,2290.0,-5366.0,-989.51416015625,388.31671142578125,0,0,0,40000
717362,-49.3297119140625,39.64636993408203,2479.0,-6031.0,-974.39697265625,355.978271484375,0,0,0,40000
717372,-45.58466720581055,38.70805358886719,2713.0,-6684.0,-953.0504760742188,333.50799560546875,0,0,0,40000
717382,-39.88889694213867,36.54738235473633,3007.0,-7366.0,-902.3193969726562,299.3333740234375,0,0,0,40000
717392,-36.12489700317383,34.57719802856445,3342.0,-8013.0,-856.0966186523438,276.7493896484375,0,0,0,40000
717402,-30.661285400390625,30.821794509887695,3705.0,-8619.0,-766.939208984375,243.96771240234375,0,0,0,40000
717412,-27.1768741607666,27.808305740356445,4130.0,-9237.0,-695.4865112304688,223.06124877929688,0,0,0,40000
717422,-22.234176635742188,22.51490592956543,4568.0,-9829.0,-569.1861572265625,193.40505981445312,0,0,0,40000
717432,-19.129995346069336,18.5342960357666,4978.0,-10313.0,-474.255859375,174.77996826171875,0,0,0,40000
717442,-14.720396995544434,12.006412506103516,5317.0,-10534.0,-318.0265197753906,148.3223876953125,0,0,0,40000
717452,-11.915465354919434,7.435174942016602,5630.0,-10578.0,-208.5948944091797,131.4927978515625,0,0,0,40000
717462,-7.841325759887695,0.43608567118644714,5825.0,-10351.0,-40.713924407958984,107.04795837402344,0,0,0,40000
717472,-5.176473140716553,-4.167782306671143,5856.0,-9956.0,69.848876953125,91.058837890625,0,0,0,40000
717482,-1.1775319576263428,-10.803895950317383,5749.0,-9396.0,229.36122131347656,67.06519317626953,0,0,0,40000
717492,1.522058129310608,-14.959211349487305,5571.0,-8710.0,329.4880676269531,50.84740447998047,0,0,0,40000
717502,5.656973838806152,-20.585302352905273,5281.0,-7918.0,465.0663757324219,25.918140411376953,0,0,0,40000
717512,8.479345321655273,-23.852985382080078,4932.0,-6966.0,544.1677856445312,8.76346206665039,0,0,0,40000
717522,12.782373428344727,-27.962066650390625,4549.0,-5965.0,643.5779418945312,-17.38628387451172,0,30,0,40000
717532,15.666411399841309,-30.139158248901367,4169.0,-4891.0,-23.83310317993164,-35.12599563598633,0,30,0,40000
717542,19.87604331970215,-32.5030517578125,3786.0,-3803.0,32.94990539550781,-60.93010330200195,0,30,0,40000
717552,22.518505096435547,-33.503257751464844,3482.0,-2663.0,57.04861831665039,-77.42889404296875,0,30,0,40000
717562,26.160505294799805,-34.13690185546875,3158.0,-1478.0,72.37527465820312,-100.02330017089844,0,30,0,40000
717572,28.282506942749023,-34.020957946777344,2882.0,-228.0,69.71528625488281,-113.57872009277344,0,30,0,40000
717582,30.944313049316406,-33.078155517578125,2582.0,990.0,47.19404602050781,-130.44781494140625,0,30,0,40000
717592,32.36211395263672,-31.96296501159668,2379.0,2188.0,20.502269744873047,-139.908935546875,0,30,0,40000
717602,33.973453521728516,-29.719289779663086,2186.0,3154.0,-33.32588195800781,-150.57835388183594,0,30,0,40000
717612,34.76806640625,-27.954017639160156,1987.0,3906.0,-75.73233795166016,-156.37979125976562,0,30,0,40000
717622,35.633140563964844,-25.048288345336914,1797.0,4429.0,-145.5829315185547,-162.62973022460938,0,30,0,40000
717632,36.039390563964844,-23.01478385925293,1550.0,4743.0,-194.5721435546875,-166.14373779296875,0,30,0,40000
717642,36.4720573425293,-19.958614349365234,1309.0,4885.0,-268.184814453125,-169.82925415039062,0,30,0,40000
717652,36.6550178527832,-17.952043533325195,1028.0,4869.0,-316.679931640625,-172.02464294433594,0,30,0,40000
717662,36.77674865722656,-15.092782974243164,724.0,4707.0,-385.715576171875,-173.85726928710938,0,30,0,40000
717672,36.763118743896484,-13.312873840332031,401.0,4399.0,-428.91290283203125,-174.87864685058594,0,30,0,40000
717682,36.59392547607422,-10.8908052444458,91.0,4031.0,-487.5875549316406,-174.9636993408203,0,30,0,40000
717692,36.372901916503906,-9.470658302307129,-308.0,3529.0,-522.2700805664062,-174.73153686523438,0,30,0,40000
717702,35.84478759765625,-7.656234264373779,-667.0,2948.0,-566.4661254882812,-172.64515686035156,0,30,0,40000
717712,35.35002899169922,-6.680976867675781,-1097.0,2268.0,-590.5604248046875,-170.74330139160156,0,30,0,40000
717722,34.382625579833984,-5.622958660125732,-1478.0,1578.0,-616.6727905273438,-165.9827117919922,0,30,0,40000
717732,33.60004806518555,-5.20112943649292,-1853.0,800.0,-627.5359497070312,-162.30482482910156,0,30,0,40000
717742,32.17810821533203,-5.026970863342285,-2255.0,4.0,-632.464599609375,-154.75643920898438,0,30,0,40000
717752,31.06939697265625,-5.268775463104248,-2616.0,-885.0,-627.406494140625,-149.04974365234375,0,30,0,40000
717762,29.181812286376953,-6.170925617218018,-2990.0,-1794.0,-606.4825439453125,-138.62310791015625,0,30,0,40000
717772,27.78986358642578,-7.189982891082764,-3292.0,-2788.0,-582.7222290039062,-131.12191772460938,0,30,0,40000
717782,25.53267478942871,-9.412199974060059,-3527.0,-3869.0,-530.0357055664062,-118.37217712402344,0,30,0,40000
717792,23.942949295043945,-11.398921966552734,-3748.0,-4970.0,-482.9368591308594,-109.57124328613281,0,30,0,40000
717802,21.518911361694336,-15.185527801513672,-3877.0,-6140.0,-392.5509033203125,-95.7017822265625,0,30,0,40000
717812,19.903518676757812,-18.256494522094727,-3897.0,-7249.0,-319.23748779296875,-86.62596130371094,0,30,0,40000
717822,17.517559051513672,-23.59490394592285,-3812.0,-8114.0,-191.37396240234375,-72.86422729492188,0,30,0,40000
717832,15.955578804016113,-27.530986785888672,-3634.0,-8736.0,-97.02967834472656,-63.9897346496582,0,30,0,40000
717842,13.620543479919434,-33.826324462890625,-3399.0,-9120.0,54.09668731689453,-50.416202545166016,0,30,0,40000
717852,12.046897888183594,-38.162635803222656,-3055.0,-9271.0,158.36090087890625,-41.35464096069336,0,30,0,40000
717862,9.577709197998047,-44.69422149658203,-2692.0,-9225.0,315.48150634765625,-26.856975555419922,0,30,0,40000
717872,7.794294834136963,-49.00239181518555,-2319.0,-9075.0,419.3960876464844,-16.411972045898438,0,30,0,40000
717882,4.72624397277832,-55.27149200439453,-1968.0,-8832.0,570.5381469726562,1.8160591125488281,0,30,0,40000
717892,2.275367259979248,-59.25777816772461,-1552.0,-8476.0,667.0391845703125,16.423038482666016,0,30,0,40000
717902,-2.4251997470855713,-64.8221664428711,-1236.0,-8015.0,801.56396484375,44.639129638671875,0,30,0,40000
717912,-6.552819728851318,-68.15431213378906,-923.0,-7413.0,882.6405639648438,69.55032348632812,0,30,0,40000
717922,-15.057024955749512,-72.43218231201172,-654.0,-6785.0,986.53369140625,120.91658020019531,0,30,0,40000
717932,-22.777530670166016,-74.7017593383789,-430.0,-6124.0,1042.3182373046875,167.8273162841797,0,30,0,40000
717942,-37.909847259521484,-77.06587982177734,-257.0,-5458.0,1100.444091796875,259.5663146972656,0,30,0,40000
717952,-49.79374694824219,-77.88066101074219,-102.0,-4790.0,1121.426513671875,332.2195129394531,0,30,0,40000
717962,-67.29351043701172,-77.99463653564453,-1.0,-4069.0,1125.603515625,439.0333251953125,0,30,0,40000
717972,-76.90511322021484,-77.52902221679688,84.0,-3326.0,1115.8607177734375,498.8980712890625,0,30,0,40000
717982,-86.96543884277344,-76.33660888671875,158.0,-2583.0,1088.6483154296875,561.761962890625,0,30,0,40000
717992,-90.97047424316406,-75.40380859375,243.0,-1764.0,1067.634521484375,588.4761962890625,0,30,0,40000
718002,-93.89386749267578,-73.95124053955078,293.0,-932.0,1034.10888671875,608.8070068359375,0,30,0,40000
718012,-94.21865844726562,-73.00731658935547,307.0,-82.0,1012.7559814453125,613.5801391601562,0,30,0,40000
718022,-92.78889465332031,-71.66085815429688,260.0,766.0,981.7069091796875,607.8076171875,0,30,0,40000
718032,-90.76233673095703,-70.78070068359375,259.0,1665.0,961.817138671875,598.3966674804688,0,30,0,40000
