timestamp,stabilizer.roll,stabilizer.pitch,stateEstimateZ.rateRoll,stateEstimateZ.ratePitch,controller.pitchRate,controller.rollRate,roll,pitch,yawdot,thrust
1130534,-36.25299835205078,68.08686828613281,-63.0,21.0,-411.7890930175781,219.25230407714844,0,0,0,40000
1130544,-36.45851516723633,68.07332611083984,11.0,36.0,-414.15863037109375,221.79554748535156,0,0,0,40000
1130554,-36.54060363769531,68.03620147705078,-17.0,-54.0,-415.569091796875,223.16464233398438,0,0,0,40000
1130564,-36.54905700683594,67.92646026611328,-15.0,-139.0,-417.3575439453125,224.53155517578125,0,0,0,40000
1130574,-36.423866271972656,67.78475952148438,13.0,-443.0,-418.1351623535156,224.65562438964844,0,0,0,40000
1130584,-35.961849212646484,67.41551971435547,69.0,-656.0,-417.9468688964844,222.96853637695312,0,0,0,40000
1130594,-35.46601486206055,67.0644760131836,70.0,-1112.0,-417.85699462890625,221.06387329101562,0,0,0,40000
1130604,-34.26968002319336,66.2514419555664,51.0,-1610.0,-414.9769287109375,214.9295654296875,0,0,0,40000
1130614,-33.180606842041016,65.50906372070312,69.0,-2192.0,-412.49713134765625,209.4040985107422,0,0,0,40000
1130624,-31.12105941772461,64.01302337646484,46.0,-2906.0,-405.4605407714844,198.0064697265625,0,0,0,40000
1130634,-29.502389907836914,62.715782165527344,-11.0,-3661.0,-399.574462890625,189.1991729736328,0,0,0,40000
1130644,-26.820758819580078,60.29630661010742,-40.0,-4475.0,-386.897216796875,173.9468536376953,0,0,0,40000
1130654,-24.948408126831055,58.3196907043457,-28.0,-5324.0,-376.811279296875,163.48374938964844,0,0,0,40000
1130664,-22.12929344177246,54.77479934692383,42.0,-6230.0,-357.22967529296875,147.26675415039062,0,0,0,40000
1130674,-20.309978485107422,51.99660110473633,143.0,-7118.0,-342.1542053222656,136.98190307617188,0,0,0,40000
1130684,-17.709714889526367,47.27802276611328,248.0,-7866.0,-315.31939697265625,121.94220733642578,0,0,0,40000
1130694,-16.085735321044922,43.82497787475586,485.0,-8339.0,-295.9576110839844,112.7002182006836,0,0,0,40000
1130704,-13.842042922973633,38.374263763427734,652.0,-8599.0,-264.4705810546875,99.67974853515625,0,0,0,40000
1130714,-12.448983192443848,34.644657135009766,930.0,-8558.0,-243.17718505859375,91.71144104003906,0,0,0,40000
1130724,-10.482548713684082,29.11577796936035,1179.0,-8265.0,-210.94325256347656,80.25050354003906,0,0,0,40000
1130734,-9.224864959716797,25.588268280029297,1508.0,-7740.0,-190.58787536621094,72.99617767333984,0,0,0,40000
1130744,-7.3790764808654785,20.68036651611328,1810.0,-6991.0,-161.81829833984375,62.16485595703125,0,0,0,40000
1130754,-6.148900508880615,17.755611419677734,2123.0,-6048.0,-144.83709716796875,54.98308563232422,0,0,0,40000
1130764,-4.281160831451416,14.062992095947266,2395.0,-4926.0,-123.14518737792969,43.9276123046875,0,0,0,40000
1130774,-2.994783878326416,12.12485408782959,2580.0,-3666.0,-111.90269470214844,36.31464385986328,0,0,0,40000
1130784,-1.040594220161438,10.064579010009766,2707.0,-2435.0,-99.86502075195312,24.64426040649414,0,0,0,40000
1130794,0.26380035281181335,9.241761207580566,2736.0,-1274.0,-95.21460723876953,16.825632095336914,0,0,0,40000
1130804,2.2023158073425293,8.736233711242676,2746.0,-314.0,-92.44754028320312,5.151711463928223,0,0,0,40000
1130814,3.4786558151245117,8.78357219696045,2701.0,453.0,-92.99411010742188,-2.5953731536865234,0,0,0,40000
1130824,5.359182357788086,9.253230094909668,2584.0,918.0,-96.08304595947266,-14.016944885253906,0,0,0,40000
1130834,6.568637847900391,9.720069885253906,2445.0,1198.0,-99.16995239257812,-21.456287384033203,0,0,0,40000
1130844,8.306431770324707,10.50985050201416,2287.0,1333.0,-104.21434020996094,-32.11171340942383,0,0,0,40000
1130854,9.393742561340332,11.049348831176758,2125.0,1350.0,-107.77633666992188,-38.9044075012207,0,0,0,40000
1130864,10.885015487670898,11.816608428955078,1869.0,1231.0,-112.7254638671875,-48.16124725341797,0,0,0,40000
1130874,11.766467094421387,12.242950439453125,1632.0,983.0,-115.64581298828125,-53.79248809814453,0,0,0,40000
1130884,12.91799259185791,12.6800537109375,1412.0,641.0,-118.64431762695312,-61.07585906982422,0,0,0,40000
1130894,13.559614181518555,12.806214332580566,1144.0,203.0,-119.78419494628906,-65.32482147216797,0,0,0,40000
1130904,14.324679374694824,12.668843269348145,863.0,-319.0,-119.34278869628906,-70.33648681640625,0,0,0,40000
1130914,14.69367790222168,12.325512886047363,564.0,-947.0,-117.65702819824219,-72.98703002929688,0,0,0,40000
1130924,15.044925689697266,11.349676132202148,288.0,-1658.0,-112.15576171875,-75.54229736328125,0,0,0,40000
1130934,15.128211975097656,10.387068748474121,14.0,-2325.0,-106.70362854003906,-76.49501037597656,0,0,0,40000
1130944,15.048335075378418,8.539196014404297,-254.0,-2900.0,-95.89591217041016,-76.46879577636719,0,0,0,40000
1130954,14.865732192993164,7.0941996574401855,-521.0,-3291.0,-87.45631408691406,-75.82151794433594,0,0,0,40000
1130964,14.411270141601562,4.742183208465576,-752.0,-3458.0,-73.51504516601562,-73.53300476074219,0,0,0,40000
1130974,14.024330139160156,3.132211446762085,-960.0,-3455.0,-63.968505859375,-71.63683319091797,0,0,0,40000
1130984,13.317615509033203,0.788086473941803,-1160.0,-3261.0,-49.95515823364258,-67.80492401123047,0,0,0,40000
1130994,12.780488967895508,-0.6626267433166504,-1304.0,-2938.0,-41.24821853637695,-64.97212982177734,0,0,0,40000
1131004,11.873229026794434,-2.5531013011932373,-1434.0,-2444.0,-29.850452423095703,-59.896114349365234,0,0,0,40000
1131014,11.191740036010742,-3.588721752166748,-1521.0,-1872.0,-23.54117202758789,-56.151180267333984,0,0,0,40000
1131024,10.086021423339844,-4.736280918121338,-1564.0,-1262.0,-16.5262451171875,-49.832855224609375,0,0,0,40000
1131034,9.32552433013916,-5.235109329223633,-1567.0,-719.0,-13.381893157958984,-45.55878448486328,0,0,0,40000
1131044,8.1787691116333,-5.643902778625488,-1563.0,-263.0,-10.763771057128906,-38.93735885620117,0,0,0,40000
1131054,7.427326202392578,-5.742555141448975,-1540.0,98.0,-10.000556945800781,-34.66050338745117,0,0,0,40000
1131064,6.323521137237549,-5.672300815582275,-1529.0,345.0,-10.250518798828125,-28.24060821533203,0,0,0,40000
1131074,5.599467754364014,-5.522581100463867,-1505.0,466.0,-10.98129653930664,-24.07295799255371,0,0,0,40000
1131084,4.545816421508789,-5.241433620452881,-1431.0,482.0,-12.507511138916016,-17.89986801147461,0,0,0,40000
1131094,3.8987505435943604,-5.047814846038818,-1328.0,402.0,-13.515506744384766,-14.142135620117188,0,0,0,40000
1131104,3.006804943084717,-4.844507217407227,-1193.0,228.0,-14.587970733642578,-8.891036033630371,0,0,0,40000
1131114,2.4640517234802246,-4.801462650299072,-1093.0,-28.0,-14.701793670654297,-5.714922904968262,0,0,0,40000
1131124,1.7501757144927979,-4.916176795959473,-923.0,-268.0,-13.86790657043457,-1.4923944473266602,0,0,0,40000
1131134,1.3587466478347778,-5.094503879547119,-744.0,-510.0,-12.647396087646484,0.8108034133911133,0,0,0,40000
1131144,0.9012202620506287,-5.53397798538208,-504.0,-709.0,-9.850288391113281,3.5240349769592285,0,0,0,40000
1131154,0.6792696714401245,-5.93474006652832,-312.0,-893.0,-7.272624969482422,4.832846641540527,0,0,0,40000
1131164,0.4783393144607544,-6.612851619720459,-133.0,-1017.0,-3.0138816833496094,6.021950721740723,0,0,0,40000
1131174,0.4305874705314636,-7.0649943351745605,9.0,-972.0,-0.09447860717773438,6.295015335083008,0,0,0,40000
1131184,0.46202680468559265,-7.677673816680908,189.0,-829.0,3.8049278259277344,6.093262672424316,0,0,0,40000
1131194,0.549663782119751,-8.00135612487793,357.0,-613.0,5.983272552490234,5.552137851715088,0,0,0,40000
1131204,0.7945401072502136,-8.334988594055176,477.0,-370.0,8.231658935546875,4.062295913696289,0,0,0,40000
1131214,1.0153406858444214,-8.445826530456543,551.0,-129.0,9.148849487304688,2.709710121154785,0,0,0,40000
1131224,1.393478512763977,-8.482147216796875,626.0,49.0,9.621166229248047,0.4037914276123047,0,0,0,40000
1131234,1.6678048372268677,-8.434501647949219,659.0,180.0,9.588939666748047,-1.2889070510864258,0,0,0,40000
1131244,2.088895559310913,-8.285490036010742,695.0,267.0,8.945453643798828,-3.872995376586914,0,0,0,40000
1131254,2.360970973968506,-8.156281471252441,699.0,294.0,8.41646957397461,-5.5730085372924805,0,0,0,40000
1131264,2.766319513320923,-7.975538730621338,668.0,233.0,7.573295593261719,-8.083297729492188,0,0,0,40000
1131274,3.0232200622558594,-7.887002468109131,624.0,149.0,7.279701232910156,-9.712362289428711,0,0,0,40000
1131284,3.3832666873931885,-7.81667423248291,555.0,9.0,7.092792510986328,-11.970017433166504,0,0,0,40000
1131294,3.583850860595703,-7.8309645652771,477.0,-87.0,7.413230895996094,-13.278691291809082,0,0,0,40000
1131304,3.812731981277466,-7.923452854156494,398.0,-184.0,8.204498291015625,-14.763832092285156,0,0,0,40000
1131314,3.926182985305786,-8.02786636352539,318.0,-229.0,9.070510864257812,-15.560998916625977,0,0,0,40000
1131324,4.040761947631836,-8.23882007598877,225.0,-289.0,10.580650329589844,-16.368520736694336,0,0,0,40000
1131334,4.0825300216674805,-8.395581245422363,242.0,-295.0,11.771221160888672,-16.741153717041016,0,0,0,40000
1131344,4.1209187507629395,-8.618788719177246,74.0,-265.0,13.366455078125,-17.095035552978516,0,0,0,40000
1131354,4.078537940979004,-8.729513168334961,-87.0,-139.0,14.291423797607422,-16.963687896728516,0,0,0,40000
1131364,3.9365696907043457,-8.816908836364746,-161.0,-41.0,15.07943344116211,-16.23178482055664,0,0,0,40000
1131374,3.8113932609558105,-8.815069198608398,-181.0,79.0,15.33297348022461,-15.596572875976562,0,0,0,40000
1131384,3.6215405464172363,-8.738672256469727,-267.0,157.0,15.1378173828125,-14.568597793579102,0,0,0,40000
1131394,3.4545738697052,-8.655816078186035,-382.0,206.0,14.90133285522461,-13.672513961791992,0,0,0,40000
1131404,3.1629226207733154,-8.506293296813965,-450.0,248.0,14.261299133300781,-12.021151542663574,0,0,0,40000
1131414,2.9324593544006348,-8.382911682128906,-466.0,239.0,13.773975372314453,-10.72906494140625,0,0,0,40000
1131424,2.5481584072113037,-8.196784019470215,-483.0,281.0,12.905475616455078,-8.504288673400879,0,0,0,40000
1131434,2.2804999351501465,-8.079398155212402,-504.0,221.0,12.444934844970703,-6.9699554443359375,0,0,0,40000
1131444,1.9261443614959717,-7.925540447235107,-490.0,176.0,11.761310577392578,-4.905838489532471,0,0,0,40000
1131454,1.69847571849823,-7.8437886238098145,-485.0,114.0,11.507068634033203,-3.593569755554199,0,0,0,40000
1131464,1.3829232454299927,-7.769391059875488,-423.0,45.0,11.29449462890625,-1.7454614639282227,0,0,0,40000
1131474,1.1852145195007324,-7.756646633148193,-370.0,-22.0,11.450836181640625,-0.5970554351806641,0,0,0,40000
1131484,0.9307052493095398,-7.774686813354492,-290.0,-61.0,11.79208755493164,0.8993196487426758,0,0,0,40000
1131494,0.7884896397590637,-7.794247150421143,-267.0,-80.0,12.143047332763672,1.7272319793701172,0,0,0,40000
1131504,0.6266592741012573,-7.844156742095947,-169.0,-103.0,12.677227020263672,2.6776912212371826,0,0,0,40000
1131514,0.5483863353729248,-7.872072696685791,-111.0,-95.0,13.080558776855469,3.129943370819092,0,0,0,40000
1131524,0.4873488247394562,-7.894344329833984,-31.0,-40.0,13.450843811035156,3.4810292720794678,0,0,0,40000
1131534,0.466510146856308,-7.87937593460083,22.0,-5.0,13.597625732421875,3.59185791015625,0,0,0,40000
1131544,0.45189517736434937,-7.841599941253662,7.0,47.0,13.606758117675781,3.6657652854919434,0,0,0,40000
1131554,0.4609932601451874,-7.793386459350586,35.0,95.0,13.551891326904297,3.597440481185913,0,0,0,40000
1131564,0.4702014923095703,-7.681484699249268,57.0,159.0,13.112377166748047,3.5283093452453613,0,0,0,40000
1131574,0.49254313111305237,-7.587947368621826,100.0,189.0,12.779918670654297,3.3798041343688965,0,0,0,40000
1131584,0.5567592978477478,-7.4363274574279785,150.0,237.0,12.095237731933594,2.978694438934326,0,0,0,40000
1131594,0.5930992960929871,-7.335141658782959,96.0,187.0,11.709354400634766,2.743222236633301,0,0,0,40000
1131604,0.6256720423698425,-7.208281517028809,86.0,161.0,11.165885925292969,2.529311180114746,0,0,0,40000
1131614,0.6578953266143799,-7.137234687805176,136.0,146.0,10.954570770263672,2.316664695739746,0,0,0,40000
1131624,0.7171663641929626,-7.059507369995117,181.0,93.0,10.700769424438477,1.940417766571045,0,0,0,40000
1131634,0.7735450863838196,-7.046349048614502,186.0,46.0,10.833351135253906,1.5796475410461426,0,0,0,40000
1131644,0.8400375843048096,-7.02174711227417,100.0,34.0,10.896743774414062,1.156050205230713,0,0,0,40000
1131654,0.851936399936676,-7.00508975982666,49.0,31.0,11.007183074951172,1.0592045783996582,0,0,0,40000
1131664,0.8329573273658752,-6.974926948547363,8.0,34.0,11.035894393920898,1.1478171348571777,0,0,0,40000
1131674,0.785930871963501,-6.960549831390381,-47.0,-16.0,11.158588409423828,1.4058551788330078,0,0,0,40000
1131684,0.6974931359291077,-6.936101913452148,-137.0,17.0,11.22039794921875,1.9142403602600098,0,0,0,40000
1131694,0.6036843061447144,-6.909717082977295,-200.0,26.0,11.269706726074219,2.457822561264038,0,0,0,40000
1131704,0.4426771402359009,-6.872181415557861,-184.0,61.0,11.251144409179688,3.4086954593658447,0,0,0,40000
1131714,0.3571948707103729,-6.834578514099121,-109.0,100.0,11.231033325195312,3.9099228382110596,0,0,0,40000
1131724,0.31077200174331665,-6.720386028289795,-9.0,213.0,10.749137878417969,4.178839206695557,0,0,0,40000
1131734,0.31978991627693176,-6.597253322601318,37.0,248.0,10.209754943847656,4.11525821685791,0,0,0,40000
1131744,0.3469642400741577,-6.400198459625244,27.0,279.0,9.221805572509766,3.9420506954193115,0,0,0,40000
1131754,0.3179870843887329,-6.265381336212158,-46.0,266.0,8.602489471435547,4.106016159057617,0,0,0,40000
1131764,0.2122606784105301,-6.081634998321533,-149.0,220.0,7.684577941894531,4.732505798339844,0,0,0,40000
1131774,0.11029006540775299,-5.97882080078125,-276.0,194.0,7.248249053955078,5.339685916900635,0,0,0,40000
1131784,-0.08999145776033401,-5.851999282836914,-311.0,179.0,6.664340972900391,6.541633129119873,0,0,0,40000
1131794,-0.2563232481479645,-5.777537822723389,-298.0,187.0,6.3917999267578125,7.545389652252197,0,0,0,40000
1131804,-0.4542178511619568,-5.662107467651367,-278.0,180.0,5.870433807373047,8.743955612182617,0,0,0,40000
1131814,-0.5713652968406677,-5.589775562286377,-224.0,127.0,5.60498046875,9.462564468383789,0,0,0,40000
1131824,-0.7038454413414001,-5.487529754638672,-178.0,105.0,5.157375335693359,10.276996612548828,0,0,0,40000
1131834,-0.8286107778549194,-5.432529926300049,-234.0,27.0,4.990959167480469,11.048990249633789,0,0,0,40000
1131844,-1.0740782022476196,-5.433416366577148,-388.0,-28.0,5.159065246582031,12.550764083862305,0,0,0,40000
1131854,-1.251244306564331,-5.4611663818359375,-481.0,-90.0,5.489048004150391,13.649040222167969,0,0,0,40000
1131864,-1.5760669708251953,-5.511819362640381,-464.0,-92.0,5.957733154296875,15.64142894744873,0,0,0,40000
1131874,-1.8435845375061035,-5.551541328430176,-549.0,-120.0,6.362113952636719,17.298614501953125,0,0,0,40000
1131884,-2.3099522590637207,-5.605306625366211,-704.0,-66.0,6.85235595703125,20.16012191772461,0,0,0,40000
1131894,-2.617398500442505,-5.602785587310791,-656.0,33.0,7.0054168701171875,22.07966423034668,0,0,0,40000
1131904,-3.0618388652801514,-5.5037312507629395,-578.0,172.0,6.577663421630859,24.833080291748047,0,0,0,40000
1131914,-3.3118863105773926,-5.398970603942871,-447.0,274.0,6.112358093261719,26.42983055114746,0,0,0,40000
1131924,-3.5572898387908936,-5.17793083190918,-338.0,372.0,4.944368362426758,28.00619888305664,0,0,0,40000
1131934,-3.716639995574951,-5.007892608642578,-361.0,360.0,4.076427459716797,29.071887969970703,0,0,0,40000
1131944,-3.995965003967285,-4.74273681640625,-375.0,334.0,2.6308670043945312,30.864347457885742,0,0,0,40000
1131954,-4.218344688415527,-4.599115371704102,-512.0,238.0,1.9087753295898438,32.322391510009766,0,0,0,40000
1131964,-4.610045433044434,-4.463507652282715,-588.0,121.0,1.2303199768066406,34.80602264404297,0,0,0,40000
1131974,-4.886905670166016,-4.426427841186523,-609.0,55.0,1.1410369873046875,36.610530853271484,0,0,0,40000
1131984,-5.339731693267822,-4.42963171005249,-656.0,-14.0,1.2929763793945312,39.48225784301758,0,0,0,40000
1131994,-5.6504974365234375,-4.442794322967529,-714.0,-59.0,1.5050926208496094,41.51255416870117,0,0,0,40000
1132004,-6.106973171234131,-4.477311611175537,-728.0,-72.0,1.8461036682128906,44.42898941040039,0,0,0,40000
1132014,-6.4327921867370605,-4.508706569671631,-722.0,-75.0,2.1693115234375,46.57305908203125,0,0,0,40000
1132024,-6.964879512786865,-4.5728960037231445,-779.0,-62.0,2.690896987915039,49.96813201904297,0,0,0,40000
1132034,-7.318652153015137,-4.612102031707764,-847.0,-42.0,3.064044952392578,52.305992126464844,0,0,0,40000
1132044,-7.837167263031006,-4.646512985229492,-796.0,6.0,3.409576416015625,55.64607620239258,0,0,0,40000
1132054,-8.144648551940918,-4.62117338180542,-681.0,150.0,3.396564483642578,57.7317008972168,0,0,0,40000
1132064,-8.564108848571777,-4.509298324584961,-640.0,241.0,2.862133026123047,60.50050354003906,0,0,0,40000
1132074,-8.825265884399414,-4.421262264251709,-630.0,286.0,2.467632293701172,62.32905578613281,0,0,0,40000
1132084,-9.18204402923584,-4.270097732543945,-560.0,314.0,1.690561294555664,64.74104309082031,0,0,0,40000
1132094,-9.408596992492676,-4.182651519775391,-526.0,337.0,1.2924079895019531,66.37996673583984,0,0,0,40000
1132104,-9.717384338378906,-4.070398330688477,-514.0,317.0,0.7422904968261719,68.5205078125,0,0,0,40000
1132114,-9.902850151062012,-4.002150535583496,-487.0,313.0,0.45366477966308594,69.92813873291016,0,0,0,40000
1132124,-10.159172058105469,-3.922295331954956,-402.0,303.0,0.09312820434570312,71.76799774169922,0,0,0,40000
1132134,-10.30633544921875,-3.8953042030334473,-319.0,233.0,0.04836082458496094,72.95848083496094,0,0,0,40000
1132144,-10.467595100402832,-3.8995461463928223,-265.0,189.0,0.19055938720703125,74.23827362060547,0,0,0,40000
1132154,-10.501383781433105,-3.9248464107513428,-144.0,205.0,0.4597949981689453,74.75569152832031,0,0,0,40000
1132164,-10.46347427368164,-3.9868557453155518,40.0,179.0,0.9506950378417969,74.84307098388672,0,0,0,40000
1132174,-10.396989822387695,-4.038674831390381,105.0,152.0,1.382110595703125,74.75688171386719,0,0,0,40000
1132184,-10.203522682189941,-4.119683265686035,215.0,160.0,1.9907302856445312,73.90471649169922,0,0,0,40000
1132194,-10.036489486694336,-4.198113918304443,274.0,150.0,2.5862884521484375,73.20567321777344,0,0,0,40000
1132204,-9.711249351501465,-4.310545921325684,351.0,180.0,3.388904571533203,71.5496597290039,0,0,0,40000
1132214,-9.45133113861084,-4.366016387939453,431.0,213.0,3.8520469665527344,70.27684020996094,0,0,0,40000
1132224,-8.987641334533691,-4.406712055206299,547.0,280.0,4.228094100952148,67.77017974853516,0,0,0,40000
1132234,-8.605337142944336,-4.402638912200928,743.0,350.0,4.335823059082031,65.73922729492188,0,0,0,40000
1132244,-7.927504539489746,-4.336023807525635,910.0,400.0,4.067218780517578,61.91859436035156,0,0,0,40000
1132254,-7.4315667152404785,-4.256607532501221,963.0,409.0,3.7193851470947266,59.17189407348633,0,0,0,40000
1132264,-6.606158256530762,-4.132418632507324,1080.0,478.0,3.0998764038085938,54.427757263183594,0,0,0,40000
1132274,-6.001420021057129,-4.02617883682251,1171.0,510.0,2.584545135498047,50.986724853515625,0,0,0,40000
1132284,-5.385890483856201,-3.906867742538452,1259.0,512.0,1.9631671905517578,47.42652130126953,0,0,0,40000
1132294,-4.427484035491943,-3.6994028091430664,1304.0,523.0,0.8540630340576172,41.846778869628906,0,0,0,40000
1132304,-3.74141263961792,-3.5281355381011963,1330.0,568.0,-0.08775520324707031,37.82427215576172,0,0,0,40000
1132314,-2.680567741394043,-3.2445719242095947,1445.0,547.0,-1.6883316040039062,31.552719116210938,0,0,0,40000
1132324,-1.9560768604278564,-3.0374245643615723,1538.0,556.0,-2.83758544921875,27.273242950439453,0,0,0,40000
1132334,-0.8104643225669861,-2.713233470916748,1579.0,572.0,-4.69734001159668,20.437679290771484,0,0,0,40000
1132344,-0.010430129244923592,-2.480656385421753,1665.0,547.0,-6.015567779541016,15.647400856018066,0,0,0,40000
1132354,1.2299975156784058,-2.137915849685669,1725.0,444.0,-8.003850936889648,8.182987213134766,0,0,0,40000
1132364,2.054806709289551,-1.9392130374908447,1747.0,344.0,-9.135564804077148,3.1823997497558594,0,0,0,40000
1132374,3.3044636249542236,-1.7058693170547485,1737.0,228.0,-10.481922149658203,-4.399772644042969,0,0,0,40000
1132384,4.148986339569092,-1.5854753255844116,1748.0,161.0,-11.155258178710938,-9.581226348876953,0,0,0,40000
1132394,5.393746852874756,-1.4427080154418945,1728.0,20.0,-11.967145919799805,-17.196674346923828,0,0,0,40000
1132404,6.195353031158447,-1.4005149602890015,1667.0,-71.0,-12.177827835083008,-22.182594299316406,0,0,0,40000
1132414,7.3572258949279785,-1.3943730592727661,1524.0,-175.0,-12.172965049743652,-29.360929489135742,0,0,0,40000
1132424,8.057958602905273,-1.4253584146499634,1345.0,-268.0,-11.944705963134766,-33.79875946044922,0,0,0,40000
1132434,8.970358848571777,-1.4929378032684326,1198.0,-305.0,-11.49522590637207,-39.531639099121094,0,0,0,40000
1132444,9.494271278381348,-1.557693362236023,1047.0,-383.0,-11.060811042785645,-42.95375061035156,0,0,0,40000
1132454,10.149064064025879,-1.706622838973999,853.0,-410.0,-10.11790657043457,-47.17964553833008,0,0,0,40000
1132464,10.533905029296875,-1.8092414140701294,715.0,-353.0,-9.449112892150879,-49.80015182495117,0,0,0,40000
1132474,10.977371215820312,-1.9642431735992432,513.0,-293.0,-8.462043762207031,-52.78539276123047,0,0,0,40000
1132484,11.163130760192871,-2.047816276550293,313.0,-245.0,-7.900201797485352,-54.23271942138672,0,0,0,40000
1132494,11.308735847473145,-2.1849513053894043,119.0,-273.0,-7.0135602951049805,-55.44428253173828,0,0,0,40000
1132504,11.325409889221191,-2.291802406311035,-104.0,-277.0,-6.304971694946289,-55.88404083251953,0,0,0,40000
1132514,11.188115119934082,-2.476374864578247,-288.0,-290.0,-5.125541687011719,-55.39802169799805,0,0,0,40000
1132524,11.003427505493164,-2.6124444007873535,-480.0,-311.0,-4.232359886169434,-54.6223030090332,0,0,0,40000
1132534,10.609648704528809,-2.8526651859283447,-641.0,-392.0,-2.708524703979492,-52.5830078125,0,0,0,40000
1132544,10.276981353759766,-3.028501272201538,-791.0,-461.0,-1.5647926330566406,-50.89937973022461,0,0,0,40000
1132554,9.676314353942871,-3.319352865219116,-917.0,-474.0,0.2764453887939453,-47.59315490722656,0,0,0,40000
1132564,9.226133346557617,-3.5150768756866455,-1033.0,-451.0,1.553903579711914,-45.17436218261719,0,0,0,40000
1132574,8.497210502624512,-3.775503635406494,-1080.0,-418.0,3.2266616821289062,-41.06462097167969,0,0,0,40000
1132584,7.986355304718018,-3.92714524269104,-1121.0,-334.0,4.252542495727539,-38.24525451660156,0,0,0,40000
1132594,7.220251560211182,-4.1044487953186035,-1103.0,-258.0,5.437557220458984,-33.874427795410156,0,0,0,40000
1132604,6.71648645401001,-4.166494846343994,-1050.0,-144.0,5.934146881103516,-31.059310913085938,0,0,0,40000
1132614,5.994125843048096,-4.2049102783203125,-1044.0,-74.0,6.290470123291016,-26.913663864135742,0,0,0,40000
1132624,5.525264739990234,-4.1957316398620605,-973.0,2.0,6.361440658569336,-24.271831512451172,0,0,0,40000
1132634,4.885641574859619,-4.141659736633301,-892.0,48.0,6.162017822265625,-20.588207244873047,0,0,0,40000
1132644,4.496578216552734,-4.089954376220703,-795.0,89.0,5.975166320800781,-18.393333435058594,0,0,0,40000
1132654,3.9932773113250732,-3.978090763092041,-694.0,100.0,5.424707412719727,-15.499129295349121,0,0,0,40000
1132664,3.7140979766845703,-3.8855807781219482,-571.0,168.0,4.987361907958984,-13.938749313354492,0,0,0,40000
1132674,3.3722336292266846,-3.7350823879241943,-445.0,195.0,4.198326110839844,-11.992517471313477,0,0,0,40000
1132684,3.197258472442627,-3.622718334197998,-329.0,156.0,3.634174346923828,-11.040596008300781,0,0,0,40000
1132694,3.023952007293701,-3.476780891418457,-214.0,142.0,2.8645858764648438,-10.093320846557617,0,0,0,40000
1132704,2.9599714279174805,-3.3939008712768555,-110.0,113.0,2.470090866088867,-9.798954963684082,0,0,0,40000
1132714,2.93979549407959,-3.2751126289367676,-17.0,96.0,1.8570270538330078,-9.766142845153809,0,0,0,40000
1132724,2.9690775871276855,-3.2082550525665283,61.0,62.0,1.5529365539550781,-10.030519485473633,0,0,0,40000
1132734,3.06836199760437,-3.131577253341675,127.0,18.0,1.1875877380371094,-10.716925621032715,0,0,0,40000
1132744,3.1662096977233887,-3.102924108505249,196.0,1.0,1.1090717315673828,-11.397783279418945,0,0,0,40000
1132754,3.341381788253784,-3.06425404548645,243.0,14.0,0.9694480895996094,-12.546791076660156,0,0,0,40000
1132764,3.477686643600464,-3.0616378784179688,262.0,-34.0,1.0456180572509766,-13.467316627502441,0,0,0,40000
1132774,3.699629545211792,-3.0584702491760254,305.0,-8.0,1.1184501647949219,-14.907198905944824,0,0,0,40000
1132784,3.859879732131958,-3.063265323638916,310.0,4.0,1.23907470703125,-15.982582092285156,0,0,0,40000
1132794,4.105309009552002,-3.0601017475128174,284.0,0.0,1.3119487762451172,-17.57546615600586,0,0,0,40000
1132804,4.275073051452637,-3.0648629665374756,319.0,-5.0,1.4324321746826172,-18.720237731933594,0,0,0,40000
1132814,4.529489994049072,-3.0654149055480957,322.0,-9.0,1.5276966094970703,-20.37958335876465,0,0,0,40000
1132824,4.693742275238037,-3.0644690990448,255.0,-38.0,1.6139678955078125,-21.503965377807617,0,0,0,40000
1132834,4.905493259429932,-3.0608949661254883,254.0,-25.0,1.684478759765625,-22.919023513793945,0,0,0,40000
1132844,5.026927471160889,-3.057873487472534,193.0,-52.0,1.7581062316894531,-23.797019958496094,0,0,0,40000
1132854,5.165511608123779,-3.0465774536132812,120.0,-6.0,1.7819480895996094,-24.782024383544922,0,0,0,40000
1132864,5.228389263153076,-3.034633159637451,71.0,-5.0,1.8014678955078125,-25.315399169921875,0,0,0,40000
1132874,5.281046390533447,-3.000959873199463,0.0,5.0,1.6898975372314453,-25.78931427001953,0,0,0,40000
1132884,5.292691707611084,-2.976339817047119,-59.0,-36.0,1.631753921508789,-26.017860412597656,0,0,0,40000
1132894,5.274649620056152,-2.9638590812683105,-93.0,-87.0,1.6458244323730469,-26.068134307861328,0,0,0,40000
1132904,5.231628894805908,-2.972841501235962,-142.0,-111.0,1.788778305053711,-25.967464447021484,0,0,0,40000
1132914,5.1609039306640625,-2.9903154373168945,-172.0,-118.0,1.9830808639526367,-25.698863983154297,0,0,0,40000
1132924,5.0909833908081055,-3.0005931854248047,-293.0,-123.0,2.1346120834350586,-25.43301773071289,0,0,0,40000
1132934,4.932939529418945,-2.9921867847442627,-300.0,-22.0,2.174250602722168,-24.634700775146484,0,0,0,40000
1132944,4.81068229675293,-2.9499640464782715,-325.0,-13.0,2.0099220275878906,-24.046964645385742,0,0,0,40000
1132954,4.597738742828369,-2.900730609893799,-352.0,25.0,1.8021774291992188,-22.90987205505371,0,0,0,40000
1132964,4.417990207672119,-2.8651514053344727,-387.0,-7.0,1.6750717163085938,-21.966108322143555,0,0,0,40000
1132974,4.117872714996338,-2.8571739196777344,-428.0,-17.0,1.7129831314086914,-20.292659759521484,0,0,0,40000
1132984,3.913210868835449,-2.865427017211914,-438.0,-55.0,1.8483495712280273,-19.184555053710938,0,0,0,40000
1132994,3.5975027084350586,-2.917450189590454,-418.0,-85.0,2.247325897216797,-17.401958465576172,0,0,0,40000
1133004,3.3805038928985596,-2.9596686363220215,-455.0,-70.0,2.588921546936035,-16.204036712646484,0,0,0,40000
1133014,3.079413890838623,-2.9795985221862793,-412.0,-40.0,2.7977237701416016,-14.493359565734863,0,0,0,40000
1133024,2.892875909805298,-2.9850175380706787,-386.0,3.0,2.9197378158569336,-13.463144302368164,0,0,0,40000
1133034,2.7543933391571045,-2.9526243209838867,-173.0,59.0,2.8144712448120117,-12.715356826782227,0,0,0,40000
1133044,2.7056803703308105,-2.958322525024414,-602.0,-84.0,2.937223434448242,-12.50525188446045,0,0,0,40000
1133054,2.4063661098480225,-2.9675004482269287,-193.0,158.0,3.0819053649902344,-10.785089492797852,0,0,0,40000
1133064,2.483776807785034,-2.850036382675171,-362.0,190.0,2.4640398025512695,-11.323369026184082,0,0,0,40000
1133074,2.3942739963531494,-2.921790361404419,-100.0,-54.0,2.9805259704589844,-10.857706069946289,0,0,0,40000
1133084,2.263338804244995,-2.967151641845703,75.0,-25.0,3.3412656784057617,-10.141529083251953,0,0,0,40000
1133094,2.1795990467071533,-2.98402738571167,-129.0,15.0,3.531900405883789,-9.706210136413574,0,0,0,40000
1133104,2.1784114837646484,-2.9562432765960693,-182.0,116.0,3.4542627334594727,-9.76455020904541,0,0,0,40000
1133114,2.134289026260376,-2.8596813678741455,-49.0,170.0,2.961850166320801,-9.563970565795898,0,0,0,40000
1133124,2.1070919036865234,-2.794903516769409,144.0,157.0,2.657811164855957,-9.463946342468262,0,0,0,40000
1133134,2.0687906742095947,-2.7639310359954834,174.0,37.0,2.5550155639648438,-9.296528816223145,0,0,0,40000
1133144,2.0665829181671143,-2.785677194595337,120.0,-68.0,2.7687482833862305,-9.345354080200195,0,0,0,40000
1133154,2.14388370513916,-2.8979668617248535,95.0,-153.0,3.5277462005615234,-9.872562408447266,0,0,0,40000
1133164,2.1716322898864746,-3.0057272911071777,98.0,-106.0,4.26318359375,-10.10383415222168,0,0,0,40000
1133174,2.1884965896606445,-3.0990779399871826,135.0,-35.0,4.915421485900879,-10.270393371582031,0,0,0,40000
1133184,2.1819050312042236,-3.1360599994659424,142.0,-34.0,5.23097038269043,-10.296384811401367,0,0,0,40000
1133194,2.1836087703704834,-3.2044639587402344,49.0,-64.0,5.736637115478516,-10.37252426147461,0,0,0,40000
1133204,2.1638827323913574,-3.2645182609558105,102.0,-113.0,6.19413948059082,-10.31936264038086,0,0,0,40000
1133214,2.1279032230377197,-3.377225399017334,123.0,-125.0,6.970462799072266,-10.167703628540039,0,0,0,40000
1133224,2.1672120094299316,-3.462383270263672,80.0,-115.0,7.584237098693848,-10.467958450317383,0,0,0,40000
1133234,2.1663358211517334,-3.5617313385009766,11.0,-40.0,8.286279678344727,-10.52778434753418,0,0,0,40000
1133244,2.1558876037597656,-3.535574436187744,-7.0,129.0,8.235821723937988,-10.530009269714355,0,0,0,40000
1133254,2.073150157928467,-3.3984243869781494,-51.0,254.0,7.516756057739258,-10.096807479858398,0,0,0,40000
1133264,2.007024049758911,-3.271721124649048,-94.0,280.0,6.856217384338379,-9.761086463928223,0,0,0,40000
1133274,1.8740390539169312,-3.045240879058838,-66.0,343.0,5.591464996337891,-9.020929336547852,0,0,0,40000
1133284,1.7741014957427979,-2.9213387966156006,-186.0,265.0,4.937125205993652,-8.475778579711914,0,0,0,40000
1133294,1.6121766567230225,-2.751540422439575,-153.0,287.0,4.002983093261719,-7.554563045501709,0,0,0,40000
1133304,1.5273274183273315,-2.625129461288452,-120.0,322.0,3.3247928619384766,-7.09226131439209,0,0,0,40000
1133314,1.4194366931915283,-2.4542171955108643,-105.0,316.0,2.3749170303344727,-6.4886860847473145,0,0,0,40000
1133324,1.3596259355545044,-2.318653106689453,-84.0,385.0,1.6327714920043945,-6.1713409423828125,0,0,0,40000
1133334,1.2968164682388306,-2.09521484375,1.0,406.0,0.3576192855834961,-5.8339948654174805,0,0,0,40000
1133344,1.277659296989441,-1.9781509637832642,48.0,338.0,-0.2840700149536133,-5.757582664489746,0,0,0,40000
1133354,1.309607982635498,-1.855957269668579,178.0,250.0,-0.9603290557861328,-5.987881660461426,0,0,0,40000
1133364,1.3830126523971558,-1.8206814527511597,271.0,153.0,-1.1170215606689453,-6.4688591957092285,0,0,0,40000
1133374,1.56693696975708,-1.8813573122024536,330.0,-6.0,-0.6976499557495117,-7.617117881774902,0,0,0,40000
1133384,1.7334896326065063,-1.9784834384918213,420.0,-118.0,-0.0567626953125,-8.66639518737793,0,0,0,40000
1133394,2.0322425365448,-2.1796393394470215,480.0,-216.0,1.2129945755004883,-10.516080856323242,0,0,0,40000
1133404,2.228346347808838,-2.342092275619507,479.0,-270.0,2.2559947967529297,-11.75718879699707,0,0,0,40000
1133414,2.5112321376800537,-2.5803072452545166,453.0,-257.0,3.759876251220703,-13.526557922363281,0,0,0,40000
1133424,2.666015863418579,-2.7241370677948,398.0,-200.0,4.702856063842773,-14.533422470092773,0,0,0,40000
1133434,2.8717117309570312,-2.9370951652526855,333.0,-201.0,6.066244125366211,-15.851340293884277,0,0,0,40000
1133444,2.999882221221924,-3.0736637115478516,266.0,-201.0,6.976215362548828,-16.708839416503906,0,0,0,40000
1133454,3.1480183601379395,-3.2460434436798096,162.0,-177.0,8.105803489685059,-17.690616607666016,0,0,0,40000
1133464,3.206232786178589,-3.308198928833008,73.0,-35.0,8.577352523803711,-18.135499954223633,0,0,0,40000
1133474,3.265474796295166,-3.291428327560425,26.0,99.0,8.576001167297363,-18.588459014892578,0,0,0,40000
1133484,3.265059232711792,-3.220264196395874,-49.0,191.0,8.246526718139648,-18.683996200561523,0,0,0,40000
1133494,3.186978816986084,-3.07360577583313,-95.0,237.0,7.460572242736816,-18.312152862548828,0,0,0,40000
1133504,3.0936226844787598,-2.9866809844970703,-137.0,180.0,7.029623031616211,-17.845972061157227,0,0,0,40000
1133514,2.9239134788513184,-2.9188716411590576,-216.0,-5.0,6.710934638977051,-16.91763687133789,0,0,0,40000
1133524,2.801669120788574,-2.9275643825531006,-236.0,-192.0,6.850727081298828,-16.269643783569336,0,0,0,40000
1133534,2.6282479763031006,-3.0475716590881348,-244.0,-347.0,7.660373687744141,-15.310038566589355,0,0,0,40000
1133544,2.49493408203125,-3.1866421699523926,-288.0,-378.0,8.588691711425781,-14.586623191833496,0,0,0,40000
1133554,2.292550802230835,-3.400765895843506,-250.0,-327.0,9.972879409790039,-13.443516731262207,0,0,0,40000
1133564,2.158273935317993,-3.506556749343872,-217.0,-172.0,10.711626052856445,-12.70421314239502,0,0,0,40000
1133574,1.9370472431182861,-3.541982412338257,-201.0,44.0,11.030410766601562,-11.437582015991211,0,0,0,40000
1133584,1.7942827939987183,-3.464134693145752,-179.0,281.0,10.668312072753906,-10.636555671691895,0,0,0,40000
1133594,1.5880972146987915,-3.21947979927063,-111.0,450.0,9.300301551818848,-9.449362754821777,0,0,0,40000
1133604,1.5005133152008057,-2.9895389080047607,-51.0,536.0,8.013147354125977,-8.969972610473633,0,0,0,40000
1133614,1.4266213178634644,-2.606250047683716,29.0,546.0,5.796247482299805,-8.570168495178223,0,0,0,40000
1133624,1.4265727996826172,-2.337818145751953,160.0,526.0,4.2590131759643555,-8.6126070022583,0,0,0,40000
1133634,1.4904402494430542,-1.9506503343582153,229.0,539.0,1.999110221862793,-9.03958511352539,0,0,0,40000
1133644,1.587154507637024,-1.6877708435058594,358.0,622.0,0.4756355285644531,-9.666269302368164,0,0,0,40000
1133654,1.7858641147613525,-1.2983946800231934,444.0,657.0,-1.8169641494750977,-10.90957260131836,0,0,0,40000
1133664,1.9496979713439941,-1.015205979347229,516.0,782.0,-3.4822072982788086,-11.949026107788086,0,0,0,40000
1133674,2.231787919998169,-0.5556924343109131,525.0,848.0,-6.217003345489502,-13.705095291137695,0,0,0,40000
1133684,2.442343235015869,-0.24094918370246887,592.0,879.0,-8.094463348388672,-15.0391206741333,0,0,0,40000
1133694,2.812030076980591,0.21223214268684387,649.0,861.0,-10.814553260803223,-17.33690643310547,0,0,0,40000
1133704,3.0780162811279297,0.5080354809761047,610.0,853.0,-12.601094245910645,-19.021953582763672,0,0,0,40000
1133714,3.5308785438537598,0.8840546011924744,619.0,810.0,-14.879373550415039,-21.839595794677734,0,0,0,40000
1133724,3.813445568084717,1.0795878171920776,581.0,716.0,-16.082748413085938,-23.646045684814453,0,0,0,40000
1133734,4.246042728424072,1.279642939567566,510.0,626.0,-17.31922149658203,-26.364009857177734,0,0,0,40000
1133744,4.512234687805176,1.374019980430603,466.0,534.0,-17.925649642944336,-28.093402862548828,0,0,0,40000
1133754,4.824469089508057,1.4343366622924805,417.0,466.0,-18.330059051513672,-30.10796356201172,0,0,0,40000
1133764,5.00257682800293,1.441914677619934,326.0,409.0,-18.418697357177734,-31.3245906829834,0,0,0,40000
1133774,5.2216644287109375,1.4308981895446777,259.0,338.0,-18.395771026611328,-32.79325485229492,0,0,0,40000
1133784,5.335461139678955,1.385127305984497,182.0,215.0,-18.163333892822266,-33.63472366333008,0,0,0,40000
1133794,5.451269149780273,1.2217934131622314,73.0,11.0,-17.22216796875,-34.491912841796875,0,0,0,40000
1133804,5.495378017425537,1.04759681224823,34.0,-209.0,-16.210609436035156,-34.92092514038086,0,0,0,40000
1133814,5.533952713012695,0.6383497714996338,-18.0,-421.0,-13.779659271240234,-35.31810760498047,0,0,0,40000
1133824,5.535496711730957,0.2893298268318176,-29.0,-609.0,-11.698461532592773,-35.493438720703125,0,0,0,40000
1133834,5.51071834564209,-0.32453832030296326,-17.0,-724.0,-8.013177871704102,-35.51030349731445,0,0,0,40000
1133844,5.479773044586182,-0.7677860856056213,-37.0,-762.0,-5.3359761238098145,-35.48941421508789,0,0,0,40000
1133854,5.395568370819092,-1.439496636390686,-50.0,-750.0,-1.2705631256103516,-35.14719772338867,0,0,0,40000
1133864,5.319404602050781,-1.856077790260315,-44.0,-645.0,1.2796611785888672,-34.8507194519043,0,0,0,40000
1133874,5.218169689178467,-2.3703980445861816,-60.0,-490.0,4.4308881759643555,-34.40125274658203,0,0,0,40000
1133884,5.137292385101318,-2.627523422241211,-43.0,-258.0,6.049487113952637,-34.07109832763672,0,0,0,40000
1133894,4.9961838722229,-2.872114896774292,-57.0,-63.0,7.600830078125,-33.376155853271484,0,0,0,40000
1133904,4.9044694900512695,-2.9302432537078857,-53.0,103.0,8.036922454833984,-32.97412872314453,0,0,0,40000
1133914,4.771422863006592,-2.8967819213867188,-54.0,321.0,7.923982620239258,-32.320640563964844,0,0,0,40000
1133924,4.662525653839111,-2.7821602821350098,-92.0,497.0,7.3211669921875,-31.808507919311523,0,0,0,40000
1133934,4.4888153076171875,-2.5024948120117188,-103.0,646.0,5.721904754638672,-30.903026580810547,0,0,0,40000
1133944,4.35206413269043,-2.249094009399414,-122.0,728.0,4.2720489501953125,-30.214683532714844,0,0,0,40000
1133954,4.211152076721191,-1.981490969657898,-127.0,784.0,2.7156171798706055,-29.47110366821289,0,0,0,40000
1133964,4.024702072143555,-1.5561686754226685,-139.0,747.0,0.21557044982910156,-28.475357055664062,0,0,0,40000
1133974,3.921769857406616,-1.2676628828048706,-136.0,677.0,-1.474008560180664,-27.976608276367188,0,0,0,40000
1133984,3.7708024978637695,-0.9091788530349731,-126.0,603.0,-3.5936059951782227,-27.18565559387207,0,0,0,40000
1133994,3.6607742309570312,-0.7155283093452454,-178.0,482.0,-4.73176383972168,-26.63665199279785,0,0,0,40000
1134004,3.4904897212982178,-0.509036660194397,-172.0,362.0,-5.953208923339844,-25.721641540527344,0,0,0,40000
1134014,3.3444879055023193,-0.43292149901390076,-179.0,268.0,-6.396083354949951,-24.947689056396484,0,0,0,40000
1134024,3.1357247829437256,-0.37846943736076355,-211.0,174.0,-6.710965156555176,-23.791807174682617,0,0,0,40000
1134034,2.9963059425354004,-0.3936730921268463,-241.0,48.0,-6.608180046081543,-23.046924591064453,0,0,0,40000
1134044,2.788532018661499,-0.5208337306976318,-286.0,-89.0,-5.831505298614502,-21.88641929626465,0,0,0,40000
1134054,2.6710174083709717,-0.6589295268058777,-313.0,-198.0,-4.984851837158203,-21.262853622436523,0,0,0,40000
1134064,2.4963526725769043,-0.9108749628067017,-282.0,-234.0,-3.4490432739257812,-20.29166030883789,0,0,0,40000
1134074,2.373358726501465,-1.108315348625183,-288.0,-250.0,-2.233527183532715,-19.626384735107422,0,0,0,40000
1134084,2.137399435043335,-1.3805828094482422,-319.0,-199.0,-0.5616865158081055,-18.277875900268555,0,0,0,40000
1134094,1.961943507194519,-1.5243983268737793,-322.0,-54.0,0.34529972076416016,-17.286121368408203,0,0,0,40000
1134104,1.6972143650054932,-1.6360585689544678,-299.0,49.0,1.0632343292236328,-15.75186824798584,0,0,0,40000
1134114,1.5221097469329834,-1.687119960784912,-316.0,84.0,1.4195880889892578,-14.748991012573242,0,0,0,40000
1134124,1.2776983976364136,-1.764758586883545,-313.0,79.0,1.9375066757202148,-13.323667526245117,0,0,0,40000
1134134,1.108201503753662,-1.7910232543945312,-322.0,125.0,2.148548126220703,-12.341950416564941,0,0,0,40000
1134144,0.8654048442840576,-1.7906055450439453,-327.0,176.0,2.199918746948242,-10.91402530670166,0,0,0,40000
1134154,0.6995778679847717,-1.7754675149917603,-372.0,179.0,2.162527084350586,-9.942062377929688,0,0,0,40000
1134164,0.44523558020591736,-1.7453513145446777,-420.0,197.0,2.034592628479004,-8.432589530944824,0,0,0,40000
1134174,0.265775203704834,-1.71653151512146,-421.0,200.0,1.9135398864746094,-7.36599063873291,0,0,0,40000
1134184,-0.027521677315235138,-1.6412006616592407,-407.0,179.0,1.5117664337158203,-5.608919143676758,0,0,0,40000
1134194,-0.22462981939315796,-1.5672539472579956,-393.0,209.0,1.1160478591918945,-4.421876430511475,0,0,0,40000
1134204,-0.5048911571502686,-1.4412364959716797,-414.0,197.0,0.4046945571899414,-2.728515148162842,0,0,0,40000
1134214,-0.6855661869049072,-1.3652819395065308,-420.0,169.0,-0.009171485900878906,-1.6260714530944824,0,0,0,40000
1134224,-0.9679633975028992,-1.2434924840927124,-399.0,137.0,-0.701141357421875,0.0939183235168457,0,0,0,40000
1134234,-1.1567950248718262,-1.1757582426071167,-366.0,56.0,-1.0714998245239258,1.259347915649414,0,0,0,40000
1134244,-1.4450434446334839,-1.1388423442840576,-345.0,-11.0,-1.258558750152588,3.0287485122680664,0,0,0,40000
1134254,-1.6328814029693604,-1.1586931943893433,-333.0,-110.0,-1.1049652099609375,4.202534198760986,0,0,0,40000
1134264,-1.8952728509902954,-1.1964019536972046,-278.0,-126.0,-0.8432502746582031,5.830766677856445,0,0,0,40000
1134274,-2.0293233394622803,-1.2053780555725098,-241.0,-120.0,-0.7533230781555176,6.694386959075928,0,0,0,40000
1134284,-2.1724183559417725,-1.2272847890853882,-221.0,-175.0,-0.585362434387207,7.616556644439697,0,0,0,40000
1134294,-2.2501208782196045,-1.2633960247039795,-221.0,-235.0,-0.33125782012939453,8.149345397949219,0,0,0,40000
1134304,-2.3931522369384766,-1.3504008054733276,-183.0,-237.0,0.23012685775756836,9.0775728225708,0,0,0,40000
1134314,-2.4932806491851807,-1.422538161277771,-132.0,-294.0,0.7047204971313477,9.751932144165039,0,0,0,40000
1134324,-2.6209654808044434,-1.555178165435791,-106.0,-329.0,1.5456304550170898,10.595211029052734,0,0,0,40000
1134334,-2.6920740604400635,-1.6589393615722656,-47.0,-352.0,2.216689109802246,11.101862907409668,0,0,0,40000
1134344,-2.763185501098633,-1.8110804557800293,-24.0,-333.0,3.1821370124816895,11.610666275024414,0,0,0,40000
1134354,-2.7856929302215576,-1.917051911354065,-12.0,-391.0,3.874166488647461,11.829019546508789,0,0,0,40000
1134364,-2.805999755859375,-2.130371332168579,-47.0,-453.0,5.215282440185547,12.034723281860352,0,0,0,40000
1134374,-2.837723731994629,-2.312124252319336,-51.0,-504.0,6.372945785522461,12.309794425964355,0,0,0,40000
1134384,-2.8955605030059814,-2.625732183456421,-8.0,-509.0,8.329560279846191,12.743083953857422,0,0,0,40000
1134394,-2.9345498085021973,-2.8199803829193115,-48.0,-454.0,9.577327728271484,13.064554214477539,0,0,0,40000
1134404,-2.9707107543945312,-3.0519967079162598,-93.0,-310.0,11.058435440063477,13.370185852050781,0,0,0,40000
1134414,-2.9847846031188965,-3.124187707901001,-50.0,-90.0,11.58458137512207,13.544036865234375,0,0,0,40000
1134424,-2.9901723861694336,-3.089179039001465,-72.0,107.0,11.467981338500977,13.666034698486328,0,0,0,40000
1134434,-3.004880666732788,-3.012392997741699,-77.0,220.0,11.09860610961914,13.844249725341797,0,0,0,40000
1134444,-3.0007355213165283,-2.879711151123047,-53.0,271.0,10.390440940856934,13.909451484680176,0,0,0,40000
1134454,-2.9642441272735596,-2.842597723007202,-56.0,180.0,10.253337860107422,13.779945373535156,0,0,0,40000
1134464,-2.879845142364502,-2.8322653770446777,-37.0,129.0,10.276511192321777,13.360984802246094,0,0,0,40000
1134474,-2.8313586711883545,-2.8212857246398926,-14.0,135.0,10.295368194580078,13.155603408813477,0,0,0,40000
1134484,-2.7172582149505615,-2.7861320972442627,38.0,171.0,10.168621063232422,12.55405330657959,0,0,0,40000
1134494,-2.598313808441162,-2.7119808197021484,88.0,204.0,9.805976867675781,11.91981315612793,0,0,0,40000
1134504,-2.3449220657348633,-2.599586248397827,198.0,243.0,9.210945129394531,10.47315788269043,0,0,0,40000
1134514,-2.15944242477417,-2.511688232421875,188.0,298.0,8.759967803955078,9.427249908447266,0,0,0,40000
1134524,-1.8767844438552856,-2.3552072048187256,258.0,365.0,7.893607139587402,7.79117488861084,0,0,0,40000
1134534,-1.6447769403457642,-2.2373270988464355,269.0,461.0,7.254884719848633,6.451311111450195,0,0,0,40000
1134544,-1.280248761177063,-1.9778140783309937,252.0,591.0,5.760639190673828,4.306868553161621,0,0,0,40000
1134554,-1.0604561567306519,-1.720526933670044,283.0,733.0,4.271732330322266,3.0225582122802734,0,0,0,40000
1134564,-0.7524365186691284,-1.198111653327942,317.0,938.0,1.179959774017334,1.2006480693817139,0,0,0,40000
1134574,-0.5498036742210388,-0.7367376685142517,325.0,1130.0,-1.5605082511901855,0.003739595413208008,0,0,0,40000
1134584,-0.28065356612205505,0.11964782327413559,353.0,1360.0,-6.6916303634643555,-1.5996098518371582,0,0,0,40000
1134594,-0.09914975613355637,0.7827337980270386,383.0,1516.0,-10.685574531555176,-2.6834876537323,0,0,0,40000
1134604,0.17185154557228088,1.8731341361999512,472.0,1652.0,-17.270784378051758,-4.311121463775635,0,0,0,40000
1134614,0.34417667984962463,2.660412073135376,442.0,1772.0,-22.064739227294922,-5.3533735275268555,0,0,0,40000
1134624,0.5376726984977722,3.921288013458252,406.0,1889.0,-29.73221778869629,-6.528581142425537,0,0,0,40000
1134634,0.6071812510490417,4.813405513763428,434.0,1961.0,-35.218563079833984,-6.963097095489502,0,0,0,40000
1134644,0.6373971104621887,6.241105556488037,464.0,2065.0,-43.954463958740234,-7.163320541381836,0,0,0,40000
1134654,0.561315655708313,7.261682510375977,364.0,2182.0,-50.283477783203125,-6.724726676940918,0,0,0,40000
1134664,0.35949867963790894,8.868233680725098,392.0,2306.0,-60.16934585571289,-5.527263641357422,0,0,0,40000
1134674,0.15080606937408447,9.974955558776855,312.0,2389.0,-67.0956039428711,-4.282203674316406,0,0,0,40000
1134684,-0.25907811522483826,11.626846313476562,313.0,2437.0,-77.33597564697266,-1.8202214241027832,0,0,0,40000
1134694,-0.5666894912719727,12.744461059570312,343.0,2540.0,-84.41053009033203,0.03872537612915039,0,0,0,40000
1134704,-1.1666837930679321,14.449224472045898,223.0,2585.0,-95.05216979980469,3.665898323059082,0,0,0,40000
1134714,-1.6574758291244507,15.586507797241211,255.0,2653.0,-102.32984161376953,6.654348373413086,0,0,0,40000
1134724,-2.520097494125366,17.32317543029785,149.0,2726.0,-113.24862670898438,11.894841194152832,0,0,0,40000
1134734,-3.1786272525787354,18.488710403442383,115.0,2813.0,-120.78253936767578,15.93338680267334,0,0,0,40000
1134744,-4.285212516784668,20.20391082763672,20.0,2843.0,-131.6593780517578,22.68757438659668,0,0,0,40000
1134754,-5.102816104888916,21.340301513671875,-90.0,2900.0,-139.10426330566406,27.736446380615234,0,0,0,40000
1134764,-6.4469733238220215,23.015758514404297,-103.0,2917.0,-149.82748413085938,35.978477478027344,0,0,0,40000
1134774,-7.443521022796631,24.104984283447266,-248.0,2925.0,-157.07290649414062,42.1690673828125,0,0,0,40000
1134784,-9.060310363769531,25.654226303100586,-320.0,2877.0,-167.11978149414062,52.12177276611328,0,0,0,40000
1134794,-10.23445987701416,26.595256805419922,-465.0,2758.0,-173.5526123046875,59.4594612121582,0,0,0,40000
1134804,-12.079524993896484,27.856813430786133,-603.0,2633.0,-181.9430389404297,70.86975860595703,0,0,0,40000
1134814,-13.360442161560059,28.575763702392578,-655.0,2480.0,-187.10556030273438,78.94068908691406,0,0,0,40000
1134824,-15.353671073913574,29.47252082824707,-751.0,2252.0,-193.36016845703125,91.33675384521484,0,0,0,40000
1134834,-16.701488494873047,29.898273468017578,-820.0,1948.0,-196.8067626953125,99.90845489501953,0,0,0,40000
1134844,-18.703025817871094,30.280200958251953,-923.0,1632.0,-200.00277709960938,112.45497131347656,0,0,0,40000
1134854,-19.99897575378418,30.3907413482666,-918.0,1339.0,-201.57655334472656,120.8151626586914,0,0,0,40000
1134864,-21.831754684448242,30.26448631286621,-902.0,928.0,-201.7295684814453,132.4451904296875,0,0,0,40000
1134874,-22.96527862548828,29.966794967651367,-906.0,476.0,-200.84625244140625,139.92176818847656,0,0,0,40000
1134884,-24.493961334228516,29.213069915771484,-860.0,25.0,-197.210205078125,149.81114196777344,0,0,0,40000
1134894,-25.360116958618164,28.510601043701172,-756.0,-433.0,-193.85940551757812,155.7587432861328,0,0,0,40000
1134904,-26.461299896240234,27.182493209838867,-669.0,-939.0,-186.72325134277344,163.14710998535156,0,0,0,40000
1134914,-27.083818435668945,26.052734375,-609.0,-1497.0,-180.74014282226562,167.6873321533203,0,0,0,40000
1134924,-27.876808166503906,23.940370559692383,-500.0,-2128.0,-168.8109130859375,173.27236938476562,0,0,0,40000
1134934,-28.29366683959961,22.267881393432617,-325.0,-2712.0,-159.46438598632812,176.6174774169922,0,0,0,40000
1134944,-28.73055076599121,19.400211334228516,-177.0,-3224.0,-142.8758087158203,180.0961151123047,0,0,0,40000
1134954,-28.921010971069336,17.33298110961914,-103.0,-3548.0,-131.01734924316406,182.10435485839844,0,0,0,40000
1134964,-29.071401596069336,14.041010856628418,-10.0,-3764.0,-111.72650146484375,183.87734985351562,0,0,0,40000
1134974,-29.14058494567871,11.772024154663086,113.0,-3888.0,-98.49311065673828,185.16592407226562,0,0,0,40000
1134984,-29.207609176635742,8.347127914428711,160.0,-3758.0,-78.23479461669922,186.443603515625,0,0,0,40000
1134994,-29.214698791503906,6.117387294769287,245.0,-3565.0,-65.06658935546875,187.36260986328125,0,0,0,40000
1135004,-29.160037994384766,2.975447654724121,339.0,-3146.0,-46.341148376464844,187.91033935546875,0,0,0,40000
1135014,-29.081005096435547,1.0526928901672363,390.0,-2680.0,-34.85898971557617,188.30958557128906,0,0,0,40000
1135024,-28.859092712402344,-1.496565580368042,457.0,-2124.0,-19.54795265197754,187.8470458984375,0,0,0,40000
1135034,-28.595582962036133,-2.897336959838867,555.0,-1387.0,-11.07284164428711,187.12718200683594,0,0,0,40000
1135044,-28.050418853759766,-4.498809814453125,656.0,-598.0,-1.3465347290039062,184.70469665527344,0,0,0,40000
1135054,-27.61185646057129,-5.234860420227051,775.0,132.0,3.218362808227539,182.9071044921875,0,0,0,40000
1135064,-26.82655143737793,-5.8336992263793945,898.0,849.0,6.980884552001953,179.00979614257812,0,0,0,40000
1135074,-26.237592697143555,-5.900579452514648,1017.0,1459.0,7.558746337890625,176.2702178955078,0,0,0,40000
1135084,-25.22334098815918,-5.633816242218018,1241.0,1886.0,6.131324768066406,170.9540252685547,0,0,0,40000
1135094,-24.47930908203125,-5.265430927276611,1476.0,2178.0,4.083549499511719,167.23329162597656,0,0,0,40000
1135104,-23.225595474243164,-4.537498950958252,1717.0,2349.0,-0.13868331909179688,160.42335510253906,0,0,0,40000
1135114,-22.287418365478516,-3.944474220275879,1970.0,2401.0,-3.571290969848633,155.47430419921875,0,0,0,40000
1135124,-20.650224685668945,-3.0065314769744873,2301.0,2476.0,-9.097293853759766,146.29083251953125,0,0,0,40000
1135134,-19.43806266784668,-2.3739945888519287,2666.0,2317.0,-12.813753128051758,139.61582946777344,0,0,0,40000
1135144,-17.44733428955078,-1.4444266557693481,2926.0,2233.0,-18.336685180664062,128.21942138671875,0,0,0,40000
1135154,-15.99108600616455,-0.861793041229248,3177.0,2069.0,-21.799701690673828,119.97926330566406,0,0,0,40000
1135164,-13.668213844299316,-0.06021922081708908,3454.0,1824.0,-26.598146438598633,106.48049926757812,0,0,0,40000
1135174,-12.036544799804688,0.39137446880340576,3649.0,1594.0,-29.31407928466797,97.07122802734375,0,0,0,40000
1135184,-9.505077362060547,0.9575076699256897,3870.0,1260.0,-32.73332214355469,82.19841003417969,0,0,0,40000
1135194,-7.780627727508545,1.2280946969985962,3915.0,922.0,-34.39059066772461,72.10579681396484,0,0,0,40000
1135204,-5.164618492126465,1.4301726818084717,3977.0,526.0,-35.644264221191406,56.59612274169922,0,0,0,40000
1135214,-3.397766351699829,1.4192886352539062,4000.0,89.0,-35.62186813354492,46.11814880371094,0,0,0,40000
1135224,-0.7472409009933472,1.1719614267349243,4053.0,-357.0,-34.17668914794922,30.26946258544922,0,0,0,40000
1135234,1.0191798210144043,0.8815793395042419,3969.0,-782.0,-32.46449279785156,19.661563873291016,0,0,0,40000
1135244,3.627877950668335,0.26079681515693665,3886.0,-1207.0,-28.75570297241211,3.931751251220703,0,0,0,40000
1135254,5.331374645233154,-0.2933530807495117,3768.0,-1611.0,-25.428804397583008,-6.428783416748047,0,0,0,40000
1135264,7.805929183959961,-1.2842214107513428,3543.0,-1991.0,-19.457406997680664,-21.48102378845215,0,0,0,40000
1135274,9.39340877532959,-2.032702684402466,3372.0,-2289.0,-14.914581298828125,-31.268644332885742,0,0,0,40000
1135284,11.664652824401855,-3.2218923568725586,3162.0,-2478.0,-7.6970672607421875,-45.21902847290039,0,0,0,40000
1135294,13.090089797973633,-4.003280162811279,2850.0,-2583.0,-2.8979644775390625,-54.14744567871094,0,0,0,40000
1135304,15.125534057617188,-5.073283672332764,2562.0,-2587.0,3.661722183227539,-66.79006958007812,0,0,0,40000
1135314,16.41522979736328,-5.6904120445251465,2343.0,-2490.0,7.527957916259766,-75.00532531738281,0,0,0,40000
1135324,18.140966415405273,-6.430439472198486,2006.0,-2287.0,12.152778625488281,-85.88384246826172,0,0,0,40000
1135334,19.161958694458008,-6.761242389678955,1732.0,-2029.0,14.33669662475586,-92.57247924804688,0,0,0,40000
1135344,20.525651931762695,-6.938301086425781,1328.0,-1655.0,15.606039047241211,-101.3550033569336,0,0,0,40000
1135354,21.294099807739258,-6.836735248565674,1024.0,-1215.0,15.203292846679688,-106.59546661376953,0,0,0,40000
1135364,22.188756942749023,-6.365121841430664,701.0,-812.0,12.571191787719727,-112.61911010742188,0,0,0,40000
1135374,22.669511795043945,-5.849569797515869,487.0,-414.0,9.659828186035156,-116.17811584472656,0,0,0,40000
1135384,23.189210891723633,-4.865527153015137,320.0,-126.0,3.913969039916992,-119.98613739013672,0,0,0,40000
1135394,23.374603271484375,-4.111316204071045,31.0,51.0,-0.4788627624511719,-121.79769134521484,0,0,0,40000
1135404,23.39898681640625,-2.9032859802246094,-262.0,194.0,-7.625175476074219,-122.64664459228516,0,0,0,40000
1135414,23.243972778320312,-2.059077739715576,-584.0,272.0,-12.618517875671387,-122.416015625,0,0,0,40000
1135424,22.785436630249023,-0.7817032933235168,-791.0,364.0,-20.24379539489746,-120.35441589355469,0,0,0,40000
1135434,22.33163833618164,0.08624477684497833,-1027.0,483.0,-25.443655014038086,-118.30711364746094,0,0,0,40000
1135444,21.48356056213379,1.409235954284668,-1234.0,583.0,-33.40787887573242,-113.87374114990234,0,0,0,40000
1135454,20.816091537475586,2.29353666305542,-1408.0,609.0,-38.7718505859375,-110.50152587890625,0,0,0,40000
1135464,19.69808578491211,3.57619309425354,-1574.0,551.0,-46.56013488769531,-104.3984603881836,0,0,0,40000
1135474,18.810932159423828,4.358299255371094,-1700.0,464.0,-51.37417221069336,-99.65060424804688,0,0,0,40000
1135484,17.346843719482422,5.409927845001221,-1891.0,366.0,-57.83411407470703,-91.40459442138672,0,0,0,40000
1135494,16.30542755126953,6.031603813171387,-2000.0,252.0,-61.737762451171875,-85.65788269042969,0,0,0,40000
1135504,14.577224731445312,6.838787078857422,-2201.0,167.0,-66.77665710449219,-75.74730682373047,0,0,0,40000
1135514,13.35954475402832,7.31825065612793,-2297.0,106.0,-69.86732482910156,-68.85670471191406,0,0,0,40000
1135524,11.400274276733398,7.922867298126221,-2398.0,61.0,-73.72574615478516,-57.46683883666992,0,0,0,40000
1135534,9.996724128723145,8.26038932800293,-2604.0,43.0,-75.99468231201172,-49.36238479614258,0,0,0,40000
1135544,7.802602291107178,8.660990715026855,-2619.0,-29.0,-78.6536865234375,-36.45813751220703,0,0,0,40000
1135554,6.307711601257324,8.809741020202637,-2791.0,-174.0,-79.80885314941406,-27.696083068847656,0,0,0,40000
1135564,4.00434684753418,8.838496208190918,-2816.0,-336.0,-80.2468032836914,-14.023689270019531,0,0,0,40000
1135574,2.4385833740234375,8.701910972595215,-2881.0,-573.0,-79.69017028808594,-4.721041679382324,0,0,0,40000
1135584,0.07307586818933487,8.2686185836792,-2953.0,-755.0,-77.34432983398438,9.44119644165039,0,0,0,40000
1135594,-1.5088191032409668,7.855621337890625,-2929.0,-913.0,-75.107177734375,18.95883560180664,0,0,0,40000
1135604,-3.8178553581237793,7.061636924743652,-2948.0,-998.0,-70.56521606445312,32.899723052978516,0,0,0,40000
1135614,-5.324901103973389,6.45125675201416,-2905.0,-1021.0,-67.10389709472656,42.08359146118164,0,0,0,40000
1135624,-7.552427291870117,5.432182312011719,-2843.0,-1013.0,-61.16496658325195,55.648773193359375,0,0,0,40000
1135634,-9.000679969787598,4.709094047546387,-2816.0,-939.0,-56.97639465332031,64.59101104736328,0,0,0,40000
1135644,-11.104358673095703,3.6426897048950195,-2824.0,-797.0,-50.69999313354492,77.52114868164062,0,0,0,40000
1135654,-12.446578979492188,2.947117567062378,-2768.0,-612.0,-46.62330627441406,85.93175506591797,0,0,0,40000
1135664,-14.422425270080566,1.9679452180862427,-2763.0,-435.0,-40.81888961791992,98.19591522216797,0,0,0,40000
1135674,-15.705801963806152,1.353208065032959,-2653.0,-202.0,-37.178367614746094,106.35205078125,0,0,0,40000
1135684,-17.548818588256836,0.5193373560905457,-2616.0,12.0,-32.200523376464844,117.91462707519531,0,0,0,40000
1135694,-18.740190505981445,0.024977903813123703,-2542.0,272.0,-29.240982055664062,125.61077880859375,0,0,0,40000
1135704,-20.437292098999023,-0.6368969082832336,-2485.0,456.0,-25.25826644897461,136.38624572753906,0,0,0,40000
1135714,-21.503164291381836,-1.0366154909133911,-2398.0,617.0,-22.833614349365234,143.41378784179688,0,0,0,40000
1135724,-22.516664505004883,-1.4135642051696777,-2204.0,774.0,-20.540245056152344,150.02923583984375,0,0,0,40000
1135734,-23.925004959106445,-1.9519561529159546,-2104.0,816.0,-17.25786781311035,159.18040466308594,0,0,0,40000
1135744,-24.810792922973633,-2.337669610977173,-2023.0,767.0,-14.878149032592773,165.2288818359375,0,0,0,40000
1135754,-26.04573631286621,-2.948859930038452,-1940.0,786.0,-11.12977409362793,173.4053192138672,0,0,0,40000
1135764,-26.78067398071289,-3.3621630668640137,-1841.0,760.0,-8.553974151611328,178.60964965820312,0,0,0,40000
1135774,-27.838985443115234,-4.014556884765625,-1677.0,677.0,-4.527351379394531,185.78240966796875,0,0,0,40000
1135784,-28.506202697753906,-4.478776931762695,-1575.0,553.0,-1.6132469177246094,190.63302612304688,0,0,0,40000
1135794,-29.441020965576172,-5.253964900970459,-1546.0,443.0,3.1861038208007812,197.1141357421875,0,0,0,40000
1135804,-30.01343536376953,-5.801928520202637,-1443.0,335.0,6.641391754150391,201.44232177734375,0,0,0,40000
1135814,-30.810213088989258,-6.602172374725342,-1367.0,258.0,11.631389617919922,207.13803100585938,0,0,0,40000
1135824,-31.314741134643555,-7.133001804351807,-1287.0,203.0,15.024009704589844,211.09866333007812,0,0,0,40000
1135834,-32.014930725097656,-7.892430782318115,-1233.0,192.0,19.80837631225586,216.25189208984375,0,0,0,40000
1135844,-32.42909240722656,-8.392189979553223,-1146.0,132.0,23.052730560302734,219.70480346679688,0,0,0,40000
1135854,-32.99080276489258,-9.08814811706543,-1014.0,120.0,27.492897033691406,224.0584716796875,0,0,0,40000
1135864,-33.28204345703125,-9.527848243713379,-853.0,133.0,30.411701202392578,226.80104064941406,0,0,0,40000
1135874,-33.63399887084961,-10.113849639892578,-660.0,156.0,34.22430419921875,229.91793823242188,0,0,0,40000
1135884,-33.80530548095703,-10.477503776550293,-466.0,193.0,36.71617889404297,231.95799255371094,0,0,0,40000
1135894,-33.96506118774414,-10.951371192932129,-273.0,208.0,39.882423400878906,233.93386840820312,0,0,0,40000
1135904,-33.986732482910156,-11.232904434204102,-97.0,258.0,41.90531921386719,235.08338928222656,0,0,0,40000
1135914,-33.86279296875,-11.56674861907959,193.0,346.0,44.251708984375,235.3578643798828,0,0,0,40000
1135924,-33.6522102355957,-11.747066497802734,444.0,418.0,45.68394088745117,235.10665893554688,0,0,0,40000
1135934,-33.115028381347656,-11.919290542602539,700.0,535.0,47.073097229003906,232.88406372070312,0,0,0,40000
1135944,-32.62474060058594,-11.988290786743164,945.0,617.0,47.845924377441406,230.9270782470703,0,0,0,40000
1135954,-31.73784637451172,-12.043601036071777,1158.0,675.0,48.53868103027344,226.56884765625,0,0,0,40000
1135964,-31.0398006439209,-12.073220252990723,1347.0,709.0,49.07826614379883,223.32028198242188,0,0,0,40000
1135974,-29.87091636657715,-12.102621078491211,1527.0,777.0,49.61733627319336,217.2176513671875,0,0,0,40000
1135984,-29.00259017944336,-12.10477066040039,1682.0,835.0,49.993408203125,212.88839721679688,0,0,0,40000
1135994,-27.610488891601562,-12.098937034606934,1794.0,846.0,50.321449279785156,205.38131713867188,0,0,0,40000
1136004,-26.586875915527344,-12.078473091125488,1914.0,871.0,50.56130599975586,200.04969787597656,0,0,0,40000
1136014,-24.910480499267578,-12.046622276306152,1941.0,891.0,50.73197937011719,190.7589569091797,0,0,0,40000
